$GPRMC,150341.000,A,5212.2522,N,00007.0742,E,0.18,65.97,311018,,,A*57
$GPVTG,65.97,T,,M,0.18,N,0.3,09,05,02,30,07,06,,,,,1.30,0.93,0.90*05
$GPRMC,150342.000,A,5212.2522,N,00007.0742,E,0.20,69.67,311018,,,A*5C
$GPVTG,69.67,T,,M,0.20,N,0.38,K,A*0A
$GPGGA,150343.000,5212.2523,N,00007.0743,E,1,08,0.93,-0.6,M,47.0,M,,*43
$GPGSA,A,3,29,23,09,05,02,30,07,06,,,,,1.30,0.93,0.90*05
$GPGSV,3,1,11,09,56,071,16,07,54,146,22,02,47,270,35,06,39,203,22*7A
$GPGSV,3,2,11,23,30,071,17,30,30,180,22,05,26,296,37,16,14,045,16*7F
$GPGSV,3,3,11,29,11,328,20,26,07,020,15,40,07,111,*4E
$GPRMC,150343.000,A,5212.2523,N,00007.0743,E,0.18,71.01,311018,,,A*5F
$GPVTG,71.01,T,,M,0.18,N,0.34,K,A*04
$GPGGA,150344.000,5212.2523,N,00007.0744,E,1,08,0.93,-0.6,M,47.0,M,,*43
$GPGSA,A,3,29,23,09,05,02,30,07,06,,,,,1.30,0.93,0.90*05
$GPRMC,150344.000,A,5212.2523,N,00007.0744,E,0.16,112.33,311018,,,A*64
$GPVTG,112.33,T,,M,0.16,N,0.30,K,A*3B
$GPGGA,150345.000,5212.2522,N,00007.0745,E,1,08,0.93,-0.6,M,47.0,M,,*42
$GPGSA,A,3,29,23,09,05,02,30,07,06,,,,,1.30,0.93,0.90*05
$GPRMC,150345.000,A,5212.2522,N,00007.0745,E,0.25,136.55,311018,,,A*63
$GPVTG,136.55,T,,M,0.25,N,0.46,K,A*3C
$GPGGA,150346.000,5212.2522,N,00007.0746,E,1,08,0.93,-0.6,M,47.0,M,,*42
$GPGSA,A,3,29,23,09,05,02,30,07,06,,,,,1.30,0.93,0.90*05
$GPRMC,150346.000,A,5212.2522,N,00007.0746,E,0.33,112.37,311018,,,A*66
$GPVTG,112.37,T,,M,0.33,N,0.62,K,A*3F
$GPGGA,150347.000,5212.2522,N,00007.0747,E,1,08,0.93,-0.6,M,47.0,M,,*42
$GPGSA,A,3,29,23,09,05,02,30,07,06,,,,,1.30,0.93,0.90*05
$GPRMC,150347.000,A,5212.2522,N,00007.0747,E,0.39,110.69,311018,,,A*65
$GPVTG,110.69,T,,M,0.39,N,0.73,K,A*3C
$GPGGA,150348.000,5212.2521,N,00007.0749,E,1,08,0.93,-0.6,M,47.0,M,,*40
$GPGSA,A,3,29,23,09,05,02,30,07,06,,,,,1.30,0.93,0.90*05
$GPGSV,3,1,11,09,56,071,17,07,54,146,27,02,47,270,34,06,39,203,25*78
$GPGSV,3,2,11,23,30,071,17,30,30,180,23,05,26,296,35,16,14,045,16*7C
$GPGSV,3,3,11,29,11,328,24,26,07,020,16,44,06,109,*45
$GPRMC,150348.000,A,5212.2521,N,00007.0749,E,0.17,123.57,311018,,,A*66
$GPVTG,123.57,T,,M,0.17,N,0.31,K,A*3B
$GPGGA,150349.000,5212.2521,N,00007.0750,E,1,08,0.93,-0.6,M,47.0,M,,*49
$GPGSA,A,3,29,23,09,05,02,30,07,06,,,,,1.30,0.93,0.90*05
$GPRMC,150349.000,A,5212.2521,N,00007.0750,E,0.09,121.91,311018,,,A*68
$GPVTG,121.91,T,,M,0.09,N,0.17,K,A*38
$GPGGA,150350.000,5212.2521,N,00007.0750,E,1,08,0.93,-0.6,M,47.0,M,,*41
$GPGSA,A,3,29,23,09,05,02,30,07,06,,,,,1.30,0.93,0.90*05
$GPRMC,150350.000,A,5212.2521,N,00007.0750,E,0.23,181.54,311018,,,A*6B
$GPVTG,181.54,T,,M,0.23,N,0.43,K,A*32
$GPGGA,150351.000,5212.2520,N,00007.0750,E,1,08,0.93,-0.6,M,47.0,M,,*41
$GPGSA,A,3,29,23,09,05,02,30,07,06,,,,,1.30,0.93,0.90*05
$GPRMC,150351.000,A,5212.2520,N,00007.0750,E,0.19,195.20,311018,,,A*64
$GPVTG,195.20,T,,M,0.19,N,0.34,K,A*3D
$GPGGA,150352.000,5212.2520,N,00007.0750,E,1,08,0.93,-0.6,M,47.0,M,,*42
$GPGSA,A,3,29,23,09,05,02,30,07,06,,,,,1.30,0.93,0.90*05
$GPRMC,150352.000,A,5212.2520,N,00007.0750,E,0.12,91.37,311018,,,A*5F
$GPVTG,91.37,T,,M,0.12,N,0.22,K,A*02
$GPGGA,150353.000,5212.2520,N,00007.0751,E,1,08,0.93,-0.6,M,47.0,M,,*42
$GPGSA,A,3,29,23,09,05,02,30,07,06,,,,,1.30,0.93,0.90*05
$GPGSV,3,1,11,09,56,071,17,07,54,146,29,02,47,270,34,06,39,203,27*74
$GPGSV,3,2,11,23,30,071,17,30,30,180,25,05,26,296,36,16,14,045,15*7A
$GPGSV,3,3,11,29,11,328,27,26,07,020,16,44,06,109,*46
$GPRMC,150353.000,A,5212.2520,N,00007.0751,E,0.36,103.44,311018,,,A*67
$GPVTG,103.44,T,,M,0.36,N,0.66,K,A*3A
$GPGGA,150354.000,5212.2520,N,00007.0752,E,1,08,0.93,-0.6,M,47.0,M,,*46
$GPGSA,A,3,29,23,09,05,02,30,07,06,,,,,1.30,0.93,0.90*05
$GPRMC,150354.000,A,5212.2520,N,00007.0752,E,0.28,109.08,311018,,,A*6E
$GPVTG,109.08,T,,M,0.28,N,0.53,K,A*31
$GPGGA,150355.000,5212.2519,N,00007.0754,E,1,08,0.93,-0.6,M,47.0,M,,*4B
$GPGSA,A,3,29,23,09,05,02,30,07,06,,,,,1.30,0.93,0.90*05
$GPRMC,150355.000,A,5212.2519,N,00007.0754,E,0.20,85.74,311018,,,A*55
$GPVTG,85.74,T,,M,0.20,N,0.37,K,A*05
$GPGGA,150356.000,5212.2520,N,00007.0755,E,1,08,0.93,-0.6,M,47.0,M,,*43
$GPGSA,A,3,29,23,09,05,02,30,07,06,,,,,1.30,0.93,0.90*05
$GPRMC,150356.000,A,5212.2520,N,00007.0755,E,0.23,84.58,311018,,,A*51
$GPVTG,84.58,T,,M,0.23,N,0.43,K,A*0A
$GPGGA,150357.000,5212.2520,N,00007.0756,E,1,08,0.93,-0.6,M,47.0,M,,*41
$GPGSA,A,3,29,23,09,05,02,30,07,06,,,,,1.30,0.93,0.90*05
$GPRMC,150357.000,A,5212.2520,N,00007.0756,E,0.26,63.91,311018,,,A*5A
$GPVTG,63.91,T,,M,0.26,N,0.49,K,A*09
$GPGGA,150358.000,5212.2520,N,00007.0757,E,1,08,0.93,-0.6,M,47.0,M,,*4F
$GPGSA,A,3,29,23,09,05,02,30,07,06,,,,,1.30,0.93,0.90*05
$GPGSV,3,1,11,09,56,071,18,07,54,146,29,02,47,270,35,06,39,203,29*74
$GPGSV,3,2,11,30,30,180,24,23,29,071,16,33,28,199,,05,26,296,36*7E
$GPGSV,3,3,11,16,14,045,16,29,11,328,26,26,07,020,15*4E
$GPRMC,150358.000,A,5212.2520,N,00007.0757,E,0.14,72.63,311018,,,A*58
$GPVTG,72.63,T,,M,0.14,N,0.25,K,A*0F
$GPGGA,150359.000,5212.2520,N,00007.0758,E,1,08,0.93,-0.6,M,47.0,M,,*41
$GPGSA,A,3,29,23,09,05,02,30,07,06,,,,,1.30,0.93,0.90*05
$GPRMC,150359.000,A,5212.2520,N,00007.0758,E,0.24,33.77,311018,,,A*55
$GPVTG,33.77,T,,M,0.24,N,0.45,K,A*0A
$GPGGA,150400.000,5212.2521,N,00007.0758,E,1,08,0.93,-0.6,M,47.0,M,,*4B
$GPGSA,A,3,29,23,09,05,02,30,07,06,,,,,1.30,0.93,0.90*05
$GPRMC,150400.000,A,5212.2521,N,00007.0758,E,0.34,49.71,311018,,,A*55
$GPVTG,49.71,T,,M,0.34,N,0.63,K,A*04
$GPGGA,150401.000,5212.2521,N,00007.0760,E,1,08,0.93,-0.6,M,47.0,M,,*41
$GPGSA,A,3,29,23,09,05,02,30,07,06,,,,,1.30,0.93,0.90*05
$GPRMC,150401.000,A,5212.2521,N,00007.0760,E,0.19,87.98,311018,,,A*55
$GPVTG,87.98,T,,M,0.19,N,0.35,K,A*0D
$GPGGA,150402.000,5212.2521,N,00007.0760,E,1,08,0.93,-0.6,M,47.0,M,,*42
$GPGSA,A,3,29,23,09,05,02,30,07,06,,,,,1.30,0.93,0.90*05
$GPRMC,150402.000,A,5212.2521,N,00007.0760,E,0.23,55.54,311018,,,A*50
$GPVTG,55.54,T,,M,0.23,N,0.42,K,A*0B
$GPGGA,150403.000,5212.2522,N,00007.0761,E,1,08,0.93,-0.6,M,47.0,M,,*41
$GPGSA,A,3,29,23,09,05,02,30,07,06,,,,,1.30,0.93,0.90*05
$GPGSV,3,1,11,09,56,071,18,07,54,146,30,02,47,270,35,06,39,203,30*74
$GPGSV,3,2,11,30,30,180,23,23,29,071,17,33,28,199,,05,26,296,34*7A
$GPGSV,3,3,11,16,14,045,15,29,11,328,27,26,07,020,15*4C
$GPRMC,150403.000,A,5212.2522,N,00007.0761,E,0.13,128.77,311018,,,A*6A
$GPVTG,128.77,T,,M,0.13,N,0.25,K,A*33
$GPGGA,150404.000,5212.2521,N,00007.0761,E,1,08,0.93,-0.6,M,47.0,M,,*45
$GPGSA,A,3,29,23,09,05,02,30,07,06,,,,,1.30,0.93,0.90*05
$GPRMC,150404.000,A,5212.2521,N,00007.0761,E,0.12,192.64,311018,,,A*6C
$GPVTG,192.64,T,,M,0.12,N,0.23,K,A*37
$GPGGA,150405.000,5212.2521,N,00007.0761,E,1,08,0.93,-0.6,M,47.0,M,,*44
$GPGSA,A,3,29,23,09,05,02,30,07,06,,,,,1.30,0.93,0.90*05
$GPRMC,150405.000,A,5212.2521,N,00007.0761,E,0.19,229.73,311018,,,A*63
$GPVTG,229.73,T,,M,0.19,N,0.35,K,A*3E
$GPGGA,150406.000,5212.2521,N,00007.0760,E,1,08,0.93,-0.6,M,47.0,M,,*46
$GPGSA,A,3,29,23,09,05,02,30,07,06,,,,,1.30,0.93,0.90*05
$GPRMC,150406.000,A,5212.2521,N,00007.0760,E,0.25,209.20,311018,,,A*6A
$GPVTG,209.20,T,,M,0.25,N,0.46,K,A*31
$GPGGA,150407.000,5212.2520,N,00007.0760,E,1,08,0.93,-0.6,M,47.0,M,,*46
$GPGSA,A,3,29,23,09,05,02,30,07,06,,,,,1.30,0.93,0.90*05
$GPRMC,150407.000,A,5212.2520,N,00007.0760,E,0.28,220.97,311018,,,A*60
$GPVTG,220.97,T,,M,0.28,N,0.53,K,A*3F
$GPGGA,150408.000,5212.2519,N,00007.0759,E,1,08,0.93,-0.6,M,47.0,M,,*49
$GPGSA,A,3,29,23,09,05,02,30,07,06,,,,,1.30,0.93,0.90*05
$GPGSV,3,1,11,09,56,071,17,07,54,146,30,02,47,270,34,06,39,203,29*72
$GPGSV,3,2,11,30,30,180,23,23,29,071,17,37,27,153,,05,26,296,35*76
$GPGSV,3,3,11,16,14,045,13,29,11,328,26,26,07,020,16*48
$GPRMC,150408.000,A,5212.2519,N,00007.0759,E,0.39,222.55,311018,,,A*63
$GPVTG,222.55,T,,M,0.39,N,0.72,K,A*30
$GPGGA,150409.000,5212.2519,N,00007.0758,E,1,08,0.93,-0.6,M,47.0,M,,*49
$GPGSA,A,3,29,23,09,05,02,30,07,06,,,,,1.30,0.93,0.90*05
$GPRMC,150409.000,A,5212.2519,N,00007.0758,E,0.49,234.85,311018,,,A*6E
$GPVTG,234.85,T,,M,0.49,N,0.90,K,A*31
$GPGGA,150410.000,5212.2518,N,00007.0756,E,1,08,0.93,-0.6,M,47.0,M,,*4E
$GPGSA,A,3,29,23,09,05,02,30,07,06,,,,,1.30,0.93,0.90*05
$GPRMC,150410.000,A,5212.2518,N,00007.0756,E,0.55,248.24,311018,,,A*64
$GPVTG,248.24,T,,M,0.55,N,1.01,K,A*35
$GPGGA,150411.000,5212.2517,N,00007.0754,E,1,08,0.93,-0.6,M,47.0,M,,*42
$GPGSA,A,3,29,23,09,05,02,30,07,06,,,,,1.30,0.93,0.90*05
$GPRMC,150411.000,A,5212.2517,N,00007.0754,E,0.50,238.73,311018,,,A*68
$GPVTG,238.73,T,,M,0.50,N,0.93,K,A*3F
$GPGGA,150412.000,5212.2517,N,00007.0752,E,1,08,0.93,-0.6,M,47.0,M,,*47
$GPGSA,A,3,29,23,09,05,02,30,07,06,,,,,1.30,0.93,0.90*05
$GPRMC,150412.000,A,5212.2517,N,00007.0752,E,0.43,236.64,311018,,,A*67
$GPVTG,236.64,T,,M,0.43,N,0.80,K,A*37
$GPGGA,150413.000,5212.2516,N,00007.0750,E,1,08,0.93,-0.6,M,47.0,M,,*45
$GPGSA,A,3,29,23,09,05,02,30,07,06,,,,,1.30,0.93,0.90*05
$GPGSV,3,1,11,09,56,071,17,07,54,146,29,02,47,270,34,06,39,203,28*7B
$GPGSV,3,2,11,30,30,180,24,23,29,071,16,37,27,153,,05,26,296,35*70
$GPGSV,3,3,11,16,14,045,15,29,11,328,27,26,07,020,16*4F
$GPRMC,150413.000,A,5212.2516,N,00007.0750,E,0.42,227.06,311018,,,A*60
$GPVTG,227.06,T,,M,0.42,N,0.78,K,A*35
$GPGGA,150414.000,5212.2515,N,00007.0749,E,1,08,0.93,-0.6,M,47.0,M,,*49
$GPGSA,A,3,29,23,09,05,02,30,07,06,,,,,1.30,0.93,0.90*05
$GPRMC,150414.000,A,5212.2515,N,00007.0749,E,0.40,238.48,311018,,,A*6A
$GPVTG,238.48,T,,M,0.40,N,0.74,K,A*3F
$GPGGA,150415.000,5212.2515,N,00007.0747,E,1,08,0.93,-0.6,M,47.0,M,,*46
$GPGSA,A,3,29,23,09,05,02,30,07,06,,,,,1.30,0.93,0.90*05
$GPRMC,150415.000,A,5212.2515,N,00007.0747,E,0.35,242.09,311018,,,A*6F
$GPVTG,242.09,T,,M,0.35,N,0.65,K,A*35
$GPGGA,150416.000,5212.2514,N,00007.0746,E,1,08,0.93,-0.6,M,47.0,M,,*45
$GPGSA,A,3,29,23,09,05,02,30,07,06,,,,,1.30,0.93,0.90*05
$GPRMC,150416.000,A,5212.2514,N,00007.0746,E,0.31,257.91,311018,,,A*6D
$GPVTG,257.91,T,,M,0.31,N,0.57,K,A*35
$GPGGA,150417.000,5212.2514,N,00007.0745,E,1,08,0.93,-0.6,M,47.0,M,,*47
$GPGSA,A,3,29,23,09,05,02,30,07,06,,,,,1.30,0.93,0.90*05
$GPRMC,150417.000,A,5212.2514,N,00007.0745,E,0.32,238.51,311018,,,A*69
$GPVTG,238.51,T,,M,0.32,N,0.60,K,A*37
$GPGGA,150418.000,5212.2514,N,00007.0744,E,1,08,0.93,-0.6,M,47.0,M,,*49
$GPGSA,A,3,29,23,09,05,02,30,07,06,,,,,1.30,0.93,0.90*05
$GPGSV,3,1,11,09,56,071,13,07,54,146,29,02,47,270,33,06,39,203,28*78
$GPGSV,3,2,11,30,30,180,23,23,29,071,15,05,26,296,36,39,25,149,*70
$GPGSV,3,3,11,16,14,045,14,29,11,328,28,26,07,020,15*42
$GPRMC,150418.000,A,5212.2514,N,00007.0744,E,0.38,240.77,311018,,,A*66
$GPVTG,240.77,T,,M,0.38,N,0.70,K,A*37
$GPGGA,150419.000,5212.2513,N,00007.0742,E,1,08,0.93,-0.6,M,47.0,M,,*49
$GPGSA,A,3,29,23,09,05,02,30,07,06,,,,,1.30,0.93,0.90*05
$GPRMC,150419.000,A,5212.2513,N,00007.0742,E,0.36,233.59,311018,,,A*60
$GPVTG,233.59,T,,M,0.36,N,0.67,K,A*37
$GPGGA,150420.000,5212.2512,N,00007.0740,E,1,08,0.93,-0.6,M,47.0,M,,*40
$GPGSA,A,3,29,23,09,05,02,30,07,06,,,,,1.30,0.93,0.90*05
$GPRMC,150420.000,A,5212.2512,N,00007.0740,E,0.48,232.03,311018,,,A*6E
$GPVTG,232.03,T,,M,0.48,N,0.89,K,A*30
$GPGGA,150421.000,5212.2511,N,00007.0739,E,1,08,0.93,-0.6,M,47.0,M,,*4C
$GPGSA,A,3,29,23,09,05,02,30,07,06,,,,,1.30,0.93,0.90*05
$GPRMC,150421.000,A,5212.2511,N,00007.0739,E,0.34,227.62,311018,,,A*6A
$GPVTG,227.62,T,,M,0.34,N,0.62,K,A*3D
$GPGGA,150422.000,5212.2511,N,00007.0738,E,1,08,0.93,-0.6,M,47.0,M,,*4E
$GPGSA,A,3,29,23,09,05,02,30,07,06,,,,,1.30,0.93,0.90*05
$GPRMC,150422.000,A,5212.2511,N,00007.0738,E,0.38,240.14,311018,,,A*64
$GPVTG,240.14,T,,M,0.38,N,0.70,K,A*32
$GPGGA,150423.000,5212.2510,N,00007.0736,E,1,08,0.93,-0.6,M,47.0,M,,*40
$GPGSA,A,3,29,23,09,05,02,30,07,06,,,,,1.30,0.93,0.90*05
$GPGSV,3,1,11,09,56,071,21,07,54,146,30,02,47,270,33,06,39,203,29*70
$GPGSV,3,2,11,30,30,180,22,23,29,071,16,05,26,296,35,39,25,149,*71
$GPGSV,3,3,11,16,14,045,16,29,11,328,29,26,07,020,15*41
$GPRMC,150423.000,A,5212.2510,N,00007.0736,E,0.43,241.09,311018,,,A*6B
$GPVTG,241.09,T,,M,0.43,N,0.79,K,A*3A
$GPGGA,150424.000,5212.2510,N,00007.0734,E,1,08,0.93,-0.6,M,47.0,M,,*45
$GPGSA,A,3,29,23,09,05,02,30,07,06,,,,,1.30,0.93,0.90*05
$GPRMC,150424.000,A,5212.2510,N,00007.0734,E,0.30,210.50,311018,,,A*62
$GPVTG,210.50,T,,M,0.30,N,0.56,K,A*3B
$GPGGA,150425.000,5212.2509,N,00007.0734,E,1,08,0.93,-0.6,M,47.0,M,,*4C
$GPGSA,A,3,29,23,09,05,02,30,07,06,,,,,1.30,0.93,0.90*05
$GPRMC,150425.000,A,5212.2509,N,00007.0734,E,0.22,214.08,311018,,,A*61
$GPVTG,214.08,T,,M,0.22,N,0.41,K,A*37
$GPGGA,150426.000,5212.2509,N,00007.0733,E,1,08,0.93,-0.6,M,47.0,M,,*48
$GPGSA,A,3,29,23,09,05,02,30,07,06,,,,,1.30,0.93,0.90*05
$GPRMC,150426.000,A,5212.2509,N,00007.0733,E,0.14,179.50,311018,,,A*65
$GPVTG,179.50,T,,M,0.14,N,0.27,K,A*37
$GPGGA,150427.000,5212.2508,N,00007.0733,E,1,08,0.93,-0.6,M,47.0,M,,*48
$GPGSA,A,3,29,23,09,05,02,30,07,06,,,,,1.30,0.93,0.91*04
$GPRMC,150427.000,A,5212.2508,N,00007.0733,E,0.25,177.30,311018,,,A*6F
$GPVTG,177.30,T,,M,0.25,N,0.46,K,A*3A
$GPGGA,150428.000,5212.2507,N,00007.0733,E,1,08,0.93,-0.6,M,47.0,M,,*48
$GPGSA,A,3,29,23,09,05,02,30,07,06,,,,,1.30,0.93,0.91*04
$GPGSV,3,1,11,09,56,071,21,07,54,146,28,02,47,270,32,06,39,203,30*70
$GPGSV,3,2,11,30,30,180,23,23,29,071,13,05,26,296,35,16,14,045,16*70
$GPGSV,3,3,11,29,11,328,28,26,07,020,14,40,07,111,*47
$GPRMC,150428.000,A,5212.2507,N,00007.0733,E,0.25,139.58,311018,,,A*6B
$GPVTG,139.58,T,,M,0.25,N,0.46,K,A*3E
$GPGGA,150429.000,5212.2507,N,00007.0734,E,1,08,0.93,-0.6,M,47.0,M,,*4E
$GPGSA,A,3,29,23,09,05,02,30,07,06,,,,,1.30,0.93,0.91*04
$GPRMC,150429.000,A,5212.2507,N,00007.0734,E,0.09,133.55,311018,,,A*64
$GPVTG,133.55,T,,M,0.09,N,0.16,K,A*32
$GPGGA,150430.000,5212.2507,N,00007.0734,E,1,08,0.93,-0.6,M,47.0,M,,*46
$GPGSA,A,3,29,23,09,05,02,30,07,06,,,,,1.30,0.93,0.91*04
$GPRMC,150430.000,A,5212.2507,N,00007.0734,E,0.13,278.65,311018,,,A*68
$GPVTG,278.65,T,,M,0.13,N,0.24,K,A*37
$GPGGA,150431.000,5212.2507,N,00007.0734,E,1,08,0.93,-0.6,M,47.0,M,,*47
$GPGSA,A,3,29,23,09,05,02,30,07,06,,,,,1.30,0.93,0.91*04
$GPRMC,150431.000,A,5212.2507,N,00007.0734,E,0.06,191.76,311018,,,A*6B
$GPVTG,191.76,T,,M,0.06,N,0.12,K,A*30
$GPGGA,150432.000,5212.2507,N,00007.0734,E,1,08,0.93,-0.6,M,47.0,M,,*44
$GPGSA,A,3,29,23,09,05,02,30,07,06,,,,,1.30,0.93,0.91*04
$GPRMC,150432.000,A,5212.2507,N,00007.0734,E,0.09,171.80,311018,,,A*60
$GPVTG,171.80,T,,M,0.09,N,0.17,K,A*3D
$GPGGA,150433.000,5212.2506,N,00007.0733,E,1,08,0.93,-0.6,M,47.0,M,,*43
$GPGSA,A,3,29,23,09,05,02,30,07,06,,,,,1.30,0.93,0.91*04
$GPGSV,3,1,11,09,56,071,19,07,54,146,30,02,47,270,32,06,39,203,30*72
$GPGSV,3,2,11,30,30,180,26,23,29,072,15,05,26,296,35,16,14,045,16*70
$GPGSV,3,3,11,29,11,328,27,26,07,020,15,40,07,111,*49
$GPRMC,150433.000,A,5212.2506,N,00007.0733,E,0.40,226.98,311018,,,A*62
$GPVTG,226.98,T,,M,0.40,N,0.74,K,A*3D
$GPGGA,150434.000,5212.2506,N,00007.0732,E,1,08,0.93,-0.6,M,47.0,M,,*45
$GPGSA,A,3,29,23,09,05,02,30,07,06,,,,,1.30,0.93,0.91*04
$GPRMC,150434.000,A,5212.2506,N,00007.0732,E,0.45,230.70,311018,,,A*60
$GPVTG,230.70,T,,M,0.45,N,0.82,K,A*30
$GPGGA,150435.000,5212.2505,N,00007.0730,E,1,08,0.93,-0.6,M,47.0,M,,*45
$GPGSA,A,3,29,23,09,05,02,30,07,06,,,,,1.30,0.93,0.91*04
$GPRMC,150435.000,A,5212.2505,N,00007.0730,E,0.47,239.94,311018,,,A*61
$GPVTG,239.94,T,,M,0.47,N,0.88,K,A*3B
$GPGGA,150436.000,5212.2504,N,00007.0728,E,1,08,0.93,-0.6,M,47.0,M,,*4E
$GPGSA,A,3,29,23,09,05,02,30,07,06,,,,,1.30,0.93,0.91*04
$GPRMC,150436.000,A,5212.2504,N,00007.0728,E,0.43,243.31,311018,,,A*6C
$GPVTG,243.31,T,,M,0.43,N,0.80,K,A*35
$GPGGA,150437.000,5212.2504,N,00007.0727,E,1,08,0.93,-0.6,M,47.0,M,,*40
$GPGSA,A,3,29,23,09,05,02,30,07,06,,,,,1.30,0.93,0.91*04
$GPRMC,150437.000,A,5212.2504,N,00007.0727,E,0.46,241.75,311018,,,A*65
$GPVTG,241.75,T,,M,0.46,N,0.86,K,A*34
$GPGGA,150438.000,5212.2503,N,00007.0725,E,1,08,0.93,-0.6,M,47.0,M,,*4A
$GPGSA,A,3,29,23,09,05,02,30,07,06,,,,,1.30,0.93,0.91*04
$GPGSV,3,1,11,09,56,071,21,07,54,146,29,02,47,270,32,06,39,203,29*79
$GPGSV,3,2,11,30,30,180,26,23,29,072,15,05,26,296,34,16,14,045,16*71
$GPGSV,3,3,11,29,11,328,27,26,07,020,14,44,06,109,*44
$GPRMC,150438.000,A,5212.2503,N,00007.0725,E,0.38,240.41,311018,,,A*60
$GPVTG,240.41,T,,M,0.38,N,0.70,K,A*32
$GPGGA,150439.000,5212.2502,N,00007.0723,E,1,08,0.93,-0.6,M,47.0,M,,*4C
$GPGSA,A,3,29,23,09,05,02,30,07,06,,,,,1.30,0.93,0.91*04
$GPRMC,150439.000,A,5212.2502,N,00007.0723,E,0.41,206.96,311018,,,A*60
$GPVTG,206.96,T,,M,0.41,N,0.76,K,A*32
$GPGGA,150440.000,5212.2501,N,00007.0723,E,1,08,0.93,-0.6,M,47.0,M,,*41
$GPGSA,A,3,29,23,09,05,02,30,07,06,,,,,1.30,0.93,0.91*04
$GPRMC,150440.000,A,5212.2501,N,00007.0723,E,0.39,205.90,311018,,,A*67
$GPVTG,205.90,T,,M,0.39,N,0.72,K,A*3C
$GPGGA,150441.000,5212.2500,N,00007.0722,E,1,08,0.93,-0.6,M,47.0,M,,*40
$GPGSA,A,3,29,23,09,05,02,30,07,06,,,,,1.30,0.93,0.91*04
$GPRMC,150441.000,A,5212.2500,N,00007.0722,E,0.26,215.08,311018,,,A*68
$GPVTG,215.08,T,,M,0.26,N,0.49,K,A*3A
$GPGGA,150442.000,5212.2500,N,00007.0721,E,1,08,0.93,-0.6,M,47.0,M,,*40
$GPGSA,A,3,29,23,09,05,02,30,07,06,,,,,1.30,0.93,0.91*04
$GPRMC,150442.000,A,5212.2500,N,00007.0721,E,0.12,194.65,311018,,,A*6E
$GPVTG,194.65,T,,M,0.12,N,0.22,K,A*31
$GPGGA,150443.000,5212.2500,N,00007.0721,E,1,08,0.93,-0.6,M,47.0,M,,*41
$GPGSA,A,3,29,23,09,05,02,30,07,06,,,,,1.30,0.93,0.91*04
$GPGSV,3,1,11,09,56,071,20,07,54,146,27,02,47,270,34,06,39,203,30*78
$GPGSV,3,2,11,30,30,180,26,23,29,072,16,05,26,296,35,16,14,045,15*70
$GPGSV,3,3,11,29,11,328,28,26,07,020,14,44,06,109,*4B
$GPRMC,150443.000,A,5212.2500,N,00007.0721,E,0.13,212.28,311018,,,A*6A
$GPVTG,212.28,T,,M,0.13,N,0.24,K,A*32
$GPGGA,150444.000,5212.2499,N,00007.0721,E,1,08,0.93,-0.6,M,47.0,M,,*47
$GPGSA,A,3,29,23,09,05,02,30,07,06,,,,,1.30,0.93,0.91*04
$GPRMC,150444.000,A,5212.2499,N,00007.0721,E,0.14,216.81,311018,,,A*6C
$GPVTG,216.81,T,,M,0.14,N,0.26,K,A*30
$GPGGA,150445.000,5212.2499,N,00007.0721,E,1,08,0.93,-0.6,M,47.0,M,,*46
$GPGSA,A,3,29,23,09,05,02,30,07,06,,,,,1.30,0.93,0.91*04
$GPRMC,150445.000,A,5212.2499,N,00007.0721,E,0.12,195.44,311018,,,A*6A
$GPVTG,195.44,T,,M,0.12,N,0.21,K,A*30
$GPGGA,150446.000,5212.2499,N,00007.0721,E,1,08,0.93,-0.6,M,47.0,M,,*45
$GPGSA,A,3,29,23,09,05,02,30,07,06,,,,,1.30,0.93,0.91*04
$GPRMC,150446.000,A,5212.2499,N,00007.0721,E,0.12,128.98,311018,,,A*6E
$GPVTG,128.98,T,,M,0.12,N,0.22,K,A*34
$GPGGA,150447.000,5212.2499,N,00007.0721,E,1,08,0.93,-0.6,M,47.0,M,,*44
$GPGSA,A,3,29,23,09,05,02,30,07,06,,,,,1.30,0.93,0.91*04
$GPRMC,150447.000,A,5212.2499,N,00007.0721,E,0.14,134.50,311018,,,A*60
$GPVTG,134.50,T,,M,0.14,N,0.26,K,A*3F
$GPGGA,150448.000,5212.2498,N,00007.0722,E,1,08,0.93,-0.6,M,47.0,M,,*49
$GPGSA,A,3,29,23,09,05,02,30,07,06,,,,,1.30,0.93,0.91*04
$GPGSV,3,1,11,09,56,071,18,07,54,146,25,02,47,269,34,06,39,203,29*71
$GPGSV,3,2,11,30,30,180,25,23,29,072,15,05,26,296,34,16,14,045,14*70
$GPGSV,3,3,11,29,11,328,28,26,07,020,14,34,,,*72
$GPRMC,150448.000,A,5212.2498,N,00007.0722,E,0.23,63.26,311018,,,A*5B
$GPVTG,63.26,T,,M,0.23,N,0.42,K,A*0B
$GPGGA,150449.000,5212.2499,N,00007.0723,E,1,08,0.93,-0.6,M,47.0,M,,*48
$GPGSA,A,3,29,23,09,05,02,30,07,06,,,,,1.30,0.93,0.91*04
$GPRMC,150449.000,A,5212.2499,N,00007.0723,E,0.14,77.21,311018,,,A*5C
$GPVTG,77.21,T,,M,0.14,N,0.25,K,A*0C
$GPGGA,150450.000,5212.2499,N,00007.0723,E,1,08,0.93,-0.6,M,47.0,M,,*40
$GPGSA,A,3,29,23,09,05,02,30,07,06,,,,,1.30,0.93,0.91*04
$GPRMC,150450.000,A,5212.2499,N,00007.0723,E,0.12,137.82,311018,,,A*6E
$GPVTG,137.82,T,,M,0.12,N,0.22,K,A*31
$GPGGA,150451.000,5212.2499,N,00007.0724,E,1,08,0.93,-0.7,M,47.0,M,,*47
$GPGSA,A,3,29,23,09,05,02,30,07,06,,,,,1.30,0.93,0.91*04
$GPRMC,150451.000,A,5212.2499,N,00007.0724,E,0.01,76.15,311018,,,A*50
$GPVTG,76.15,T,,M,0.01,N,0.02,K,A*0B
$GPGGA,150452.000,5212.2499,N,00007.0724,E,1,08,0.93,-0.7,M,47.0,M,,*44
$GPGSA,A,3,29,23,09,05,02,30,07,06,,,,,1.30,0.93,0.91*04
$GPRMC,150452.000,A,5212.2499,N,00007.0724,E,0.06,213.90,311018,,,A*68
$GPVTG,213.90,T,,M,0.06,N,0.12,K,A*31
$GPGGA,150453.000,5212.2499,N,00007.0724,E,1,08,0.93,-0.7,M,47.0,M,,*45
$GPGSA,A,3,29,23,09,05,02,30,07,06,,,,,1.30,0.93,0.91*04
$GPGSV,3,1,11,09,56,071,16,07,55,146,26,02,47,269,34,06,38,203,28*7D
$GPGSV,3,2,11,30,30,180,26,23,29,072,13,05,26,297,34,16,14,045,13*73
$GPGSV,3,3,11,29,11,328,28,26,07,020,14,35,,,*73
$GPRMC,150453.000,A,5212.2499,N,00007.0724,E,0.10,289.67,311018,,,A*65
$GPVTG,289.67,T,,M,0.10,N,0.18,K,A*37
$GPGGA,150454.000,5212.2499,N,00007.0723,E,1,08,0.93,-0.7,M,47.0,M,,*45
$GPGSA,A,3,29,23,09,05,02,30,07,06,,,,,1.30,0.93,0.91*04
$GPRMC,150454.000,A,5212.2499,N,00007.0723,E,0.14,266.33,311018,,,A*61
$GPVTG,266.33,T,,M,0.14,N,0.26,K,A*3E
$GPGGA,150455.000,5212.2499,N,00007.0723,E,1,08,0.93,-0.7,M,47.0,M,,*44
$GPGSA,A,3,29,23,09,05,02,30,07,06,,,,,1.30,0.93,0.91*04
$GPRMC,150455.000,A,5212.2499,N,00007.0723,E,0.12,222.55,311018,,,A*66
$GPVTG,222.55,T,,M,0.12,N,0.23,K,A*3D
$GPGGA,150456.000,5212.2498,N,00007.0722,E,1,08,0.93,-0.7,M,47.0,M,,*47
$GPGSA,A,3,29,23,09,05,02,30,07,06,,,,,1.30,0.93,0.91*04
$GPRMC,150456.000,A,5212.2498,N,00007.0722,E,0.14,258.17,311018,,,A*68
$GPVTG,258.17,T,,M,0.14,N,0.26,K,A*35
$GPGGA,150457.000,5212.2498,N,00007.0722,E,1,08,0.93,-0.7,M,47.0,M,,*46
$GPGSA,A,3,29,23,09,05,02,30,07,06,,,,,1.30,0.93,0.91*04
$GPRMC,150457.000,A,5212.2498,N,00007.0722,E,0.18,249.63,311018,,,A*66
$GPVTG,249.63,T,,M,0.18,N,0.32,K,A*3F
$GPGGA,150458.000,5212.2498,N,00007.0721,E,1,08,0.93,-0.7,M,47.0,M,,*4A
$GPGSA,A,3,29,23,09,05,02,30,07,06,,,,,1.30,0.93,0.91*04
$GPGSV,3,1,11,09,56,071,17,07,55,146,25,02,47,269,33,06,38,203,28*78
$GPGSV,3,2,11,30,30,180,26,23,29,072,15,05,26,297,34,16,14,045,12*74
$GPGSV,3,3,11,29,11,328,26,26,07,020,15,35,,,*7C
$GPRMC,150458.000,A,5212.2498,N,00007.0721,E,0.20,234.70,311018,,,A*69
$GPVTG,234.70,T,,M,0.20,N,0.38,K,A*36
$GPGGA,150459.000,5212.2498,N,00007.0721,E,1,08,0.93,-0.7,M,47.0,M,,*4B
$GPGSA,A,3,29,23,09,05,02,30,07,06,,,,,1.30,0.93,0.91*04
$GPRMC,150459.000,A,5212.2498,N,00007.0721,E,0.13,226.73,311018,,,A*68
$GPVTG,226.73,T,,M,0.13,N,0.24,K,A*3B
$GPGGA,150500.000,5212.2498,N,00007.0720,E,1,08,0.93,-0.7,M,47.0,M,,*47
$GPGSA,A,3,29,23,09,05,02,30,07,06,,,,,1.30,0.93,0.91*04
$GPRMC,150500.000,A,5212.2498,N,00007.0720,E,0.02,162.07,311018,,,A*64
$GPVTG,162.07,T,,M,0.02,N,0.04,K,A*39
$GPGGA,150501.000,5212.2498,N,00007.0720,E,1,08,0.93,-0.7,M,47.0,M,,*46
$GPGSA,A,3,29,23,09,05,02,30,07,06,,,,,1.30,0.93,0.91*04
$GPRMC,150501.000,A,5212.2498,N,00007.0720,E,0.07,310.38,311018,,,A*6B
$GPVTG,310.38,T,,M,0.07,N,0.14,K,A*36
$GPGGA,150502.000,5212.2498,N,00007.0720,E,1,08,0.93,-0.7,M,47.0,M,,*45
$GPGSA,A,3,29,23,09,05,02,30,07,06,,,,,1.30,0.93,0.91*04
$GPRMC,150502.000,A,5212.2498,N,00007.0720,E,0.13,165.82,311018,,,A*6C
$GPVTG,165.82,T,,M,0.13,N,0.23,K,A*36
$GPGGA,150503.000,5212.2498,N,00007.0720,E,1,08,0.93,-0.7,M,47.0,M,,*44
$GPGSA,A,3,29,23,09,05,02,30,07,06,,,,,1.30,0.93,0.91*04
$GPGSV,3,1,11,09,56,071,19,07,55,146,24,02,47,269,34,06,38,203,28*70
$GPGSV,3,2,11,30,30,180,26,23,29,072,13,05,26,297,35,16,14,045,*70
$GPGSV,3,3,11,29,11,328,27,26,07,020,15,36,,,*7E
$GPRMC,150503.000,A,5212.2498,N,00007.0720,E,0.17,187.77,311018,,,A*6F
$GPVTG,187.77,T,,M,0.17,N,0.31,K,A*37
$GPGGA,150504.000,5212.2497,N,00007.0720,E,1,08,0.93,-0.7,M,47.0,M,,*4C
$GPGSA,A,3,29,23,09,05,02,30,07,06,,,,,1.30,0.93,0.91*04
$GPRMC,150504.000,A,5212.2497,N,00007.0720,E,0.03,138.70,311018,,,A*61
$GPVTG,138.70,T,,M,0.03,N,0.06,K,A*35
$GPGGA,150505.000,5212.2497,N,00007.0721,E,1,08,0.93,-0.7,M,47.0,M,,*4C
$GPGSA,A,3,29,23,09,05,02,30,07,06,,,,,1.30,0.93,0.91*04
$GPRMC,150505.000,A,5212.2497,N,00007.0721,E,0.11,40.74,311018,,,A*58
$GPVTG,40.74,T,,M,0.11,N,0.21,K,A*09
$GPGGA,150506.000,5212.2497,N,00007.0721,E,1,08,0.93,-0.7,M,47.0,M,,*4F
$GPGSA,A,3,29,23,09,05,02,30,07,06,,,,,1.30,0.93,0.91*04
$GPRMC,150506.000,A,5212.2497,N,00007.0721,E,0.01,280.14,311018,,,A*62
$GPVTG,280.14,T,,M,0.01,N,0.02,K,A*31
$GPGGA,150507.000,5212.2497,N,00007.0721,E,1,08,0.93,-0.7,M,47.0,M,,*4E
$GPGSA,A,3,29,23,09,05,02,30,07,06,,,,,1.30,0.93,0.91*04
$GPRMC,150507.000,A,5212.2497,N,00007.0721,E,0.02,51.39,311018,,,A*51
$GPVTG,51.39,T,,M,0.02,N,0.04,K,A*05
$GPGGA,150508.000,5212.2497,N,00007.0721,E,1,08,0.93,-0.7,M,47.0,M,,*41
$GPGSA,A,3,29,23,09,05,02,30,07,06,,,,,1.30,0.93,0.91*04
$GPGSV,3,1,11,09,56,071,20,07,55,146,23,02,47,269,33,06,38,203,27*75
$GPGSV,3,2,11,30,30,180,24,23,29,072,14,05,26,297,35,16,14,045,*75
$GPGSV,3,3,11,29,11,328,28,26,07,020,,38,,,*7B
$GPRMC,150508.000,A,5212.2497,N,00007.0721,E,0.04,100.01,311018,,,A*66
$GPVTG,100.01,T,,M,0.04,N,0.07,K,A*3E
$GPGGA,150509.000,5212.2498,N,00007.0721,E,1,08,0.93,-0.7,M,47.0,M,,*4F
$GPGSA,A,3,29,23,09,05,02,30,07,06,,,,,1.30,0.93,0.91*04
$GPRMC,150509.000,A,5212.2498,N,00007.0721,E,0.22,68.47,311018,,,A*51
$GPVTG,68.47,T,,M,0.22,N,0.41,K,A*05
$GPGGA,150510.000,5212.2498,N,00007.0722,E,1,08,0.93,-0.7,M,47.0,M,,*44
$GPGSA,A,3,29,23,09,05,02,30,07,06,,,,,1.30,0.93,0.91*04
$GPRMC,150510.000,A,5212.2498,N,00007.0722,E,0.12,65.45,311018,,,A*56
$GPVTG,65.45,T,,M,0.12,N,0.22,K,A*0C
$GPGGA,150511.000,5212.2498,N,00007.0723,E,1,07,1.00,-0.7,M,47.0,M,,*40
$GPGSA,A,3,29,23,05,02,30,07,06,,,,,,1.37,1.00,0.93*03
$GPRMC,150511.000,A,5212.2498,N,00007.0723,E,0.14,31.52,311018,,,A*57
$GPVTG,31.52,T,,M,0.14,N,0.27,K,A*08
$GPGGA,150512.000,5212.2498,N,00007.0723,E,1,08,0.93,-0.7,M,47.0,M,,*47
$GPGSA,A,3,29,23,09,05,02,30,07,06,,,,,1.30,0.93,0.91*04
$GPRMC,150512.000,A,5212.2498,N,00007.0723,E,0.26,93.69,311018,,,A*55
$GPVTG,93.69,T,,M,0.26,N,0.49,K,A*01
$GPGGA,150513.000,5212.2498,N,00007.0724,E,1,08,0.93,-0.7,M,47.0,M,,*41
$GPGSA,A,3,29,23,09,05,02,30,07,06,,,,,1.30,0.93,0.91*04
$GPGSV,3,1,11,09,56,071,18,07,55,146,24,02,47,269,34,06,38,203,28*71
$GPGSV,3,2,11,30,30,180,24,23,29,072,15,05,26,297,35,16,14,045,*74
$GPGSV,3,3,11,29,11,327,29,26,07,020,,41,,,*7B
$GPRMC,150513.000,A,5212.2498,N,00007.0724,E,0.14,103.39,311018,,,A*6F
$GPVTG,103.39,T,,M,0.14,N,0.27,K,A*35
$GPGGA,150514.000,5212.2498,N,00007.0725,E,1,08,0.93,-0.7,M,47.0,M,,*47
$GPGSA,A,3,29,23,09,05,02,30,07,06,,,,,1.30,0.93,0.91*04
$GPRMC,150514.000,A,5212.2498,N,00007.0725,E,0.13,156.08,311018,,,A*6C
$GPVTG,156.08,T,,M,0.13,N,0.24,K,A*33
$GPGGA,150515.000,5212.2498,N,00007.0725,E,1,08,0.93,-0.7,M,47.0,M,,*46
$GPGSA,A,3,29,23,09,05,02,30,07,06,,,,,1.30,0.93,0.91*04
$GPRMC,150515.000,A,5212.2498,N,00007.0725,E,0.08,134.96,311018,,,A*64
$GPVTG,134.96,T,,M,0.08,N,0.15,K,A*38
$GPGGA,150516.000,5212.2498,N,00007.0725,E,1,08,0.93,-0.7,M,47.0,M,,*45
$GPGSA,A,3,29,23,09,05,02,30,07,06,,,,,1.30,0.93,0.91*04
$GPRMC,150516.000,A,5212.2498,N,00007.0725,E,0.01,352.46,311018,,,A*61
$GPVTG,352.46,T,,M,0.01,N,0.02,K,A*38
$GPGGA,150517.000,5212.2498,N,00007.0725,E,1,08,1.00,-0.7,M,47.0,M,,*4F
$GPGSA,A,3,29,23,09,05,02,30,07,06,,,,,2.36,1.00,2.14*05
$GPRMC,150517.000,A,5212.2498,N,00007.0725,E,0.19,237.64,311018,,,A*6B
$GPVTG,237.64,T,,M,0.19,N,0.36,K,A*34
$GPGGA,150518.000,5212.2497,N,00007.0724,E,1,08,0.93,-0.7,M,47.0,M,,*45
$GPGSA,A,3,29,23,09,05,02,30,07,06,,,,,1.30,0.93,0.91*04
$GPGSV,3,1,11,09,56,071,19,07,55,146,24,02,47,269,36,06,38,203,29*73
$GPGSV,3,2,11,30,30,180,20,23,29,072,11,05,26,297,35,16,14,045,*74
$GPGSV,3,3,11,29,11,327,30,26,07,020,,41,,,*73
$GPRMC,150518.000,A,5212.2497,N,00007.0724,E,0.13,284.09,311018,,,A*63
$GPVTG,284.09,T,,M,0.13,N,0.25,K,A*3F
$GPGGA,150519.000,5212.2497,N,00007.0724,E,1,08,0.93,-0.7,M,47.0,M,,*44
$GPGSA,A,3,29,23,09,05,02,30,07,06,,,,,1.30,0.93,0.91*04
$GPRMC,150519.000,A,5212.2497,N,00007.0724,E,0.10,277.97,311018,,,A*6A
$GPVTG,277.97,T,,M,0.10,N,0.19,K,A*38
$GPGGA,150520.000,5212.2497,N,00007.0723,E,1,08,0.93,-0.7,M,47.0,M,,*49
$GPGSA,A,3,29,23,09,05,02,30,07,06,,,,,1.30,0.93,0.91*04
$GPRMC,150520.000,A,5212.2497,N,00007.0723,E,0.15,236.06,311018,,,A*6F
$GPVTG,236.06,T,,M,0.15,N,0.28,K,A*32
$GPGGA,150521.000,5212.2497,N,00007.0723,E,1,08,0.93,-0.7,M,47.0,M,,*48
$GPGSA,A,3,29,23,09,05,02,30,07,06,,,,,1.30,0.93,0.91*04
$GPRMC,150521.000,A,5212.2497,N,00007.0723,E,0.26,253.09,311018,,,A*62
$GPVTG,253.09,T,,M,0.26,N,0.48,K,A*38
$GPGGA,150522.000,5212.2497,N,00007.0721,E,1,08,0.93,-0.7,M,47.0,M,,*49
$GPGSA,A,3,29,23,09,05,02,30,07,06,,,,,1.30,0.93,0.91*04
$GPRMC,150522.000,A,5212.2497,N,00007.0721,E,0.23,262.25,311018,,,A*6A
$GPVTG,262.25,T,,M,0.23,N,0.42,K,A*3B
$GPGGA,150523.000,5212.2497,N,00007.0720,E,1,08,0.93,-0.7,M,47.0,M,,*49
$GPGSA,A,3,29,23,09,05,02,30,07,06,,,,,1.30,0.93,0.91*04
$GPGSV,3,1,11,09,56,071,18,07,55,146,21,02,47,269,36,06,38,203,28*76
$GPGSV,3,2,11,30,30,180,20,23,29,072,14,05,26,297,36,16,14,045,*72
$GPGSV,3,3,11,29,11,327,31,26,07,020,,43,,,*70
$GPRMC,150523.000,A,5212.2497,N,00007.0720,E,0.22,262.56,311018,,,A*6F
$GPVTG,262.56,T,,M,0.22,N,0.40,K,A*3C
$GPGGA,150524.000,5212.2497,N,00007.0719,E,1,08,0.93,-0.7,M,47.0,M,,*44
$GPGSA,A,3,29,23,09,05,02,30,07,06,,,,,1.30,0.93,0.91*04
$GPRMC,150524.000,A,5212.2497,N,00007.0719,E,0.28,258.68,311018,,,A*6C
$GPVTG,258.68,T,,M,0.28,N,0.52,K,A*31
$GPGGA,150525.000,5212.2497,N,00007.0718,E,1,08,0.93,-0.7,M,47.0,M,,*44
$GPGSA,A,3,29,23,09,05,02,30,07,06,,,,,1.30,0.93,0.91*04
$GPRMC,150525.000,A,5212.2497,N,00007.0718,E,0.31,267.30,311018,,,A*65
$GPVTG,267.30,T,,M,0.31,N,0.58,K,A*32
$GPGGA,150526.000,5212.2496,N,00007.0717,E,1,08,0.93,-0.7,M,47.0,M,,*49
$GPGSA,A,3,29,23,09,05,02,30,07,06,,,,,1.30,0.93,0.91*04
$GPRMC,150526.000,A,5212.2496,N,00007.0717,E,0.39,250.42,311018,,,A*61
$GPVTG,250.42,T,,M,0.39,N,0.72,K,A*33
$GPGGA,150527.000,5212.2496,N,00007.0715,E,1,08,0.93,-0.7,M,47.0,M,,*4A
$GPGSA,A,3,29,23,09,05,02,30,07,06,,,,,1.30,0.93,0.91*04
$GPRMC,150527.000,A,5212.2496,N,00007.0715,E,0.54,244.20,311018,,,A*68
$GPVTG,244.20,T,,M,0.54,N,1.00,K,A*3D
$GPGGA,150528.000,5212.2495,N,00007.0713,E,1,08,0.93,-0.7,M,47.0,M,,*40
$GPGSA,A,3,29,23,09,05,02,30,07,06,,,,,1.30,0.93,0.91*04
$GPGSV,3,1,11,09,56,071,17,07,55,145,22,02,47,269,34,06,38,203,28*7B
$GPGSV,3,2,11,30,30,180,20,23,29,072,15,05,26,297,35,16,14,045,*70
$GPGSV,3,3,11,29,11,327,31,26,07,020,,45,,,*76
$GPRMC,150528.000,A,5212.2495,N,00007.0713,E,0.60,239.78,311018,,,A*62
$GPVTG,239.78,T,,M,0.60,N,1.11,K,A*3D
$GPGGA,150529.000,5212.2496,N,00007.0712,E,1,08,0.93,-0.8,M,47.0,M,,*4C
$GPGSA,A,3,29,23,09,05,02,30,07,06,,,,,1.30,0.93,0.91*04
$GPRMC,150529.000,A,5212.2496,N,00007.0712,E,0.56,242.72,311018,,,A*62
$GPVTG,242.72,T,,M,0.56,N,1.05,K,A*3B
$GPGGA,150530.000,5212.2496,N,00007.0710,E,1,08,0.93,-0.7,M,47.0,M,,*49
$GPGSA,A,3,29,23,09,05,02,30,07,06,,,,,1.30,0.93,0.91*04
$GPRMC,150530.000,A,5212.2496,N,00007.0710,E,0.45,261.12,311018,,,A*6D
$GPVTG,261.12,T,,M,0.45,N,0.83,K,A*31
$GPGGA,150531.000,5212.2498,N,00007.0710,E,1,08,0.93,-0.7,M,47.0,M,,*46
$GPGSA,A,3,29,23,09,05,02,30,07,06,,,,,1.30,0.93,0.91*04
$GPRMC,150531.000,A,5212.2498,N,00007.0710,E,0.40,261.54,311018,,,A*65
$GPVTG,261.54,T,,M,0.40,N,0.73,K,A*39
$GPGGA,150532.000,5212.2497,N,00007.0705,E,1,08,0.93,-0.6,M,47.0,M,,*4F
$GPGSA,A,3,29,23,09,05,02,30,07,06,,,,,1.30,0.93,0.91*04
$GPRMC,150532.000,A,5212.2497,N,00007.0705,E,0.49,257.69,311018,,,A*6F
$GPVTG,257.69,T,,M,0.49,N,0.90,K,A*36
$GPGGA,150533.000,5212.2496,N,00007.0703,E,1,08,0.93,-0.6,M,47.0,M,,*49
$GPGSA,A,3,29,23,09,05,02,30,07,06,,,,,1.30,0.93,0.91*04
$GPGSV,3,1,11,09,56,071,18,07,55,145,22,02,47,269,32,06,38,203,28*72
$GPGSV,3,2,11,30,30,180,20,23,29,072,13,05,26,297,36,16,14,045,*75
$GPGSV,3,3,11,29,11,327,31,26,07,020,,46,,,*75
$GPRMC,150533.000,A,5212.2496,N,00007.0703,E,0.37,265.11,311018,,,A*6E
$GPVTG,265.11,T,,M,0.37,N,0.68,K,A*36
$GPGGA,150534.000,5212.2496,N,00007.0701,E,1,08,0.93,-0.6,M,47.0,M,,*4C
$GPGSA,A,3,29,23,09,05,02,30,07,06,,,,,1.30,0.93,0.91*04
$GPRMC,150534.000,A,5212.2496,N,00007.0701,E,0.42,273.92,311018,,,A*65
$GPVTG,273.92,T,,M,0.42,N,0.77,K,A*36
$GPGGA,150535.000,5212.2496,N,00007.0699,E,1,08,0.93,-0.6,M,47.0,M,,*4D
$GPGSA,A,3,29,23,09,05,02,30,07,06,,,,,1.30,0.93,0.91*04
$GPRMC,150535.000,A,5212.2496,N,00007.0699,E,0.35,273.24,311018,,,A*69
$GPVTG,273.24,T,,M,0.35,N,0.65,K,A*38
$GPGGA,150536.000,5212.2496,N,00007.0698,E,1,08,0.93,-0.6,M,47.0,M,,*4F
$GPGSA,A,3,29,23,09,05,02,30,07,06,,,,,1.30,0.93,0.91*04
$GPRMC,150536.000,A,5212.2496,N,00007.0698,E,0.35,254.59,311018,,,A*64
$GPVTG,254.59,T,,M,0.35,N,0.64,K,A*36
$GPGGA,150537.000,5212.2496,N,00007.0696,E,1,08,0.93,-0.6,M,47.0,M,,*40
$GPGSA,A,3,29,23,09,05,02,30,07,06,,,,,1.30,0.93,0.91*04
$GPRMC,150537.000,A,5212.2496,N,00007.0696,E,0.39,248.01,311018,,,A*67
$GPVTG,248.01,T,,M,0.39,N,0.72,K,A*3D
$GPGGA,150538.000,5212.2496,N,00007.0695,E,1,08,0.93,-0.6,M,47.0,M,,*4C
$GPGSA,A,3,29,23,09,05,02,30,07,06,,,,,1.30,0.93,0.91*04
$GPGSV,3,1,11,09,56,071,17,07,55,145,23,02,47,269,34,06,38,203,29*7B
$GPGSV,3,2,11,30,30,180,22,23,29,072,14,05,26,297,36,16,14,044,*71
$GPGSV,3,3,11,29,11,327,30,26,07,020,,46,,,*74
$GPRMC,150538.000,A,5212.2496,N,00007.0695,E,0.44,242.28,311018,,,A*60
$GPVTG,242.28,T,,M,0.44,N,0.82,K,A*39
$GPGGA,150539.000,5212.2495,N,00007.0693,E,1,08,0.93,-0.6,M,47.0,M,,*48
$GPGSA,A,3,29,23,09,05,02,30,07,06,,,,,1.30,0.93,0.91*04
$GPRMC,150539.000,A,5212.2495,N,00007.0693,E,0.44,256.38,311018,,,A*60
$GPVTG,256.38,T,,M,0.44,N,0.82,K,A*3D
$GPGGA,150540.000,5212.2495,N,00007.0691,E,1,08,0.93,-0.6,M,47.0,M,,*44
$GPGSA,A,3,29,23,09,05,02,30,07,06,,,,,1.30,0.93,0.91*04
$GPRMC,150540.000,A,5212.2495,N,00007.0691,E,0.41,264.39,311018,,,A*69
$GPVTG,264.39,T,,M,0.41,N,0.75,K,A*30
$GPGGA,150541.000,5212.2495,N,00007.0689,E,1,08,0.93,-0.6,M,47.0,M,,*4C
$GPGSA,A,3,29,23,09,05,02,30,07,06,,,,,1.30,0.93,0.91*04
$GPRMC,150541.000,A,5212.2495,N,00007.0689,E,0.25,283.58,311018,,,A*6D
$GPVTG,283.58,T,,M,0.25,N,0.47,K,A*3D
$GPGGA,150542.000,5212.2495,N,00007.0688,E,1,08,0.93,-0.6,M,47.0,M,,*4E
$GPGSA,A,3,29,23,09,05,02,30,07,06,,,,,1.30,0.93,0.91*04
$GPRMC,150542.000,A,5212.2495,N,00007.0688,E,0.27,265.76,311018,,,A*69
$GPVTG,265.76,T,,M,0.27,N,0.50,K,A*3D
$GPGGA,150543.000,5212.2495,N,00007.0687,E,1,08,0.93,-0.6,M,47.0,M,,*40
$GPGSA,A,3,29,23,09,05,02,30,07,06,,,,,1.30,0.93,0.91*04
$GPGSV,3,1,11,09,56,071,17,07,55,145,24,02,47,269,34,06,38,203,26*73
$GPGSV,3,2,11,30,30,180,21,23,29,072,14,05,26,297,36,16,14,044,*72
$GPGSV,3,3,11,29,11,327,29,26,07,020,,47,,,*7D
$GPRMC,150543.000,A,5212.2495,N,00007.0687,E,0.28,266.67,311018,,,A*6B
$GPVTG,266.67,T,,M,0.28,N,0.52,K,A*33
$GPGGA,150544.000,5212.2495,N,00007.0686,E,1,08,0.93,-0.6,M,47.0,M,,*46
$GPGSA,A,3,29,23,09,05,02,30,07,06,,,,,1.30,0.93,0.91*04
$GPRMC,150544.000,A,5212.2495,N,00007.0686,E,0.28,238.47,311018,,,A*64
$GPVTG,238.47,T,,M,0.28,N,0.52,K,A*3A
$GPGGA,150545.000,5212.2495,N,00007.0685,E,1,08,0.93,-0.6,M,47.0,M,,*44
$GPGSA,A,3,29,23,09,05,02,30,07,06,,,,,1.30,0.93,0.91*04
$GPRMC,150545.000,A,5212.2495,N,00007.0685,E,0.32,242.32,311018,,,A*62
$GPVTG,242.32,T,,M,0.32,N,0.59,K,A*35
$GPGGA,150546.000,5212.2494,N,00007.0683,E,1,08,0.93,-0.6,M,47.0,M,,*40
$GPGSA,A,3,29,23,09,05,02,30,07,06,,,,,1.30,0.93,0.91*04
$GPRMC,150546.000,A,5212.2494,N,00007.0683,E,0.31,242.39,311018,,,A*6E
$GPVTG,242.39,T,,M,0.31,N,0.58,K,A*3C
$GPGGA,150547.000,5212.2494,N,00007.0682,E,1,08,0.93,-0.6,M,47.0,M,,*40
$GPGSA,A,3,29,23,09,05,02,30,07,06,,,,,1.30,0.93,0.91*04
$GPRMC,150547.000,A,5212.2494,N,00007.0682,E,0.21,246.55,311018,,,A*61
$GPVTG,246.55,T,,M,0.21,N,0.40,K,A*3A
$GPGGA,150548.000,5212.2493,N,00007.0681,E,1,08,0.93,-0.6,M,47.0,M,,*4B
$GPGSA,A,3,29,23,09,05,02,30,07,06,,,,,1.30,0.93,0.91*04
$GPGSV,3,1,11,09,56,071,17,07,55,145,25,02,47,269,33,06,38,203,26*75
$GPGSV,3,2,11,30,30,180,17,23,29,072,14,05,26,297,35,16,14,044,*74
$GPGSV,3,3,11,29,11,327,33,26,06,020,,49,,,*79
$GPRMC,150548.000,A,5212.2493,N,00007.0681,E,0.22,215.90,311018,,,A*66
$GPVTG,215.90,T,,M,0.22,N,0.40,K,A*36
$GPGGA,150549.000,5212.2493,N,00007.0681,E,1,08,0.93,-0.6,M,47.0,M,,*4A
$GPGSA,A,3,29,23,09,05,02,30,07,06,,,,,1.30,0.93,0.91*04
$GPRMC,150549.000,A,5212.2493,N,00007.0681,E,0.06,139.38,311018,,,A*6E
$GPVTG,139.38,T,,M,0.06,N,0.11,K,A*3B
$GPGGA,150550.000,5212.2493,N,00007.0681,E,1,08,0.93,-0.6,M,47.0,M,,*42
$GPGSA,A,3,29,23,09,05,02,30,07,06,,,,,1.30,0.93,0.91*04
$GPRMC,150550.000,A,5212.2493,N,00007.0681,E,0.09,124.09,311018,,,A*67
$GPVTG,124.09,T,,M,0.09,N,0.17,K,A*3C
$GPGGA,150551.000,5212.2493,N,00007.0682,E,1,08,0.93,-0.6,M,47.0,M,,*40
$GPGSA,A,3,29,23,09,05,02,30,07,06,,,,,1.30,0.93,0.91*04
$GPRMC,150551.000,A,5212.2493,N,00007.0682,E,0.17,95.51,311018,,,A*5C
$GPVTG,95.51,T,,M,0.17,N,0.31,K,A*01
$GPGGA,150552.000,5212.2493,N,00007.0682,E,1,08,0.93,-0.6,M,47.0,M,,*43
$GPGSA,A,3,29,23,09,05,02,30,07,06,,,,,1.30,0.93,0.91*04
$GPRMC,150552.000,A,5212.2493,N,00007.0682,E,0.21,93.74,311018,,,A*5B
$GPVTG,93.74,T,,M,0.21,N,0.39,K,A*0D
$GPGGA,150553.000,5212.2493,N,00007.0683,E,1,08,0.93,-0.6,M,47.0,M,,*43
$GPGSA,A,3,29,23,09,05,02,30,07,06,,,,,1.30,0.93,0.91*04
$GPGSV,3,1,11,09,56,071,18,07,55,145,25,02,47,269,33,06,38,203,28*74
$GPGSV,3,2,11,30,31,180,22,23,29,072,14,33,28,199,,05,26,297,35*7A
$GPGSV,3,3,11,16,14,044,,29,11,327,31,26,06,020,*44
$GPRMC,150553.000,A,5212.2493,N,00007.0683,E,0.21,92.19,311018,,,A*51
$GPVTG,92.19,T,,M,0.21,N,0.40,K,A*09
$GPGGA,150554.000,5212.2493,N,00007.0684,E,1,08,0.93,-0.6,M,47.0,M,,*43
$GPGSA,A,3,29,23,09,05,02,30,07,06,,,,,1.30,0.93,0.91*04
$GPRMC,150554.000,A,5212.2493,N,00007.0684,E,0.21,94.52,311018,,,A*58
$GPVTG,94.52,T,,M,0.21,N,0.39,K,A*0E
$GPGGA,150555.000,5212.2493,N,00007.0685,E,1,08,0.93,-0.6,M,47.0,M,,*43
$GPGSA,A,3,29,23,09,05,02,30,07,06,,,,,1.30,0.93,0.91*04
$GPRMC,150555.000,A,5212.2493,N,00007.0685,E,0.17,69.30,311018,,,A*5B
$GPVTG,69.30,T,,M,0.17,N,0.31,K,A*05
$GPGGA,150556.000,5212.2493,N,00007.0686,E,1,08,0.93,-0.6,M,47.0,M,,*43
$GPGSA,A,3,29,23,09,05,02,30,07,06,,,,,1.30,0.93,0.91*04
$GPRMC,150556.000,A,5212.2493,N,00007.0686,E,0.21,94.19,311018,,,A*57
$GPVTG,94.19,T,,M,0.21,N,0.38,K,A*00
$GPGGA,150557.000,5212.2493,N,00007.0687,E,1,07,1.14,-0.6,M,47.0,M,,*42
$GPGSA,A,3,29,09,05,02,30,07,06,,,,,,1.47,1.14,0.92*08
$GPRMC,150557.000,A,5212.2493,N,00007.0687,E,0.23,107.02,311018,,,A*64
$GPVTG,107.02,T,,M,0.23,N,0.43,K,A*3F
$GPGGA,150558.000,5212.2493,N,00007.0688,E,1,07,1.14,-0.6,M,47.0,M,,*42
$GPGSA,A,3,29,09,05,02,30,07,06,,,,,,1.47,1.14,0.92*08
$GPGSV,3,1,11,09,56,071,17,07,55,145,26,02,47,269,33,06,38,203,28*78
$GPGSV,3,2,11,30,31,180,21,23,29,072,,33,28,199,,05,26,297,35*7C
$GPGSV,3,3,11,16,14,044,,29,11,327,30,26,06,020,*45
$GPRMC,150558.000,A,5212.2493,N,00007.0688,E,0.30,95.12,311018,,,A*5D
$GPVTG,95.12,T,,M,0.30,N,0.56,K,A*02
$GPGGA,150559.000,5212.2493,N,00007.0690,E,1,07,1.14,-0.6,M,47.0,M,,*4A
$GPGSA,A,3,29,09,05,02,30,07,06,,,,,,1.47,1.14,0.92*08
$GPRMC,150559.000,A,5212.2493,N,00007.0690,E,0.28,69.12,311018,,,A*5F
$GPVTG,69.12,T,,M,0.28,N,0.53,K,A*0D
$GPGGA,150600.000,5212.2493,N,00007.0691,E,1,07,1.14,-0.6,M,47.0,M,,*44
$GPGSA,A,3,29,09,05,02,30,07,06,,,,,,1.47,1.14,0.92*08
$GPRMC,150600.000,A,5212.2493,N,00007.0691,E,0.34,68.79,311018,,,A*50
$GPVTG,68.79,T,,M,0.34,N,0.63,K,A*0F
$GPGGA,150601.000,5212.2493,N,00007.0692,E,1,07,1.14,-0.6,M,47.0,M,,*46
$GPGSA,A,3,29,09,05,02,30,07,06,,,,,,1.47,1.14,0.92*08
$GPRMC,150601.000,A,5212.2493,N,00007.0692,E,0.31,38.36,311018,,,A*59
$GPVTG,38.36,T,,M,0.31,N,0.57,K,A*03
$GPGGA,150602.000,5212.2494,N,00007.0693,E,1,07,1.14,-0.6,M,47.0,M,,*43
$GPGSA,A,3,29,09,05,02,30,07,06,,,,,,1.47,1.14,0.92*08
$GPRMC,150602.000,A,5212.2494,N,00007.0693,E,0.21,45.12,311018,,,A*51
$GPVTG,45.12,T,,M,0.21,N,0.40,K,A*08
$GPGGA,150603.000,5212.2495,N,00007.0694,E,1,07,1.14,-0.6,M,47.0,M,,*44
$GPGSA,A,3,29,09,05,02,30,07,06,,,,,,1.47,1.14,0.92*08
$GPGSV,3,1,11,07,55,145,26,09,55,071,17,02,47,269,34,06,38,203,29*7D
$GPGSV,3,2,11,30,31,180,23,23,29,072,,05,27,297,34,37,27,153,*73
$GPGSV,3,3,11,16,14,044,,29,11,327,30,26,06,020,*45
$GPRMC,150603.000,A,5212.2495,N,00007.0694,E,0.19,65.07,311018,,,A*5B
$GPVTG,65.07,T,,M,0.19,N,0.34,K,A*06
$GPGGA,150604.000,5212.2495,N,00007.0695,E,1,07,1.14,-0.6,M,47.0,M,,*42
$GPGSA,A,3,29,09,05,02,30,07,06,,,,,,1.47,1.14,0.92*08
$GPRMC,150604.000,A,5212.2495,N,00007.0695,E,0.16,75.56,311018,,,A*57
$GPVTG,75.56,T,,M,0.16,N,0.30,K,A*08
$GPGGA,150605.000,5212.2495,N,00007.0696,E,1,07,1.14,-0.6,M,47.0,M,,*40
$GPGSA,A,3,29,09,05,02,30,07,06,,,,,,1.47,1.14,0.92*08
$GPRMC,150605.000,A,5212.2495,N,00007.0696,E,0.15,74.23,311018,,,A*55
$GPVTG,74.23,T,,M,0.15,N,0.28,K,A*01
$GPGGA,150606.000,5212.2495,N,00007.0696,E,1,07,1.14,-0.6,M,47.0,M,,*43
$GPGSA,A,3,29,09,05,02,30,07,06,,,,,,1.47,1.14,0.92*08
$GPRMC,150606.000,A,5212.2495,N,00007.0696,E,0.20,91.83,311018,,,A*51
$GPVTG,91.83,T,,M,0.20,N,0.37,K,A*08
$GPGGA,150607.000,5212.2495,N,00007.0697,E,1,07,1.14,-0.6,M,47.0,M,,*43
$GPGSA,A,3,29,09,05,02,30,07,06,,,,,,1.47,1.14,0.92*08
$GPRMC,150607.000,A,5212.2495,N,00007.0697,E,0.23,85.63,311018,,,A*59
$GPVTG,85.63,T,,M,0.23,N,0.42,K,A*02
$GPGGA,150608.000,5212.2495,N,00007.0698,E,1,07,1.14,-0.6,M,47.0,M,,*43
$GPGSA,A,3,29,09,05,02,30,07,06,,,,,,1.47,1.14,0.92*08
$GPGSV,3,1,11,07,55,145,25,09,55,071,17,02,47,269,35,06,38,203,28*7E
$GPGSV,3,2,11,30,31,180,24,23,29,072,,05,27,297,34,37,27,153,*74
$GPGSV,3,3,11,16,14,044,,29,11,327,29,26,06,020,*4D
$GPRMC,150608.000,A,5212.2495,N,00007.0698,E,0.08,97.42,311018,,,A*50
$GPVTG,97.42,T,,M,0.08,N,0.15,K,A*09
$GPGGA,150609.000,5212.2495,N,00007.0699,E,1,07,1.14,-0.6,M,47.0,M,,*43
$GPGSA,A,3,29,09,05,02,30,07,06,,,,,,1.47,1.14,0.92*08
$GPRMC,150609.000,A,5212.2495,N,00007.0699,E,0.08,325.58,311018,,,A*61
$GPVTG,325.58,T,,M,0.08,N,0.15,K,A*38
$GPGGA,150610.000,5212.2495,N,00007.0699,E,1,07,1.14,-0.6,M,47.0,M,,*4B
$GPGSA,A,3,29,09,05,02,30,07,06,,,,,,1.47,1.14,0.92*08
$GPRMC,150610.000,A,5212.2495,N,00007.0699,E,0.16,7.61,311018,,,A*6F
$GPVTG,7.61,T,,M,0.16,N,0.29,K,A*31
$GPGGA,150611.000,5212.2496,N,00007.0699,E,1,07,1.26,-0.6,M,47.0,M,,*48
$GPGSA,A,3,29,09,05,02,30,07,06,,,,,,2.71,1.26,2.40*02
$GPRMC,150611.000,A,5212.2496,N,00007.0699,E,0.05,24.16,311018,,,A*5E
$GPVTG,24.16,T,,M,0.05,N,0.09,K,A*00
$GPGGA,150612.000,5212.2496,N,00007.0699,E,1,08,0.93,-0.6,M,47.0,M,,*4B
$GPGSA,A,3,29,23,09,05,02,30,07,06,,,,,1.30,0.93,0.91*04
$GPRMC,150612.000,A,5212.2496,N,00007.0699,E,0.09,46.05,311018,,,A*57
$GPVTG,46.05,T,,M,0.09,N,0.17,K,A*05
$GPGGA,150613.000,5212.2496,N,00007.0699,E,1,08,0.93,-0.6,M,47.0,M,,*4A
$GPGSA,A,3,29,23,09,05,02,30,07,06,,,,,1.30,0.93,0.91*04
$GPGSV,3,1,11,07,55,145,26,09,55,071,19,02,47,269,36,06,38,203,29*71
$GPGSV,3,2,11,30,31,180,26,23,29,072,17,05,27,297,35,39,25,149,*76
$GPGSV,3,3,11,16,14,044,,29,11,327,29,26,06,020,*4D
$GPRMC,150613.000,A,5212.2496,N,00007.0699,E,0.15,19.74,311018,,,A*57
$GPVTG,19.74,T,,M,0.15,N,0.29,K,A*09
$GPGGA,150614.000,5212.2497,N,00007.0699,E,1,08,0.93,-0.6,M,47.0,M,,*4C
$GPGSA,A,3,29,23,09,05,02,30,07,06,,,,,1.30,0.93,0.91*04
$GPRMC,150614.000,A,5212.2497,N,00007.0699,E,0.10,44.17,311018,,,A*59
$GPVTG,44.17,T,,M,0.10,N,0.18,K,A*03
$GPGGA,150615.000,5212.2497,N,00007.0700,E,1,08,0.93,-0.6,M,47.0,M,,*4C
$GPGSA,A,3,29,23,09,05,02,30,07,06,,,,,1.30,0.93,0.91*04
$GPRMC,150615.000,A,5212.2497,N,00007.0700,E,0.07,225.51,311018,,,A*68
$GPVTG,225.51,T,,M,0.07,N,0.13,K,A*39
$GPGGA,150616.000,5212.2497,N,00007.0699,E,1,08,0.93,-0.6,M,47.0,M,,*4E
$GPGSA,A,3,29,23,09,05,02,30,07,06,,,,,1.30,0.93,0.91*04
$GPRMC,150616.000,A,5212.2497,N,00007.0699,E,0.22,241.58,311018,,,A*66
$GPVTG,241.58,T,,M,0.22,N,0.41,K,A*32
$GPGGA,150617.000,5212.2496,N,00007.0699,E,1,08,0.93,-0.6,M,47.0,M,,*4E
$GPGSA,A,3,29,23,09,05,02,30,07,06,,,,,1.30,0.93,0.91*04
$GPRMC,150617.000,A,5212.2496,N,00007.0699,E,0.07,258.98,311018,,,A*65
$GPVTG,258.98,T,,M,0.07,N,0.14,K,A*31
$GPGGA,150618.000,5212.2496,N,00007.0698,E,1,08,0.93,-0.6,M,47.0,M,,*40
$GPGSA,A,3,29,23,09,05,02,30,07,06,,,,,1.30,0.93,0.91*04
$GPGSV,3,1,11,07,55,145,26,09,55,071,18,02,47,269,36,06,38,203,27*7E
$GPGSV,3,2,11,30,31,180,26,23,28,072,15,05,27,297,35,39,25,149,*75
$GPGSV,3,3,11,16,14,044,,29,11,327,29,26,06,020,*4D
$GPRMC,150618.000,A,5212.2496,N,00007.0698,E,0.11,216.18,311018,,,A*6E
$GPVTG,216.18,T,,M,0.11,N,0.21,K,A*32
$GPGGA,150619.000,5212.2496,N,00007.0698,E,1,07,1.00,-0.6,M,47.0,M,,*45
$GPGSA,A,3,29,23,05,02,30,07,06,,,,,,1.37,1.00,0.93*03
$GPRMC,150619.000,A,5212.2496,N,00007.0698,E,0.17,143.84,311018,,,A*6F
$GPVTG,143.84,T,,M,0.17,N,0.32,K,A*30
$GPGGA,150620.000,5212.2496,N,00007.0699,E,1,08,0.93,-0.6,M,47.0,M,,*4A
$GPGSA,A,3,29,23,09,05,02,30,07,06,,,,,1.30,0.93,0.91*04
$GPRMC,150620.000,A,5212.2496,N,00007.0699,E,0.09,210.57,311018,,,A*60
$GPVTG,210.57,T,,M,0.09,N,0.16,K,A*32
$GPGGA,150621.000,5212.2496,N,00007.0698,E,1,08,0.93,-0.6,M,47.0,M,,*4A
$GPGSA,A,3,29,23,09,05,02,30,07,06,,,,,1.30,0.93,0.91*04
$GPRMC,150621.000,A,5212.2496,N,00007.0698,E,0.04,226.01,311018,,,A*6B
$GPVTG,226.01,T,,M,0.04,N,0.07,K,A*39
$GPGGA,150622.000,5212.2496,N,00007.0698,E,1,08,0.93,-0.6,M,47.0,M,,*49
$GPGSA,A,3,29,23,09,05,02,30,07,06,,,,,1.30,0.93,0.91*04
$GPRMC,150622.000,A,5212.2496,N,00007.0698,E,0.10,148.94,311018,,,A*6A
$GPVTG,148.94,T,,M,0.10,N,0.19,K,A*34
$GPGGA,150623.000,5212.2495,N,00007.0699,E,1,08,0.93,-0.6,M,47.0,M,,*4A
$GPGSA,A,3,29,23,09,05,02,30,07,06,,,,,1.30,0.93,0.91*04
$GPGSV,3,1,11,07,55,145,28,09,55,071,18,02,47,269,37,06,38,203,28*7E
$GPGSV,3,2,11,30,31,180,25,23,28,072,14,05,27,297,34,16,14,044,*75
$GPGSV,3,3,11,29,11,327,30,40,07,111,,26,06,019,*4F
$GPRMC,150623.000,A,5212.2495,N,00007.0699,E,0.09,107.50,311018,,,A*62
$GPVTG,107.50,T,,M,0.09,N,0.18,K,A*3E
$GPGGA,150624.000,5212.2495,N,00007.0699,E,1,08,0.93,-0.6,M,47.0,M,,*4D
$GPGSA,A,3,29,23,09,05,02,30,07,06,,,,,1.30,0.93,0.91*04
$GPRMC,150624.000,A,5212.2495,N,00007.0699,E,0.07,55.20,311018,,,A*5A
$GPVTG,55.20,T,,M,0.07,N,0.14,K,A*0D
$GPGGA,150625.000,5212.2496,N,00007.0699,E,1,08,0.93,-0.6,M,47.0,M,,*4F
$GPGSA,A,3,29,23,09,05,02,30,07,06,,,,,1.30,0.93,0.91*04
$GPRMC,150625.000,A,5212.2496,N,00007.0699,E,0.08,37.95,311018,,,A*5D
$GPVTG,37.95,T,,M,0.08,N,0.14,K,A*08
$GPGGA,150626.000,5212.2496,N,00007.0700,E,1,08,0.93,-0.6,M,47.0,M,,*4D
$GPGSA,A,3,29,23,09,05,02,30,07,06,,,,,1.30,0.93,0.91*04
$GPRMC,150626.000,A,5212.2496,N,00007.0700,E,0.23,49.04,311018,,,A*57
$GPVTG,49.04,T,,M,0.23,N,0.43,K,A*02
$GPGGA,150627.000,5212.2496,N,00007.0700,E,1,08,0.93,-0.6,M,47.0,M,,*4C
$GPGSA,A,3,29,23,09,05,02,30,07,06,,,,,1.30,0.93,0.91*04
$GPRMC,150627.000,A,5212.2496,N,00007.0700,E,0.18,96.48,311018,,,A*54
$GPVTG,96.48,T,,M,0.18,N,0.34,K,A*00
$GPGGA,150628.000,5212.2496,N,00007.0701,E,1,08,0.93,-0.6,M,47.0,M,,*42
$GPGSA,A,3,29,23,09,05,02,30,07,06,,,,,1.30,0.93,0.91*04
$GPGSV,3,1,11,07,55,145,26,09,55,071,20,02,47,269,37,06,38,203,28*7B
$GPGSV,3,2,11,30,31,180,25,23,28,072,14,05,27,297,34,16,14,044,*75
$GPGSV,3,3,11,29,11,327,30,40,07,111,,26,06,019,*4F
$GPRMC,150628.000,A,5212.2496,N,00007.0701,E,0.16,59.38,311018,,,A*50
$GPVTG,59.38,T,,M,0.16,N,0.30,K,A*0E
$GPGGA,150629.000,5212.2496,N,00007.0702,E,1,08,0.93,-0.6,M,47.0,M,,*40
$GPGSA,A,3,29,23,09,05,02,30,07,06,,,,,1.30,0.93,0.91*04
$GPRMC,150629.000,A,5212.2496,N,00007.0702,E,0.08,19.89,311018,,,A*53
$GPVTG,19.89,T,,M,0.08,N,0.16,K,A*0B
$GPGGA,150630.000,5212.2497,N,00007.0702,E,1,08,0.93,-0.6,M,47.0,M,,*49
$GPGSA,A,3,29,23,09,05,02,30,07,06,,,,,1.30,0.93,0.91*04
$GPRMC,150630.000,A,5212.2497,N,00007.0702,E,0.15,152.63,311018,,,A*6C
$GPVTG,152.63,T,,M,0.15,N,0.27,K,A*3F
$GPGGA,150631.000,5212.2496,N,00007.0702,E,1,08,0.93,-0.6,M,47.0,M,,*49
$GPGSA,A,3,29,23,09,05,02,30,07,06,,,,,1.30,0.93,0.91*04
$GPRMC,150631.000,A,5212.2496,N,00007.0702,E,0.23,188.37,311018,,,A*6F
$GPVTG,188.37,T,,M,0.23,N,0.42,K,A*3F
$GPGGA,150632.000,5212.2496,N,00007.0702,E,1,07,1.00,-0.6,M,47.0,M,,*4E
$GPGSA,A,3,29,23,05,02,30,07,06,,,,,,1.37,1.00,0.93*03
$GPRMC,150632.000,A,5212.2496,N,00007.0702,E,0.27,193.46,311018,,,A*64
$GPVTG,193.46,T,,M,0.27,N,0.49,K,A*3C
$GPGGA,150633.000,5212.2495,N,00007.0702,E,1,08,0.93,-0.6,M,47.0,M,,*48
$GPGSA,A,3,29,23,09,05,02,30,07,06,,,,,1.30,0.93,0.91*04
$GPGSV,3,1,11,07,55,145,25,09,55,071,19,02,47,268,37,06,38,203,28*73
$GPGSV,3,2,11,30,31,180,23,23,28,072,13,05,27,297,34,16,14,044,*74
$GPGSV,3,3,11,29,11,327,30,26,06,019,,44,06,109,*43
$GPRMC,150633.000,A,5212.2495,N,00007.0702,E,0.14,201.43,311018,,,A*6B
$GPVTG,201.43,T,,M,0.14,N,0.25,K,A*3B
$GPGGA,150634.000,5212.2495,N,00007.0702,E,1,08,0.93,-0.6,M,47.0,M,,*4F
$GPGSA,A,3,29,23,09,05,02,30,07,06,,,,,1.30,0.93,0.91*04
$GPRMC,150634.000,A,5212.2495,N,00007.0702,E,0.18,195.98,311018,,,A*68
$GPVTG,195.98,T,,M,0.18,N,0.34,K,A*3F
$GPGGA,150635.000,5212.2494,N,00007.0702,E,1,08,0.93,-0.6,M,47.0,M,,*4F
$GPGSA,A,3,29,23,09,05,02,30,07,06,,,,,1.30,0.93,0.91*04
$GPRMC,150635.000,A,5212.2494,N,00007.0702,E,0.24,197.90,311018,,,A*6D
$GPVTG,197.90,T,,M,0.24,N,0.44,K,A*3D
$GPGGA,150636.000,5212.2493,N,00007.0702,E,1,08,0.93,-0.6,M,47.0,M,,*4B
$GPGSA,A,3,29,23,09,05,02,30,07,06,,,,,1.30,0.93,0.91*04
$GPRMC,150636.000,A,5212.2493,N,00007.0702,E,0.18,172.10,311018,,,A*65
$GPVTG,172.10,T,,M,0.18,N,0.33,K,A*31
$GPGGA,150637.000,5212.2493,N,00007.0702,E,1,08,0.93,-0.6,M,47.0,M,,*4A
$GPGSA,A,3,29,23,09,05,02,30,07,06,,,,,1.30,0.93,0.91*04
$GPRMC,150637.000,A,5212.2493,N,00007.0702,E,0.12,166.01,311018,,,A*6B
$GPVTG,166.01,T,,M,0.12,N,0.23,K,A*3F
$GPGGA,150638.000,5212.2493,N,00007.0702,E,1,08,0.93,-0.6,M,47.0,M,,*45
$GPGSA,A,3,29,23,09,05,02,30,07,06,,,,,1.30,0.93,0.91*04
$GPGSV,3,1,11,07,55,145,27,09,55,071,19,02,47,268,36,06,38,202,28*71
$GPGSV,3,2,11,30,31,180,22,23,28,072,16,05,27,297,34,16,14,044,*70
$GPGSV,3,3,11,29,11,327,31,26,06,019,,44,06,109,*42
$GPRMC,150638.000,A,5212.2493,N,00007.0702,E,0.13,195.53,311018,,,A*6E
$GPVTG,195.53,T,,M,0.13,N,0.25,K,A*33
$GPGGA,150639.000,5212.2492,N,00007.0702,E,1,08,0.93,-0.6,M,47.0,M,,*45
$GPGSA,A,3,29,23,09,05,02,30,07,06,,,,,1.30,0.93,0.91*04
$GPRMC,150639.000,A,5212.2492,N,00007.0702,E,0.24,208.45,311018,,,A*6A
$GPVTG,208.45,T,,M,0.24,N,0.45,K,A*31
$GPGGA,150640.000,5212.2492,N,00007.0701,E,1,08,0.93,-0.6,M,47.0,M,,*48
$GPGSA,A,3,29,23,09,05,02,30,07,06,,,,,1.30,0.93,0.91*04
$GPRMC,150640.000,A,5212.2492,N,00007.0701,E,0.34,234.89,311018,,,A*69
$GPVTG,234.89,T,,M,0.34,N,0.62,K,A*3A
$GPGGA,150641.000,5212.2491,N,00007.0700,E,1,08,0.93,-0.6,M,47.0,M,,*4B
$GPGSA,A,3,29,23,09,05,02,30,07,06,,,,,1.30,0.93,0.91*04
$GPRMC,150641.000,A,5212.2491,N,00007.0700,E,0.29,237.30,311018,,,A*67
$GPVTG,237.30,T,,M,0.29,N,0.54,K,A*32
$GPGGA,150642.000,5212.2491,N,00007.0699,E,1,08,0.93,-0.6,M,47.0,M,,*49
$GPGSA,A,3,29,23,09,05,02,30,07,06,,,,,1.30,0.93,0.91*04
$GPRMC,150642.000,A,5212.2491,N,00007.0699,E,0.25,211.42,311018,,,A*68
$GPVTG,211.42,T,,M,0.25,N,0.47,K,A*3D
$GPGGA,150643.000,5212.2490,N,00007.0698,E,1,08,0.93,-0.6,M,47.0,M,,*48
$GPGSA,A,3,29,23,09,05,02,30,07,06,,,,,1.30,0.93,0.91*04
$GPGSV,3,1,11,07,55,145,28,09,55,071,20,02,47,268,36,06,38,202,26*7A
$GPGSV,3,2,11,30,31,180,21,23,28,072,17,05,27,297,34,16,14,044,*72
$GPGSV,3,3,11,29,11,327,31,26,06,019,,34,,,*7B
$GPRMC,150643.000,A,5212.2490,N,00007.0698,E,0.14,181.35,311018,,,A*61
$GPVTG,181.35,T,,M,0.14,N,0.26,K,A*32
$GPGGA,150644.000,5212.2490,N,00007.0699,E,1,08,0.93,-0.6,M,47.0,M,,*4E
$GPGSA,A,3,29,23,09,05,02,30,07,06,,,,,1.30,0.93,0.91*04
$GPRMC,150644.000,A,5212.2490,N,00007.0699,E,0.15,97.68,311018,,,A*58
$GPVTG,97.68,T,,M,0.15,N,0.29,K,A*02
$GPGGA,150645.000,5212.2490,N,00007.0699,E,1,08,0.93,-0.6,M,47.0,M,,*4F
$GPGSA,A,3,29,23,09,05,02,30,07,06,,,,,1.30,0.93,0.91*04
$GPRMC,150645.000,A,5212.2490,N,00007.0699,E,0.13,101.96,311018,,,A*60
$GPVTG,101.96,T,,M,0.13,N,0.24,K,A*36
$GPGGA,150646.000,5212.2489,N,00007.0700,E,1,08,0.93,-0.6,M,47.0,M,,*45
$GPGSA,A,3,29,23,09,05,02,30,07,06,,,,,1.30,0.93,0.91*04
$GPRMC,150646.000,A,5212.2489,N,00007.0700,E,0.19,132.35,311018,,,A*69
$GPVTG,132.35,T,,M,0.19,N,0.36,K,A*36
$GPGGA,150647.000,5212.2489,N,00007.0701,E,1,08,0.93,-0.6,M,47.0,M,,*45
$GPGSA,A,3,29,23,09,05,02,30,07,06,,,,,1.30,0.93,0.91*04
$GPRMC,150647.000,A,5212.2489,N,00007.0701,E,0.19,180.76,311018,,,A*67
$GPVTG,180.76,T,,M,0.19,N,0.34,K,A*3A
$GPGGA,150648.000,5212.2489,N,00007.0701,E,1,08,0.93,-0.6,M,47.0,M,,*4A
$GPGSA,A,3,29,23,09,05,02,30,07,06,,,,,1.30,0.93,0.91*04
$GPGSV,3,1,11,07,55,145,27,09,55,071,19,02,47,268,36,06,38,202,28*71
$GPGSV,3,2,11,30,31,180,18,23,28,072,19,05,27,297,35,16,14,044,*77
$GPGSV,3,3,11,29,11,327,31,26,06,019,,35,,,*7A
$GPRMC,150648.000,A,5212.2489,N,00007.0701,E,0.21,186.34,311018,,,A*63
$GPVTG,186.34,T,,M,0.21,N,0.39,K,A*3C
$GPGGA,150649.000,5212.2488,N,00007.0700,E,1,08,0.93,-0.6,M,47.0,M,,*4B
$GPGSA,A,3,29,23,09,05,02,30,07,06,,,,,1.30,0.93,0.91*04
$GPRMC,150649.000,A,5212.2488,N,00007.0700,E,0.24,170.80,311018,,,A*61
$GPVTG,170.80,T,,M,0.24,N,0.45,K,A*34
$GPGGA,150650.000,5212.2487,N,00007.0701,E,1,08,0.93,-0.6,M,47.0,M,,*4D
$GPGSA,A,3,29,23,09,05,02,30,07,06,,,,,1.30,0.93,0.91*04
$GPRMC,150650.000,A,5212.2487,N,00007.0701,E,0.17,158.09,311018,,,A*6C
$GPVTG,158.09,T,,M,0.17,N,0.32,K,A*3F
$GPGGA,150651.000,5212.2487,N,00007.0701,E,1,08,0.93,-0.6,M,47.0,M,,*4C
$GPGSA,A,3,29,23,09,05,02,30,07,06,,,,,1.30,0.93,0.91*04
$GPRMC,150651.000,A,5212.2487,N,00007.0701,E,0.10,202.80,311018,,,A*67
$GPVTG,202.80,T,,M,0.10,N,0.19,K,A*3C
$GPGGA,150652.000,5212.2486,N,00007.0701,E,1,08,0.93,-0.6,M,47.0,M,,*4E
$GPGSA,A,3,29,23,09,05,02,30,07,06,,,,,1.30,0.93,0.91*04
$GPRMC,150652.000,A,5212.2486,N,00007.0701,E,0.19,192.17,311018,,,A*68
$GPVTG,192.17,T,,M,0.19,N,0.35,K,A*3F
$GPGGA,150653.000,5212.2486,N,00007.0701,E,1,08,0.93,-0.6,M,47.0,M,,*4F
$GPGSA,A,3,29,23,09,05,02,30,07,06,,,,,1.30,0.93,0.91*04
$GPGSV,3,1,11,07,55,145,28,09,55,071,19,02,47,268,36,06,38,202,29*7F
$GPGSV,3,2,11,30,31,180,18,23,28,072,16,05,27,297,35,16,14,044,*78
$GPGSV,3,3,11,29,11,327,30,26,06,019,,36,,,*78
$GPRMC,150653.000,A,5212.2486,N,00007.0701,E,0.13,218.21,311018,,,A*67
$GPVTG,218.21,T,,M,0.13,N,0.23,K,A*36
$GPGGA,150654.000,5212.2486,N,00007.0700,E,1,08,0.93,-0.6,M,47.0,M,,*49
$GPGSA,A,3,29,23,09,05,02,30,07,06,,,,,1.30,0.93,0.91*04
$GPRMC,150654.000,A,5212.2486,N,00007.0700,E,0.15,177.00,311018,,,A*6E
$GPVTG,177.00,T,,M,0.15,N,0.27,K,A*3D
$GPGGA,150655.000,5212.2485,N,00007.0700,E,1,08,0.93,-0.6,M,47.0,M,,*4B
$GPGSA,A,3,29,23,09,05,02,30,07,06,,,,,1.30,0.93,0.91*04
$GPRMC,150655.000,A,5212.2485,N,00007.0700,E,0.17,166.62,311018,,,A*6A
$GPVTG,166.62,T,,M,0.17,N,0.32,K,A*3F
$GPGGA,150656.000,5212.2485,N,00007.0701,E,1,08,0.93,-0.6,M,47.0,M,,*49
$GPGSA,A,3,29,23,09,05,02,30,07,06,,,,,1.30,0.93,0.91*04
$GPRMC,150656.000,A,5212.2485,N,00007.0701,E,0.22,143.05,311018,,,A*68
$GPVTG,143.05,T,,M,0.22,N,0.40,K,A*3A
$GPGGA,150657.000,5212.2484,N,00007.0701,E,1,07,1.00,-0.6,M,47.0,M,,*4D
$GPGSA,A,3,29,23,05,02,30,07,06,,,,,,1.37,1.00,0.93*03
$GPRMC,150657.000,A,5212.2484,N,00007.0701,E,0.20,139.34,311018,,,A*65
$GPVTG,139.34,T,,M,0.20,N,0.36,K,A*36
$GPGGA,150658.000,5212.2484,N,00007.0702,E,1,07,1.00,-0.6,M,47.0,M,,*41
$GPGSA,A,3,29,23,05,02,30,07,06,,,,,,1.37,1.00,0.93*03
$GPGSV,3,1,11,07,55,145,29,09,55,071,16,02,47,268,36,06,38,202,29*71
$GPGSV,3,2,11,30,31,180,20,23,28,072,15,05,27,297,34,16,14,044,*71
$GPGSV,3,3,11,29,11,327,29,26,06,019,,36,,,*70
$GPRMC,150658.000,A,5212.2484,N,00007.0702,E,0.13,143.96,311018,,,A*6C
$GPVTG,143.96,T,,M,0.13,N,0.24,K,A*30
$GPGGA,150659.000,5212.2484,N,00007.0703,E,1,08,0.93,-0.6,M,47.0,M,,*45
$GPGSA,A,3,29,23,09,05,02,30,07,06,,,,,1.30,0.93,0.91*04
$GPRMC,150659.000,A,5212.2484,N,00007.0703,E,0.19,133.71,311018,,,A*68
$GPVTG,133.71,T,,M,0.19,N,0.35,K,A*34
$GPGGA,150700.000,5212.2483,N,00007.0703,E,1,08,0.93,-0.6,M,47.0,M,,*4F
$GPGSA,A,3,29,23,09,05,02,30,07,06,,,,,1.30,0.93,0.91*04
$GPRMC,150700.000,A,5212.2483,N,00007.0703,E,0.18,156.52,311018,,,A*61
$GPVTG,156.52,T,,M,0.18,N,0.34,K,A*36
$GPGGA,150701.000,5212.2483,N,00007.0704,E,1,08,0.93,-0.6,M,47.0,M,,*49
$GPGSA,A,3,29,23,09,05,02,30,07,06,,,,,1.30,0.93,0.91*04
$GPRMC,150701.000,A,5212.2483,N,00007.0704,E,0.17,172.01,311018,,,A*68
$GPVTG,172.01,T,,M,0.17,N,0.31,K,A*3C
$GPGGA,150702.000,5212.2482,N,00007.0704,E,1,08,0.93,-0.6,M,47.0,M,,*4B
$GPGSA,A,3,29,23,09,05,02,30,07,06,,,,,1.30,0.93,0.91*04
$GPRMC,150702.000,A,5212.2482,N,00007.0704,E,0.21,205.13,311018,,,A*6F
$GPVTG,205.13,T,,M,0.21,N,0.38,K,A*30
$GPGGA,150703.000,5212.2482,N,00007.0703,E,1,08,0.93,-0.6,M,47.0,M,,*4D
$GPGSA,A,3,29,23,09,05,02,30,07,06,,,,,1.30,0.93,0.91*04
$GPGSV,3,1,11,07,55,145,30,09,55,071,17,02,47,268,36,06,38,202,29*78
$GPGSV,3,2,11,30,31,180,22,23,28,072,15,05,27,297,34,16,14,044,*73
$GPGSV,3,3,11,29,11,327,30,26,06,019,,38,,,*76
$GPRMC,150703.000,A,5212.2482,N,00007.0703,E,0.40,239.91,311018,,,A*6B
$GPVTG,239.91,T,,M,0.40,N,0.74,K,A*3A
$GPGGA,150704.000,5212.2481,N,00007.0702,E,1,08,0.93,-0.6,M,47.0,M,,*48
$GPGSA,A,3,29,23,09,05,02,30,07,06,,,,,1.30,0.93,0.91*04
$GPRMC,150704.000,A,5212.2481,N,00007.0702,E,0.35,246.48,311018,,,A*60
$GPVTG,246.48,T,,M,0.35,N,0.65,K,A*34
$GPGGA,150705.000,5212.2481,N,00007.0700,E,1,08,0.93,-0.6,M,47.0,M,,*4B
$GPGSA,A,3,29,23,09,05,02,30,07,06,,,,,1.30,0.93,0.91*04
$GPRMC,150705.000,A,5212.2481,N,00007.0700,E,0.42,248.21,311018,,,A*62
$GPVTG,248.21,T,,M,0.42,N,0.78,K,A*39
$GPGGA,150706.000,5212.2480,N,00007.0698,E,1,07,1.00,-0.6,M,47.0,M,,*4D
$GPGSA,A,3,29,23,05,02,30,07,06,,,,,,1.37,1.00,0.93*03
$GPRMC,150706.000,A,5212.2480,N,00007.0698,E,0.72,245.33,311018,,,A*6D
$GPVTG,245.33,T,,M,0.72,N,1.33,K,A*3A
$GPGGA,150707.000,5212.2481,N,00007.0695,E,1,07,1.00,-0.7,M,47.0,M,,*41
$GPGSA,A,3,29,23,05,02,30,07,06,,,,,,1.37,1.00,0.93*03
$GPRMC,150707.000,A,5212.2481,N,00007.0695,E,0.73,244.74,311018,,,A*63
$GPVTG,244.74,T,,M,0.73,N,1.36,K,A*3C
$GPGGA,150708.000,5212.2482,N,00007.0691,E,1,07,1.00,-0.5,M,47.0,M,,*4B
$GPGSA,A,3,29,23,05,02,30,07,06,,,,,,1.37,1.00,0.93*03
$GPGSV,3,1,11,07,55,145,30,09,55,071,15,02,47,268,35,06,38,202,29*79
$GPGSV,3,2,11,30,31,180,24,23,28,072,15,05,27,297,34,16,14,044,*75
$GPGSV,3,3,11,29,11,327,30,26,06,019,,41,,,*78
$GPRMC,150708.000,A,5212.2482,N,00007.0691,E,0.65,233.73,311018,,,A*6B
$GPVTG,233.73,T,,M,0.65,N,1.20,K,A*3B
$GPGGA,150709.000,5212.2483,N,00007.0689,E,1,08,0.93,-0.5,M,47.0,M,,*46
$GPGSA,A,3,29,23,09,05,02,30,07,06,,,,,1.30,0.93,0.91*04
$GPRMC,150709.000,A,5212.2483,N,00007.0689,E,0.55,231.41,311018,,,A*62
$GPVTG,231.41,T,,M,0.55,N,1.02,K,A*3B
$GPGGA,150710.000,5212.2483,N,00007.0685,E,1,08,0.93,-0.5,M,47.0,M,,*42
$GPGSA,A,3,29,23,09,05,02,30,07,06,,,,,1.30,0.93,0.91*04
$GPRMC,150710.000,A,5212.2483,N,00007.0685,E,0.49,235.25,311018,,,A*6D
$GPVTG,235.25,T,,M,0.49,N,0.91,K,A*3B
$GPGGA,150711.000,5212.2485,N,00007.0684,E,1,08,0.93,-0.4,M,47.0,M,,*45
$GPGSA,A,3,29,23,09,05,02,30,07,06,,,,,1.30,0.93,0.91*04
$GPRMC,150711.000,A,5212.2485,N,00007.0684,E,0.34,249.44,311018,,,A*6D
$GPVTG,249.44,T,,M,0.34,N,0.63,K,A*30
$GPGGA,150712.000,5212.2484,N,00007.0678,E,1,07,1.00,-0.4,M,47.0,M,,*40
$GPGSA,A,3,29,23,05,02,30,07,06,,,,,,1.37,1.00,0.93*03
$GPRMC,150712.000,A,5212.2484,N,00007.0678,E,0.41,235.16,311018,,,A*62
$GPVTG,235.16,T,,M,0.41,N,0.77,K,A*3B
$GPGGA,150713.000,5212.2483,N,00007.0677,E,1,08,0.93,-0.4,M,47.0,M,,*4D
$GPGSA,A,3,29,23,09,05,02,30,07,06,,,,,1.30,0.93,0.91*04
$GPGSV,3,1,11,07,56,144,30,09,55,071,15,02,47,268,35,06,37,202,29*74
$GPGSV,3,2,11,30,31,180,24,23,28,072,15,05,27,297,34,16,14,044,*75
$GPGSV,3,3,11,29,11,327,31,26,06,019,,43,,,*7B
$GPRMC,150713.000,A,5212.2483,N,00007.0677,E,0.28,215.99,311018,,,A*61
$GPVTG,215.99,T,,M,0.28,N,0.52,K,A*36
$GPGGA,150714.000,5212.2482,N,00007.0676,E,1,08,0.93,-0.4,M,47.0,M,,*4A
$GPGSA,A,3,29,23,09,05,02,30,07,06,,,,,1.30,0.93,0.91*04
$GPRMC,150714.000,A,5212.2482,N,00007.0676,E,0.21,243.75,311018,,,A*6E
$GPVTG,243.75,T,,M,0.21,N,0.39,K,A*33
$GPGGA,150715.000,5212.2482,N,00007.0676,E,1,08,0.93,-0.4,M,47.0,M,,*4B
$GPGSA,A,3,29,23,09,05,02,30,07,06,,,,,1.30,0.93,0.91*04
$GPRMC,150715.000,A,5212.2482,N,00007.0676,E,0.13,224.03,311018,,,A*6E
$GPVTG,224.03,T,,M,0.13,N,0.24,K,A*3E
$GPGGA,150716.000,5212.2482,N,00007.0675,E,1,08,0.93,-0.4,M,47.0,M,,*4B
$GPGSA,A,3,29,23,09,05,02,30,07,06,,,,,1.30,0.93,0.91*04
$GPRMC,150716.000,A,5212.2482,N,00007.0675,E,0.17,185.19,311018,,,A*69
$GPVTG,185.19,T,,M,0.17,N,0.32,K,A*3E
$GPGGA,150717.000,5212.2481,N,00007.0675,E,1,08,0.93,-0.4,M,47.0,M,,*49
$GPGSA,A,3,29,23,09,05,02,30,07,06,,,,,1.30,0.93,0.91*04
$GPRMC,150717.000,A,5212.2481,N,00007.0675,E,0.10,207.15,311018,,,A*69
$GPVTG,207.15,T,,M,0.10,N,0.19,K,A*35
$GPGGA,150718.000,5212.2481,N,00007.0675,E,1,08,0.93,-0.4,M,47.0,M,,*46
$GPGSA,A,3,29,23,09,05,02,30,07,06,,,,,1.30,0.93,0.91*04
$GPGSV,3,1,11,07,56,144,29,09,55,071,17,02,47,268,35,06,37,202,30*76
$GPGSV,3,2,11,30,31,180,25,23,28,072,16,05,27,297,34,16,14,044,*77
$GPGSV,3,3,11,29,11,327,31,26,06,019,,43,,,*7B
$GPRMC,150718.000,A,5212.2481,N,00007.0675,E,0.03,125.79,311018,,,A*6D
$GPVTG,125.79,T,,M,0.03,N,0.06,K,A*30
$GPGGA,150719.000,5212.2481,N,00007.0675,E,1,08,0.93,-0.4,M,47.0,M,,*47
$GPGSA,A,3,29,23,09,05,02,30,07,06,,,,,1.30,0.93,0.91*04
$GPRMC,150719.000,A,5212.2481,N,00007.0675,E,0.06,256.82,311018,,,A*6A
$GPVTG,256.82,T,,M,0.06,N,0.11,K,A*30
