$GPRMC,103850.000,A,5211.9246,N,00007.1740,E,0.35,184.02,051118,,,A*6F
$GPVTG,184.02,T,,M,0.35,N,0.64,K,A*36
$GPGGA,103851.000,521ñ$GPGGA,103852.000,5211.9267,N,00007.1721,E,1,03,3.70,101.4,M,47.0,M,,*6E
$GPGSA,A,2,14,17,19,,,,,,,,,,3.83,3.70,1.00*05
$GPRMC,103852.000,A,5211.9267,N,00007.1721,E,14.20,168.29,051118,,,A*53
$GPVTG,168.29,T,,M,14.20,N,26.31,K,A*38
$GPGGA,103853.000,5211.9236,N,00007.1734,E,6,02,99.99,100.3,M,47.0,M,,*5B
$GPGSA,A,1,14,17,,,,,,,,,,,99.99,99.99,1.00*02
$GPRMC,103853.000,V,,,,,12.41,165.84,051118,,,E*7E
$GPVTG,165.84,T,,M,12.41,N,23.00,K,E*30
$GPGGA,103854.000,5211.9212,N,00007.1750,E,6,02,99.99,99.1,M,47.0,M,,*6B
$GPGSA,A,1,14,17,,,,,,,,,,,99.99,99.99,1.00*02
$GPRMC,103854.000,V,,,,,7.97,160.87,051118,,,E*40
$GPVTG,160.87,T,,M,7.97,N,14.77,K,E*0D
$GPGGA,103854.207,5211.9208,N,00007.1752,E,6,02,99.99,98.8,M,47.0,M,,*6F
$GPGSA,A,1,14,17,,,,,,,,,,,99.99,99.99,1.00*02
$GPGSV,2,1,07,17,48,287,41,14,29,049,33,19,29,313,,06,07,297,14*76
$GPGSV,2,2,07,28,05,246,16,32,,,14,03,,,30*42
$GPRMC,103854.207,V,,,,,8.38,162.29,051118,,,E*49
$GPVTG,162.29,T,,M,8.38,N,15.52,K,E*07
$GPGGA,103856.000,5211.9171,N,00007.1771,E,1,03,3.70,96.4,M,47.0,M,,*54
$GPGSA,A,2,14,17,19,,,,,,,,,,3.83,3.70,1.00*05
$GPRMC,103856.000,A,5211.9171,N,00007.1771,E,1.89,157.58,051118,,,A*6B
$GPVTG,157.58,T,,M,1.89,N,3.51,K,A*34
$GPGGA,103857.000,5211.9170,N,00007.1772,E,1,03,3.70,95.8,M,47.0,M,,*58
$GPGSA,A,2,14,17,19,,,,,,,,,,3.83,3.70,1.00*05
$GPRMC,103857.000,A,5211.9170,N,00007.1772,E,0.45,150.82,051118,,,A*69
$GPVTG,150.82,T,,M,0.45,N,0.83,K,A*39
$GPGGA,103858.000,5211.9173,N,00007.1769,E,1,03,3.70,95.3,M,47.0,M,,*55
$GPGSA,A,2,14,17,19,,,,,,,,,,3.83,3.70,1.00*05
$GPRMC,103858.000,A,5211.9173,N,00007.1769,E,0.08,318.74,051118,,,A*61
$GPVTG,318.74,T,,M,0.08,N,0.15,K,A*38
$GPGGA,103859.000,5211.9178,N,00007.1765,E,1,03,3.69,94.7,M,47.0,M,,*5E
$GPGSA,A,2,14,17,19,,,,,,,,,,3.83,3.69,1.00*0D
$GPRMC,103859.000,A,5211.9178,N,00007.1765,E,1.39,157.36,051118,,,A*6B
$GPVTG,157.36,T,,M,1.39,N,2.58,K,A*3F
$GPGGA,103900.000,5211.9180,N,00007.1761,E,1,03,3.70,94.0,M,47.0,M,,*5F
$GPGSA,A,2,14,17,19,,,,,,,,,,3.83,3.70,1.00*05
$GPGSV,2,1,06,17,49,286,41,14,29,049,34,19,29,313,40,06,07,297,*71
$GPGSV,2,2,06,28,05,246,15,03,,,31*45
$GPRMC,103900.000,A,5211.9180,N,00007.1761,E,0.61,304.15,051118,,,A*6C
$GPVTG,304.15,T,,M,0.61,N,1.12,K,A*3B
$GPGGA,103900.207,5211.9186,N,00007.1756,E,1,03,3.70,93.3,M,47.0,M,,*5C
$GPGSA,A,2,14,17,19,,,,,,,,,,3.83,3.70,1.00*05
$GPRMC,103900.207,A,5211.9186,N,00007.1756,E,0.92,167.68,051118,,,A*6A
$GPVTG,167.68,T,,M,0.92,N,1.70,K,A*3E
$GPGGA,103902.000,5211.9184,N,00007.1747,E,1,03,3.69,93.0,M,47.0,M,,*52
$GPGSA,A,2,14,17,19,,,,,,,,,,3.83,3.69,1.00*0D
$GPRMC,103902.000,A,5211.9184,N,00007.1747,E,1.22,170.41,051118,,,A*68
$GPVTG,170.41,T,,M,1.22,N,2.27,K,A*38
$GPGGA,103903.000,5211.9185,N,00007.1742,E,1,03,3.70,92.5,M,47.0,M,,*5B
$GPGSA,A,2,14,17,19,,,,,,,,,,3.83,3.70,1.00*05
$GPRMC,103903.000,A,5211.9185,N,00007.1742,E,1.46,168.00,051118,,,A*63
$GPVTG,168.00,T,,M,1.46,N,2.71,K,A*35
$GPGGA,103904.000,5211.9184,N,00007.1739,E,1,03,3.69,92.0,M,47.0,M,,*5C
$GPGSA,A,2,14,17,19,,,,,,,,,,3.83,3.69,1.00*0D
$GPRMC,103904.000,A,5211.9184,N,00007.1739,E,1.83,163.16,051118,,,A*6C
$GPVTG,163.16,T,,M,1.83,N,3.38,K,A*3C
$GPGGA,103905.000,5211.9186,N,00007.1736,E,1,03,3.69,91.5,M,47.0,M,,*56
$GPGSA,A,2,14,17,19,,,,,,,,,,3.82,3.69,1.00*0C
$GPGSV,2,1,07,17,49,286,41,14,29,049,34,19,29,313,40,06,07,297,*70
$GPGSV,2,2,07,28,05,246,15,32,,,23,03,,,31*44
$GPRMC,103905.000,A,5211.9186,N,00007.1736,E,0.86,166.14,051118,,,A*63
$GPVTG,166.14,T,,M,0.86,N,1.59,K,A*3A
$GPGGA,103906.000,5211.9188,N,00007.1734,E,1,03,3.69,91.2,M,47.0,M,,*5E
$GPGSA,A,2,14,17,19,,,,,,,,,,3.83,3.69,1.00*0D
$GPRMC,103906.000,A,5211.9188,N,00007.1734,E,0.71,187.67,051118,,,A*6F
$GPVTG,187.67,T,,M,0.71,N,1.31,K,A*37
$GPGGA,103906.213,5211.9191,N,00007.1732,E,1,03,3.69,90.9,M,47.0,M,,*5A
$GPGSA,A,2,14,17,19,,,,,,,,,,3.83,3.69,1.00*0D
$GPRMC,103906.213,A,5211.9191,N,00007.1732,E,0.67,192.64,051118,,,A*61
$GPVTG,192.64,T,,M,0.67,N,1.23,K,A*34
$GPGGA,103908.000,5211.9193,N,00007.1730,E,1,03,3.69,90.6,M,47.0,M,,*5B
$GPGSA,A,2,14,17,19,,,,,,,,,,3.83,3.69,1.00*0D
$GPRMC,103908.000,A,5211.9193,N,00007.1730,E,0.33,211.30,051118,,,A*67
$GPVTG,211.30,T,,M,0.33,N,0.62,K,A*38
$GPGGA,103909.000,5211.9196,N,00007.1727,E,1,03,3.69,90.4,M,47.0,M,,*5B
$GPGSA,A,2,14,17,19,,,,,,,,,,3.82,3.69,1.00*0C
$GPRMC,103909.000,A,5211.9196,N,00007.1727,E,0.35,236.71,051118,,,A*63
$GPVTG,236.71,T,,M,0.35,N,0.64,K,A*38
$GPGGA,103910.000,5211.9197,N,00007.1728,E,1,03,3.69,90.2,M,47.0,M,,*5B
$GPGSA,A,2,14,17,19,,,,,,,,,,3.82,3.69,1.00*0C
$GPGSV,2,1,08,17,49,286,41,14,29,049,33,19,29,313,40,31,15,080,*7B
$GPGSV,2,2,08,06,07,297,,28,05,246,13,32,,,24,03,,,31*77
$GPRMC,103910.000,A,5211.9197,N,00007.1728,E,0.25,204.01,051118,,,A*62
$GPVTG,204.01,T,,M,0.25,N,0.46,K,A*3F
$GPGGA,103911.000,5211.9197,N,00007.1727,E,1,03,3.69,90.0,M,47.0,M,,*57
$GPGSA,A,2,14,17,19,,,,,,,,,,3.82,3.69,1.00*0C
$GPRMC,103911.000,A,5211.9197,N,00007.1727,E,0.29,191.47,051118,,,A*6D
$GPVTG,191.47,T,,M,0.29,N,0.54,K,A*3D
$GPGGA,103912.000,5211.9198,N,00007.1726,E,1,03,3.69,89.9,M,47.0,M,,*5B
$GPGSA,A,2,14,17,19,,,,,,,,,,3.82,3.69,1.00*0C
$GPRMC,103912.000,A,5211.9198,N,00007.1726,E,0.23,188.72,051118,,,A*64
$GPVTG,188.72,T,,M,0.23,N,0.43,K,A*3F
$GPGGA,103912.207,5211.9200,N,00007.1725,E,1,03,3.69,89.8,M,47.0,M,,*5E
$GPGSA,A,2,14,17,19,,,,,,,,,,3.82,3.69,1.00*0C
$GPRMC,103912.207,A,5211.9200,N,00007.1725,E,0.13,171.35,051118,,,A*66
$GPVTG,171.35,T,,M,0.13,N,0.24,K,A*38
$GPGGA,103914.000,5211.9202,N,00007.1724,E,1,03,3.69,89.7,M,47.0,M,,*51
$GPGSA,A,2,14,17,19,,,,,,,,,,3.82,3.69,1.00*0C
$GPRMC,103914.000,A,5211.9202,N,00007.1724,E,0.01,215.61,051118,,,A*65
$GPVTG,215.61,T,,M,0.01,N,0.03,K,A*3E
$GPGGA,103915.000,5211.9202,N,00007.1724,E,1,03,3.69,89.7,M,47.0,M,,*50
$GPGSA,A,2,14,17,19,,,,,,,,,,3.82,3.69,1.00*0C
$GPGSV,3,1,09,17,49,286,41,14,29,049,33,19,29,313,40,31,15,080,*7B
$GPGSV,3,2,09,06,07,297,,28,05,246,13,09,05,198,,32,,,22*4C
$GPGSV,3,3,09,03,,,30*70
$GPRMC,103915.000,A,5211.9202,N,00007.1724,E,0.17,155.55,051118,,,A*63
$GPVTG,155.55,T,,M,0.17,N,0.32,K,A*3B
$GPGGA,103916.000,5211.9202,N,00007.1724,E,1,03,3.69,89.6,M,47.0,M,,*52
$GPGSA,A,2,14,17,19,,,,,,,,,,3.82,3.69,1.00*0C
$GPRMC,103916.000,A,5211.9202,N,00007.1724,E,0.15,56.56,051118,,,A*53
$GPVTG,56.56,T,,M,0.15,N,0.27,K,A*0C
$GPGGA,103917.000,5211.9202,N,00007.1725,E,1,03,3.69,89.6,M,47.0,M,,*52
$GPGSA,A,2,14,17,19,,,,,,,,,,3.82,3.69,1.00*0C
$GPRMC,103917.000,A,5211.9202,N,00007.1725,E,0.27,344.81,051118,,,A*68
$GPVTG,344.81,T,,M,0.27,N,0.49,K,A*3F
$GPGGA,103918.000,5211.9203,N,00007.1725,E,1,03,3.69,89.6,M,47.0,M,,*5C
$GPGSA,A,2,14,17,19,,,,,,,,,,3.82,3.69,1.00*0C
$GPRMC,103918.000,A,5211.9203,N,00007.1725,E,0.17,18.84,051118,,,A*5A
$GPVTG,18.84,T,,M,0.17,N,0.31,K,A*0C
$GPGGA,103918.203,5211.9203,N,00007.1725,E,1,03,3.69,89.6,M,47.0,M,,*5D
$GPGSA,A,2,14,17,19,,,,,,,,,,3.82,3.69,1.00*0C
$GPRMC,103918.203,A,5211.9203,N,00007.1725,E,0.15,17.49,051118,,,A*57
$GPVTG,17.49,T,,M,0.15,N,0.27,K,A*07
$GPGGA,103920.000,5211.9203,N,00007.1725,E,1,03,3.69,89.6,M,47.0,M,,*57
$GPGSA,A,2,14,17,19,,,,,,,,,,3.82,3.69,1.00*0C
$GPGSV,3,1,09,17,49,286,41,14,29,049,33,19,29,313,40,31,15,080,22*7B
$GPGSV,3,2,09,06,07,297,,28,05,246,14,09,05,198,,32,,,22*4B
$GPGSV,3,3,09,03,,,28*79
$GPRMC,103920.000,A,5211.9203,N,00007.1725,E,0.13,42.38,051118,,,A*5D
$GPVTG,42.38,T,,M,0.13,N,0.24,K,A*04
$GPGGA,103921.000,5211.9204,N,00007.1725,E,1,03,3.69,89.6,M,47.0,M,,*51
$GPGSA,A,2,14,17,19,,,,,,,,,,3.82,3.69,1.00*0C
$GPRMC,103921.000,A,5211.9204,N,00007.1725,E,0.05,165.07,051118,,,A*64
$GPVTG,165.07,T,,M,0.05,N,0.09,K,A*34
$GPGGA,103922.000,5211.9204,N,00007.1725,E,1,03,3.69,89.6,M,47.0,M,,*52
$GPGSA,A,2,14,17,19,,,,,,,,,,3.82,3.69,1.00*0C
$GPRMC,103922.000,A,5211.9204,N,00007.1725,E,0.15,352.35,051118,,,A*61
$GPVTG,352.35,T,,M,0.15,N,0.28,K,A*31
$GPGGA,103923.000,5211.9204,N,00007.1725,E,1,03,62.92,89.6,M,47.0,M,,*60
$GPGSA,A,2,14,17,19,,,,,,,,,,99.99,62.92,95.88*3B
$GPRMC,103923.000,A,5211.9204,N,00007.1725,E,0.19,353.19,051118,,,A*63
$GPVTG,353.19,T,,M,0.19,N,0.35,K,A*3E
$GPGGA,103924.000,5211.9205,N,00007.1725,E,1,03,62.91,89.6,M,47.0,M,,*65
$GPGSA,A,2,14,17,19,,,,,,,,,,99.99,62.91,95.89*39
$GPRMC,103924.000,A,5211.9205,N,00007.1725,E,0.19,8.10,051118,,,A*61
$GPVTG,8.10,T,,M,0.19,N,0.36,K,A*39
$GPGGA,103924.213,5211.9204,N,00007.1725,E,1,04,18.91,89.5,M,47.0,M,,*6D
$GPGSA,A,3,14,17,19,03,,,,,,,,,30.87,18.91,24.40*35
$GPGSV,3,1,10,03,81,250,27,17,49,286,41,14,29,049,33,19,29,313,40*75
$GPGSV,3,2,10,33,28,199,,31,15,080,24,06,07,297,,28,05,246,*78
$GPGSV,3,3,10,09,05,198,,32,,,23*44
$GPRMC,103924.213,A,5211.9204,N,00007.1725,E,0.21,352.44,051118,,,A*66
$GPVTG,352.44,T,,M,0.21,N,0.39,K,A*30
$GPGGA,103926.000,5211.9205,N,00007.1725,E,1,04,18.83,89.5,M,47.0,M,,*6D
$GPGSA,A,3,14,17,19,03,,,,,,,,,30.74,18.83,24.29*35
$GPRMC,103926.000,A,5211.9205,N,00007.1725,E,0.15,350.65,051118,,,A*63
$GPVTG,350.65,T,,M,0.15,N,0.28,K,A*36
$GPGGA,103927.000,5211.9206,N,00007.1725,E,1,04,18.79,89.5,M,47.0,M,,*6A
$GPGSA,A,3,14,17,19,03,,,,,,,,,30.66,18.79,24.23*39
$GPRMC,103927.000,A,5211.9206,N,00007.1725,E,0.11,348.70,051118,,,A*68
$GPVTG,348.70,T,,M,0.11,N,0.21,K,A*36
$GPGGA,103928.000,5211.9206,N,00007.1724,E,1,04,18.74,89.5,M,47.0,M,,*69
$GPGSA,A,3,14,17,19,03,,,,,,,,,30.59,18.74,24.17*3F
$GPRMC,103928.000,A,5211.9206,N,00007.1724,E,0.31,330.16,051118,,,A*6B
$GPVTG,330.16,T,,M,0.31,N,0.57,K,A*3A
$GPGGA,103929.000,5211.9207,N,00007.1724,E,1,04,2.25,89.5,M,47.0,M,,*56
$GPGSA,A,3,14,17,19,03,,,,,,,,,2.47,2.25,1.00*0F
$GPRMC,103929.000,A,5211.9207,N,00007.1724,E,0.29,347.18,051118,,,A*6C
$GPVTG,347.18,T,,M,0.29,N,0.54,K,A*3E
$GPGGA,103930.000,5211.9208,N,00007.1723,E,1,04,18.67,89.4,M,47.0,M,,*6A
$GPGSA,A,3,14,17,19,03,,,,,,,,,30.47,18.67,24.08*3C
$GPGSV,3,1,10,03,81,250,29,17,49,286,41,14,29,049,33,19,29,313,40*7B
$GPGSV,3,2,10,33,28,199,,31,15,080,21,06,07,297,,28,05,246,*7D
$GPGSV,3,3,10,09,05,198,,32,,,22*45
$GPRMC,103930.000,A,5211.9208,N,00007.1723,E,0.10,320.67,051118,,,A*6F
$GPVTG,320.67,T,,M,0.10,N,0.19,K,A*34
$GPGGA,103931.000,5211.9208,N,00007.1723,E,1,04,2.25,89.4,M,47.0,M,,*56
$GPGSA,A,3,14,17,19,03,,,,,,,,,2.47,2.25,1.00*0F
$GPRMC,103931.000,A,5211.9208,N,00007.1723,E,0.12,80.46,051118,,,A*56
$GPVTG,80.46,T,,M,0.12,N,0.22,K,A*04
$GPGGA,103932.000,5211.9208,N,00007.1723,E,1,04,2.25,89.4,M,47.0,M,,*55
$GPGSA,A,3,14,17,19,03,,,,,,,,,2.47,2.25,1.00*0F
$GPRMC,103932.000,A,5211.9208,N,00007.1723,E,0.10,133.52,051118,,,A*6B
$GPVTG,133.52,T,,M,0.10,N,0.18,K,A*33
$GPGGA,103933.000,5211.9208,N,00007.1724,E,1,04,2.25,89.4,M,47.0,M,,*53
$GPGSA,A,3,14,17,19,03,,,,,,,,,2.47,2.25,1.00*0F
$GPRMC,103933.000,A,5211.9208,N,00007.1724,E,0.06,38.38,051118,,,A*5C
$GPVTG,38.38,T,,M,0.06,N,0.10,K,A*0A
$GPGGA,103934.000,5211.9208,N,00007.1724,E,1,04,2.26,89.4,M,47.0,M,,*57
$GPGSA,A,3,14,17,19,03,,,,,,,,,2.47,2.26,1.00*0C
$GPRMC,103934.000,A,5211.9208,N,00007.1724,E,0.14,315.40,051118,,,A*6B
$GPVTG,315.40,T,,M,0.14,N,0.26,K,A*3F
$GPGGA,103935.000,5211.9209,N,00007.1723,E,1,04,2.26,89.4,M,47.0,M,,*50
$GPGSA,A,3,14,17,19,03,,,,,,,,,2.47,2.26,1.00*0C
$GPGSV,3,1,10,03,81,250,29,17,49,286,41,19,29,313,40,14,28,049,34*7D
$GPGSV,3,2,10,37,27,153,,31,15,080,20,06,07,297,,28,05,246,*71
$GPGSV,3,3,10,09,05,198,,32,,,22*45
$GPRMC,103935.000,A,5211.9209,N,00007.1723,E,0.17,300.39,051118,,,A*65
$GPVTG,300.39,T,,M,0.17,N,0.31,K,A*30
$GPGGA,103936.000,5211.9209,N,00007.1723,E,1,04,2.26,89.4,M,47.0,M,,*53
$GPGSA,A,3,14,17,19,03,,,,,,,,,2.47,2.26,1.00*0C
$GPRMC,103936.000,A,5211.9209,N,00007.1723,E,0.18,330.67,051118,,,A*61
$GPVTG,330.67,T,,M,0.18,N,0.34,K,A*32
$GPGGA,103937.000,5211.9210,N,00007.1722,E,1,04,2.26,89.4,M,47.0,M,,*5B
$GPGSA,A,3,14,17,19,03,,,,,,,,,2.47,2.26,1.00*0C
$GPRMC,103937.000,A,5211.9210,N,00007.1722,E,0.02,279.05,051118,,,A*6A
$GPVTG,279.05,T,,M,0.02,N,0.04,K,A*32
$GPGGA,103938.000,5211.9210,N,00007.1722,E,1,04,2.26,89.3,M,47.0,M,,*53
$GPGSA,A,3,14,17,19,03,,,,,,,,,2.47,2.26,1.00*0C
$GPRMC,103938.000,A,5211.9210,N,00007.1722,E,0.14,273.32,051118,,,A*6C
$GPVTG,273.32,T,,M,0.14,N,0.26,K,A*3B
$GPGGA,103939.000,5211.9210,N,00007.1721,E,1,04,2.26,89.3,M,47.0,M,,*51
$GPGSA,A,3,14,17,19,03,,,,,,,,,2.47,2.26,1.00*0C
$GPRMC,103939.000,A,5211.9210,N,00007.1721,E,0.10,202.24,051118,,,A*6B
$GPVTG,202.24,T,,M,0.10,N,0.18,K,A*33
$GPGGA,103940.000,5211.9209,N,00007.1721,E,1,04,2.26,89.3,M,47.0,M,,*57
$GPGSA,A,3,14,17,19,03,,,,,,,,,2.47,2.26,1.00*0C
$GPGSV,3,1,10,03,81,250,29,17,49,286,41,19,29,312,40,14,28,049,35*7D
$GPGSV,3,2,10,37,27,153,,31,15,080,20,32,10,038,23,06,07,297,*74
$GPGSV,3,3,10,28,05,246,,09,05,198,*7B
$GPRMC,103940.000,A,5211.9209,N,00007.1721,E,0.05,349.62,051118,,,A*65
$GPVTG,349.62,T,,M,0.05,N,0.09,K,A*3B
$GPGGA,103941.000,5211.9210,N,00007.1721,E,1,04,18.21,89.3,M,47.0,M,,*62
$GPGSA,A,3,14,17,19,03,,,,,,,,,29.69,18.21,23.45*34
$GPRMC,103941.000,A,5211.9210,N,00007.1721,E,0.06,240.67,051118,,,A*62
$GPVTG,240.67,T,,M,0.06,N,0.10,K,A*3D
$GPGGA,103942.000,5211.9210,N,00007.1721,E,1,04,2.26,89.3,M,47.0,M,,*5D
$GPGSA,A,3,14,17,19,03,,,,,,,,,2.47,2.26,1.00*0C
$GPRMC,103942.000,A,5211.9210,N,00007.1721,E,0.16,355.53,051118,,,A*62
$GPVTG,355.53,T,,M,0.16,N,0.29,K,A*34
$GPGGA,103943.000,5211.9210,N,00007.1721,E,1,04,18.13,89.3,M,47.0,M,,*61
$GPGSA,A,3,14,17,19,03,,,,,,,,,29.56,18.13,23.35*3E
$GPRMC,103943.000,A,5211.9210,N,00007.1721,E,0.10,333.49,051118,,,A*6E
$GPVTG,333.49,T,,M,0.10,N,0.19,K,A*3A
$GPGGA,103944.000,5211.9210,N,00007.1721,E,1,04,2.26,89.3,M,47.0,M,,*5B
$GPGSA,A,3,14,17,19,03,,,,,,,,,2.47,2.26,1.00*0C
$GPRMC,103944.000,A,5211.9210,N,00007.1721,E,0.26,335.63,051118,,,A*62
$GPVTG,335.63,T,,M,0.26,N,0.48,K,A*35
$GPGGA,103945.000,5211.9211,N,00007.1720,E,1,04,2.26,89.3,M,47.0,M,,*5A
$GPGSA,A,3,14,17,19,03,,,,,,,,,2.47,2.26,1.00*0C
$GPGSV,3,1,10,03,81,250,26,17,49,286,42,19,29,312,40,14,28,049,36*72
$GPGSV,3,2,10,39,25,149,,31,15,080,21,32,10,038,22,06,07,297,*73
$GPGSV,3,3,10,28,05,246,,09,05,198,*7B
$GPRMC,103945.000,A,5211.9211,N,00007.1720,E,0.38,323.27,051118,,,A*6B
$GPVTG,323.27,T,,M,0.38,N,0.70,K,A*36
$GPGGA,103946.000,5211.9212,N,00007.1719,E,1,04,2.26,89.3,M,47.0,M,,*50
$GPGSA,A,3,14,17,19,03,,,,,,,,,2.47,2.26,1.00*0C
$GPRMC,103946.000,A,5211.9212,N,00007.1719,E,0.28,4.83,051118,,,A*68
$GPVTG,4.83,T,,M,0.28,N,0.53,K,A*3E
$GPGGA,103947.000,5211.9213,N,00007.1719,E,1,04,17.97,89.3,M,47.0,M,,*6E
$GPGSA,A,3,14,17,19,03,,,,,,,,,29.29,17.97,23.13*31
$GPRMC,103947.000,A,5211.9213,N,00007.1719,E,0.19,17.92,051118,,,A*58
$GPVTG,17.92,T,,M,0.19,N,0.34,K,A*0F
$GPGGA,103948.000,5211.9213,N,00007.1719,E,1,04,2.26,89.3,M,47.0,M,,*5F
$GPGSA,A,3,14,17,19,03,,,,,,,,,2.47,2.26,1.00*0C
$GPRMC,103948.000,A,5211.9213,N,00007.1719,E,0.13,328.58,051118,,,A*64
$GPVTG,328.58,T,,M,0.13,N,0.25,K,A*3C
$GPGGA,103949.000,5211.9214,N,00007.1719,E,1,04,2.26,89.3,M,47.0,M,,*59
$GPGSA,A,3,14,17,19,03,,,,,,,,,2.47,2.26,1.00*0C
$GPRMC,103949.000,A,5211.9214,N,00007.1719,E,0.16,318.31,051118,,,A*6B
$GPVTG,318.31,T,,M,0.16,N,0.29,K,A*39
$GPGGA,103950.000,5211.9214,N,00007.1718,E,1,04,2.26,89.3,M,47.0,M,,*50
$GPGSA,A,3,14,17,19,03,,,,,,,,,2.47,2.26,1.00*0C
$GPGSV,3,1,10,03,81,250,27,17,49,286,42,19,29,312,40,14,28,049,36*73
$GPGSV,3,2,10,39,25,149,,31,15,080,22,32,10,038,21,06,07,297,*73
$GPGSV,3,3,10,28,05,246,,09,05,198,*7B
$GPRMC,103950.000,A,5211.9214,N,00007.1718,E,0.37,318.15,051118,,,A*67
$GPVTG,318.15,T,,M,0.37,N,0.69,K,A*38
$GPGGA,103951.000,5211.9215,N,00007.1717,E,1,04,2.26,89.3,M,47.0,M,,*5F
$GPGSA,A,3,14,17,19,03,,,,,,,,,2.47,2.26,1.00*0C
$GPRMC,103951.000,A,5211.9215,N,00007.1717,E,0.21,331.56,051118,,,A*63
$GPVTG,331.56,T,,M,0.21,N,0.38,K,A*37
$GPGGA,103952.000,5211.9215,N,00007.1717,E,1,04,2.26,89.3,M,47.0,M,,*5C
$GPGSA,A,3,14,17,19,03,,,,,,,,,2.47,2.26,1.00*0C
$GPRMC,103952.000,A,5211.9215,N,00007.1717,E,0.18,316.25,051118,,,A*6B
$GPVTG,316.25,T,,M,0.18,N,0.34,K,A*30
$GPGGA,103953.000,5211.9216,N,00007.1716,E,1,04,2.26,89.3,M,47.0,M,,*5F
$GPGSA,A,3,14,17,19,03,,,,,,,,,2.47,2.26,1.00*0C
$GPRMC,103953.000,A,5211.9216,N,00007.1716,E,0.27,343.97,051118,,,A*6D
$GPVTG,343.97,T,,M,0.27,N,0.50,K,A*37
$GPGGA,103954.000,5211.9216,N,00007.1716,E,1,04,2.26,89.3,M,47.0,M,,*58
$GPGSA,A,3,14,17,19,03,,,,,,,,,2.47,2.26,1.00*0C
$GPRMC,103954.000,A,5211.9216,N,00007.1716,E,0.32,356.63,051118,,,A*61
$GPVTG,356.63,T,,M,0.32,N,0.59,K,A*35
$GPGGA,103955.000,5211.9217,N,00007.1716,E,1,04,17.66,89.3,M,47.0,M,,*68
$GPGSA,A,3,14,17,19,03,,,,,,,,,28.76,17.66,22.70*30
$GPGSV,3,1,10,03,81,250,25,17,49,286,42,19,29,312,40,14,28,049,36*71
$GPGSV,3,2,10,31,15,080,22,32,10,038,23,06,07,297,,40,07,111,*72
$GPGSV,3,3,10,28,05,246,,09,05,198,*7B
$GPRMC,103955.000,A,5211.9217,N,00007.1716,E,0.25,332.14,051118,,,A*65
$GPVTG,332.14,T,,M,0.25,N,0.45,K,A*3C
$GPGGA,103956.000,5211.9218,N,00007.1715,E,1,04,2.26,89.3,M,47.0,M,,*57
$GPGSA,A,3,14,17,19,03,,,,,,,,,2.47,2.26,1.00*0C
$GPRMC,103956.000,A,5211.9218,N,00007.1715,E,0.20,291.93,051118,,,A*68
$GPVTG,291.93,T,,M,0.20,N,0.37,K,A*3B
$GPGGA,103957.000,5211.9218,N,00007.1714,E,1,04,2.26,89.3,M,47.0,M,,*57
$GPGSA,A,3,14,17,19,03,,,,,,,,,2.47,2.26,1.00*0C
$GPRMC,103957.000,A,5211.9218,N,00007.1714,E,0.20,331.93,051118,,,A*63
$GPVTG,331.93,T,,M,0.20,N,0.38,K,A*3F
$GPGGA,103958.000,5211.9219,N,00007.1714,E,1,04,2.26,89.3,M,47.0,M,,*59
$GPGSA,A,3,14,17,19,03,,,,,,,,,2.47,2.26,1.00*0C
$GPRMC,103958.000,A,5211.9219,N,00007.1714,E,0.35,306.48,051118,,,A*6B
$GPVTG,306.48,T,,M,0.35,N,0.65,K,A*31
$GPGGA,103959.000,5211.9219,N,00007.1713,E,1,04,2.26,89.3,M,47.0,M,,*5F
$GPGSA,A,3,14,17,19,03,,,,,,,,,2.47,2.26,1.00*0C
$GPRMC,103959.000,A,5211.9219,N,00007.1713,E,0.33,319.04,051118,,,A*6D
$GPVTG,319.04,T,,M,0.33,N,0.62,K,A*36
$GPGGA,104000.000,5211.9220,N,00007.1712,E,1,04,2.26,89.3,M,47.0,M,,*56
$GPGSA,A,3,14,17,19,03,,,,,,,,,2.47,2.26,1.00*0C
$GPGSV,3,1,10,03,81,250,23,17,49,286,42,19,29,312,40,14,28,049,35*74
$GPGSV,3,2,10,31,15,080,22,32,10,038,19,06,07,297,,40,07,111,*7B
$GPGSV,3,3,10,28,05,246,,09,05,198,*7B
$GPRMC,104000.000,A,5211.9220,N,00007.1712,E,0.22,296.11,051118,,,A*66
$GPVTG,296.11,T,,M,0.22,N,0.41,K,A*35
$GPGGA,104001.000,5211.9220,N,00007.1711,E,1,04,2.26,89.3,M,47.0,M,,*54
$GPGSA,A,3,14,17,19,03,,,,,,,,,2.47,2.26,1.00*0C
$GPRMC,104001.000,A,5211.9220,N,00007.1711,E,0.18,211.53,051118,,,A*64
$GPVTG,211.53,T,,M,0.18,N,0.34,K,A*37
$GPGGA,104002.000,5211.9219,N,00007.1710,E,1,04,2.26,89.3,M,47.0,M,,*5C
$GPGSA,A,3,14,17,19,03,,,,,,,,,2.47,2.26,1.00*0C
$GPRMC,104002.000,A,5211.9219,N,00007.1710,E,0.22,156.31,051118,,,A*61
$GPVTG,156.31,T,,M,0.22,N,0.41,K,A*38
$GPGGA,104003.000,5211.9219,N,00007.1711,E,1,04,2.26,89.3,M,47.0,M,,*5C
$GPGSA,A,3,14,17,19,03,,,,,,,,,2.47,2.26,1.00*0C
$GPRMC,104003.000,A,5211.9219,N,00007.1711,E,0.31,168.97,051118,,,A*62
$GPVTG,168.97,T,,M,0.31,N,0.58,K,A*33
$GPGGA,104004.000,5211.9218,N,00007.1711,E,1,03,3.67,89.3,M,47.0,M,,*59
$GPGSA,A,2,14,17,19,,,,,,,,,,3.81,3.67,1.00*01
$GPRMC,104004.000,A,5211.9218,N,00007.1711,E,0.21,159.55,051118,,,A*69
$GPVTG,159.55,T,,M,0.21,N,0.39,K,A*39
$GPGGA,104005.000,5211.9217,N,00007.1711,E,1,03,3.67,89.3,M,47.0,M,,*57
$GPGSA,A,2,14,17,19,,,,,,,,,,3.81,3.67,1.00*01
$GPGSV,3,1,10,03,81,250,21,17,49,286,42,19,29,312,40,14,28,049,35*76
$GPGSV,3,2,10,31,15,080,22,32,10,038,19,06,07,297,18,09,06,198,*7F
$GPGSV,3,3,10,44,06,109,,28,05,246,*79
$GPRMC,104005.000,A,5211.9217,N,00007.1711,E,0.24,178.22,051118,,,A*61
$GPVTG,178.22,T,,M,0.24,N,0.44,K,A*35
$GPGGA,104006.000,5211.9217,N,00007.1712,E,1,03,3.67,89.3,M,47.0,M,,*57
$GPGSA,A,2,14,17,19,,,,,,,,,,3.81,3.67,1.00*01
$GPRMC,104006.000,A,5211.9217,N,00007.1712,E,0.41,174.66,051118,,,A*6E
$GPVTG,174.66,T,,M,0.41,N,0.76,K,A*3B
$GPGGA,104007.000,5211.9216,N,00007.1712,E,1,04,2.26,89.3,M,47.0,M,,*54
$GPGSA,A,3,14,17,19,03,,,,,,,,,2.47,2.26,1.00*0C
$GPRMC,104007.000,A,5211.9216,N,00007.1712,E,0.32,183.97,051118,,,A*6C
$GPVTG,183.97,T,,M,0.32,N,0.59,K,A*34
$GPGGA,104008.000,5211.9215,N,00007.1712,E,1,03,3.67,89.3,M,47.0,M,,*5B
$GPGSA,A,2,14,17,19,,,,,,,,,,3.80,3.67,1.00*00
$GPRMC,104008.000,A,5211.9215,N,00007.1712,E,0.19,196.18,051118,,,A*6A
$GPVTG,196.18,T,,M,0.19,N,0.35,K,A*34
$GPGGA,104009.000,5211.9214,N,00007.1711,E,1,04,2.26,89.3,M,47.0,M,,*5B
$GPGSA,A,3,14,17,19,03,,,,,,,,,2.47,2.26,1.00*0C
$GPRMC,104009.000,A,5211.9214,N,00007.1711,E,0.32,202.59,051118,,,A*6B
$GPVTG,202.59,T,,M,0.32,N,0.59,K,A*3C
$GPGGA,104010.000,5211.9213,N,00007.1711,E,1,04,2.26,89.3,M,47.0,M,,*54
$GPGSA,A,3,14,17,19,03,,,,,,,,,2.47,2.26,1.00*0C
$GPGSV,3,1,10,03,81,250,21,17,49,286,42,19,29,312,41,14,28,049,35*77
$GPGSV,3,2,10,31,15,080,20,32,10,038,20,06,07,297,19,09,06,198,*76
$GPGSV,3,3,10,44,06,109,,28,05,246,*79
$GPRMC,104010.000,A,5211.9213,N,00007.1711,E,0.43,193.99,051118,,,A*65
$GPVTG,193.99,T,,M,0.43,N,0.79,K,A*3F
$GPGGA,104011.000,5211.9212,N,00007.1710,E,1,03,3.67,89.3,M,47.0,M,,*56
$GPGSA,A,2,14,17,19,,,,,,,,,,3.81,3.67,1.00*01
$GPRMC,104011.000,A,5211.9212,N,00007.1710,E,0.34,203.09,051118,,,A*67
$GPVTG,203.09,T,,M,0.34,N,0.62,K,A*36
$GPGGA,104012.000,5211.9211,N,00007.1710,E,1,03,3.67,89.3,M,47.0,M,,*56
$GPGSA,A,2,14,17,19,,,,,,,,,,3.80,3.67,1.00*00
$GPRMC,104012.000,A,5211.9211,N,00007.1710,E,0.04,299.58,051118,,,A*63
$GPVTG,299.58,T,,M,0.04,N,0.07,K,A*31
$GPGGA,104013.000,5211.9211,N,00007.1710,E,1,03,3.67,89.3,M,47.0,M,,*57
$GPGSA,A,2,14,17,19,,,,,,,,,,3.80,3.67,1.00*00
$GPRMC,104013.000,A,5211.9211,N,00007.1710,E,0.15,256.89,051118,,,A*6D
$GPVTG,256.89,T,,M,0.15,N,0.29,K,A*32
$GPGGA,104014.000,5211.9211,N,00007.1709,E,1,03,3.67,89.3,M,47.0,M,,*58
$GPGSA,A,2,14,17,19,,,,,,,,,,3.80,3.67,1.00*00
$GPRMC,104014.000,A,5211.9211,N,00007.1709,E,0.12,226.63,051118,,,A*66
$GPVTG,226.63,T,,M,0.12,N,0.22,K,A*3D
$GPGGA,104015.000,5211.9211,N,00007.1708,E,1,04,2.26,89.3,M,47.0,M,,*5B
$GPGSA,A,3,14,17,19,03,,,,,,,,,2.47,2.26,1.00*0C
$GPGSV,3,1,11,03,81,250,20,17,49,286,42,11,40,152,,19,29,312,41*71
$GPGSV,3,2,11,14,28,049,35,33,28,199,,31,15,080,19,32,10,038,21*79
$GPGSV,3,3,11,06,07,297,18,09,06,198,,28,05,246,16*4A
$GPRMC,104015.000,A,5211.9211,N,00007.1708,E,0.09,125.52,051118,,,A*6E
$GPVTG,125.52,T,,M,0.09,N,0.16,K,A*32
$GPGGA,104016.000,5211.9211,N,00007.1709,E,1,04,2.26,89.3,M,47.0,M,,*59
$GPGSA,A,3,14,17,19,03,,,,,,,,,2.48,2.26,1.00*03
$GPRMC,104016.000,A,5211.9211,N,00007.1709,E,0.15,94.62,051118,,,A*59
$GPVTG,94.62,T,,M,0.15,N,0.28,K,A*0A
$GPGGA,104017.000,5211.9211,N,00007.1709,E,1,04,2.26,89.3,M,47.0,M,,*58
$GPGSA,A,3,14,17,19,03,,,,,,,,,2.47,2.26,1.00*0C
$GPRMC,104017.000,A,5211.9211,N,00007.1709,E,0.24,70.24,051118,,,A*52
$GPVTG,70.24,T,,M,0.24,N,0.45,K,A*0B
$GPGGA,104018.000,5211.9211,N,00007.1710,E,1,04,2.27,89.3,M,47.0,M,,*5E
$GPGSA,A,3,14,17,19,03,,,,,,,,,2.48,2.27,1.00*02
$GPRMC,104018.000,A,5211.9211,N,00007.1710,E,0.17,55.90,051118,,,A*5D
$GPVTG,55.90,T,,M,0.17,N,0.32,K,A*03
$GPGGA,104019.000,5211.9211,N,00007.1711,E,1,04,2.26,89.3,M,47.0,M,,*5F
$GPGSA,A,3,14,17,19,03,,,,,,,,,2.47,2.26,1.00*0C
$GPRMC,104019.000,A,5211.9211,N,00007.1711,E,0.08,14.81,051118,,,A*56
$GPVTG,14.81,T,,M,0.08,N,0.16,K,A*0E
$GPGGA,104020.000,5211.9212,N,00007.1711,E,1,04,16.75,89.3,M,47.0,M,,*65
$GPGSA,A,3,14,17,19,03,,,,,,,,,27.23,16.75,21.47*3B
$GPGSV,3,1,11,03,81,250,23,17,49,286,42,11,40,152,,19,29,312,41*72
$GPGSV,3,2,11,14,28,049,35,33,28,199,,31,15,080,18,32,10,038,21*78
$GPGSV,3,3,11,06,07,297,20,09,06,198,,28,05,246,17*40
$GPRMC,104020.000,A,5211.9212,N,00007.1711,E,0.09,71.70,051118,,,A*53
$GPVTG,71.70,T,,M,0.09,N,0.17,K,A*03
$GPGGA,104021.000,5211.9212,N,00007.1712,E,1,04,2.26,89.3,M,47.0,M,,*54
$GPGSA,A,3,14,17,19,03,,,,,,,,,2.47,2.26,1.00*0C
$GPRMC,104021.000,A,5211.9212,N,00007.1712,E,0.09,169.24,051118,,,A*68
$GPVTG,169.24,T,,M,0.09,N,0.16,K,A*3B
$GPGGA,104022.000,5211.9211,N,00007.1712,E,1,04,2.26,89.3,M,47.0,M,,*54
$GPGSA,A,3,14,17,19,03,,,,,,,,,2.47,2.26,1.00*0C
$GPRMC,104022.000,A,5211.9211,N,00007.1712,E,0.05,147.64,051118,,,A*6C
$GPVTG,147.64,T,,M,0.05,N,0.09,K,A*31
$GPGGA,104023.000,5211.9211,N,00007.1712,E,1,04,2.27,89.3,M,47.0,M,,*54
$GPGSA,A,3,14,17,19,03,,,,,,,,,2.48,2.27,1.00*02
$GPRMC,104023.000,A,5211.9211,N,00007.1712,E,0.17,160.02,051118,,,A*6B
$GPVTG,160.02,T,,M,0.17,N,0.32,K,A*3F
$GPGGA,104024.000,5211.9211,N,00007.1712,E,1,04,2.27,89.3,M,47.0,M,,*53
$GPGSA,A,3,14,17,19,03,,,,,,,,,2.48,2.27,1.00*02
$GPRMC,104024.000,A,5211.9211,N,00007.1712,E,0.23,186.81,051118,,,A*68
$GPVTG,186.81,T,,M,0.23,N,0.42,K,A*3C
$GPGGA,104025.000,5211.9210,N,00007.1712,E,1,04,2.27,89.3,M,47.0,M,,*53
$GPGSA,A,3,14,17,19,03,,,,,,,,,2.48,2.27,1.00*02
$GPGSV,3,1,11,03,81,250,23,17,49,286,41,11,40,152,24,19,29,312,41*77
$GPGSV,3,2,11,14,28,049,35,37,27,153,,31,15,080,18,32,10,038,20*74
$GPGSV,3,3,11,06,07,297,20,09,06,198,,28,04,245,17*42
$GPRMC,104025.000,A,5211.9210,N,00007.1712,E,0.19,165.57,051118,,,A*67
$GPVTG,165.57,T,,M,0.19,N,0.35,K,A*33
$GPGGA,104026.000,5211.9210,N,00007.1712,E,1,04,2.27,89.3,M,47.0,M,,*50
$GPGSA,A,3,14,17,19,03,,,,,,,,,2.48,2.27,1.00*02
$GPRMC,104026.000,A,5211.9210,N,00007.1712,E,0.19,150.11,051118,,,A*60
$GPVTG,150.11,T,,M,0.19,N,0.35,K,A*37
$GPGGA,104027.000,5211.9209,N,00007.1712,E,1,04,2.27,89.3,M,47.0,M,,*59
$GPGSA,A,3,14,17,19,03,,,,,,,,,2.48,2.27,1.00*02
$GPRMC,104027.000,A,5211.9209,N,00007.1712,E,0.35,180.84,051118,,,A*66
$GPVTG,180.84,T,,M,0.35,N,0.65,K,A*3D
$GPGGA,104028.000,5211.9208,N,00007.1712,E,1,04,2.27,89.3,M,47.0,M,,*57
$GPGSA,A,3,14,17,19,03,,,,,,,,,2.48,2.27,1.00*02
$GPRMC,104028.000,A,5211.9208,N,00007.1712,E,0.26,157.79,051118,,,A*62
$GPVTG,157.79,T,,M,0.26,N,0.47,K,A*37
$GPGGA,104029.000,5211.9207,N,00007.1713,E,1,04,2.27,89.3,M,47.0,M,,*58
$GPGSA,A,3,14,17,19,03,,,,,,,,,2.48,2.27,1.00*02
$GPRMC,104029.000,A,5211.9207,N,00007.1713,E,0.05,163.07,051118,,,A*62
$GPVTG,163.07,T,,M,0.05,N,0.10,K,A*3A
$GPGGA,104030.000,5211.9207,N,00007.1713,E,1,04,2.27,89.3,M,47.0,M,,*50
$GPGSA,A,3,14,17,19,03,,,,,,,,,2.48,2.27,1.00*02
$GPGSV,3,1,11,03,81,250,23,17,49,286,41,11,40,152,23,19,29,312,41*70
$GPGSV,3,2,11,14,28,049,35,37,27,153,,31,15,080,18,32,10,038,21*75
$GPGSV,3,3,11,06,07,297,18,09,06,198,,28,04,245,17*49
$GPRMC,104030.000,A,5211.9207,N,00007.1713,E,0.09,118.25,051118,,,A*6A
$GPVTG,118.25,T,,M,0.09,N,0.16,K,A*3C
$GPGGA,104031.000,5211.9207,N,00007.1713,E,1,04,2.27,89.3,M,47.0,M,,*51
$GPGSA,A,3,14,17,19,03,,,,,,,,,2.48,2.27,1.00*02
$GPRMC,104031.000,A,5211.9207,N,00007.1713,E,0.19,168.55,051118,,,A*6A
$GPVTG,168.55,T,,M,0.19,N,0.35,K,A*3C
$GPGGA,104032.000,5211.9207,N,00007.1713,E,1,04,2.27,89.3,M,47.0,M,,*52
$GPGSA,A,3,14,17,19,03,,,,,,,,,2.48,2.27,1.00*02
$GPRMC,104032.000,A,5211.9207,N,00007.1713,E,0.15,165.32,051118,,,A*69
$GPVTG,165.32,T,,M,0.15,N,0.28,K,A*30
$GPGGA,104033.000,5211.9206,N,00007.1714,E,1,04,2.27,89.3,M,47.0,M,,*55
$GPGSA,A,3,14,17,19,03,,,,,,,,,2.48,2.27,1.00*02
$GPRMC,104033.000,A,5211.9206,N,00007.1714,E,0.06,131.36,051118,,,A*69
$GPVTG,131.36,T,,M,0.06,N,0.11,K,A*3D
$GPGGA,104034.000,5211.9206,N,00007.1714,E,1,04,2.27,89.3,M,47.0,M,,*52
$GPGSA,A,3,14,17,19,03,,,,,,,,,2.48,2.27,1.00*02
$GPRMC,104034.000,A,5211.9206,N,00007.1714,E,0.17,164.82,051118,,,A*61
$GPVTG,164.82,T,,M,0.17,N,0.31,K,A*30
$GPGGA,104035.000,5211.9206,N,00007.1714,E,1,04,2.27,89.3,M,47.0,M,,*53
$GPGSA,A,3,14,17,19,03,,,,,,,,,2.48,2.27,1.00*02
$GPGSV,3,1,11,03,81,250,23,17,49,286,41,11,40,152,21,19,29,312,40*73
$GPGSV,3,2,11,14,28,049,35,39,25,149,,31,15,080,16,32,10,038,22*7F
$GPGSV,3,3,11,06,07,297,16,09,06,198,,28,04,245,17*47
$GPRMC,104035.000,A,5211.9206,N,00007.1714,E,0.33,179.71,051118,,,A*66
$GPVTG,179.71,T,,M,0.33,N,0.62,K,A*30
$GPGGA,104036.000,5211.9205,N,00007.1714,E,1,04,2.27,89.3,M,47.0,M,,*53
$GPGSA,A,3,14,17,19,03,,,,,,,,,2.48,2.27,1.00*02
$GPRMC,104036.000,A,5211.9205,N,00007.1714,E,0.48,184.71,051118,,,A*68
$GPVTG,184.71,T,,M,0.48,N,0.88,K,A*3A
$GPGGA,104037.000,5211.9203,N,00007.1714,E,1,04,2.27,89.3,M,47.0,M,,*54
$GPGSA,A,3,14,17,19,03,,,,,,,,,2.48,2.27,1.00*02
$GPRMC,104037.000,A,5211.9203,N,00007.1714,E,0.30,177.26,051118,,,A*6E
$GPVTG,177.26,T,,M,0.30,N,0.55,K,A*3B
$GPGGA,104038.000,5211.9203,N,00007.1714,E,1,04,2.27,89.3,M,47.0,M,,*5B
$GPGSA,A,3,14,17,19,03,,,,,,,,,2.48,2.27,1.00*02
$GPRMC,104038.000,A,5211.9203,N,00007.1714,E,0.13,209.27,051118,,,A*6B
$GPVTG,209.27,T,,M,0.13,N,0.24,K,A*37
$GPGGA,104039.000,5211.9202,N,00007.1714,E,1,03,3.66,89.3,M,47.0,M,,*58
$GPGSA,A,2,14,17,19,,,,,,,,,,3.80,3.66,1.00*01
$GPRMC,104039.000,A,5211.9202,N,00007.1714,E,0.22,173.39,051118,,,A*68
$GPVTG,173.39,T,,M,0.22,N,0.42,K,A*34
$GPGGA,104040.000,5211.9202,N,00007.1714,E,1,03,3.66,89.3,M,47.0,M,,*56
$GPGSA,A,2,14,17,19,,,,,,,,,,3.80,3.66,1.00*01
$GPGSV,3,1,11,03,81,250,20,17,49,286,41,11,40,152,19,19,29,312,40*7B
$GPGSV,3,2,11,14,28,049,35,39,25,149,,31,15,080,16,32,10,038,24*79
$GPGSV,3,3,11,06,08,298,16,09,06,198,,28,04,245,17*47
$GPRMC,104040.000,A,5211.9202,N,00007.1714,E,0.10,254.96,051118,,,A*64
$GPVTG,254.96,T,,M,0.10,N,0.19,K,A*38
$GPGGA,104041.000,5211.9202,N,00007.1713,E,1,04,2.27,89.3,M,47.0,M,,*53
$GPGSA,A,3,14,17,19,03,,,,,,,,,2.48,2.27,1.00*02
$GPRMC,104041.000,A,5211.9202,N,00007.1713,E,0.13,217.15,051118,,,A*6D
$GPVTG,217.15,T,,M,0.13,N,0.24,K,A*39
$GPGGA,104042.000,5211.9201,N,00007.1713,E,1,04,2.27,89.3,M,47.0,M,,*53
$GPGSA,A,3,14,17,19,03,,,,,,,,,2.48,2.27,1.00*02
$GPRMC,104042.000,A,5211.9201,N,00007.1713,E,0.18,216.21,051118,,,A*60
$GPVTG,216.21,T,,M,0.18,N,0.33,K,A*32
$GPGGA,104043.000,5211.9201,N,00007.1712,E,1,04,2.27,89.3,M,47.0,M,,*53
$GPGSA,A,3,14,17,19,03,,,,,,,,,2.48,2.27,1.00*02
$GPRMC,104043.000,A,5211.9201,N,00007.1712,E,0.11,133.09,051118,,,A*67
$GPVTG,133.09,T,,M,0.11,N,0.20,K,A*37
$GPGGA,104044.000,5211.9201,N,00007.1713,E,1,04,2.27,89.3,M,47.0,M,,*55
$GPGSA,A,3,14,17,19,03,,,,,,,,,2.48,2.27,1.00*02
$GPRMC,104044.000,A,5211.9201,N,00007.1713,E,0.24,167.41,051118,,,A*6A
$GPVTG,167.41,T,,M,0.24,N,0.45,K,A*3F
$GPGGA,104045.000,5211.9200,N,00007.1713,E,1,04,2.27,89.3,M,47.0,M,,*55
$GPGSA,A,3,14,17,19,03,,,,,,,,,2.48,2.27,1.00*02
$GPGSV,3,1,12,03,81,250,20,17,49,286,41,11,39,152,18,19,29,312,39*79
$GPGSV,3,2,12,14,28,049,35,31,15,080,16,32,10,038,24,06,08,298,15*72
$GPGSV,3,3,12,40,07,111,,09,06,198,,28,04,245,17,12,03,355,*7F
$GPRMC,104045.000,A,5211.9200,N,00007.1713,E,0.19,139.74,051118,,,A*69
$GPVTG,139.74,T,,M,0.19,N,0.34,K,A*3A
$GPGGA,104046.000,5211.9200,N,00007.1713,E,1,04,2.27,89.3,M,47.0,M,,*56
$GPGSA,A,3,14,17,19,03,,,,,,,,,2.48,2.27,1.00*02
$GPRMC,104046.000,A,5211.9200,N,00007.1713,E,0.14,89.04,051118,,,A*5A
$GPVTG,89.04,T,,M,0.14,N,0.25,K,A*0A
$GPGGA,104047.000,5211.9200,N,00007.1714,E,1,04,2.27,89.3,M,47.0,M,,*50
$GPGSA,A,3,14,17,19,03,,,,,,,,,2.48,2.27,1.00*02
$GPRMC,104047.000,A,5211.9200,N,00007.1714,E,0.16,160.28,051118,,,A*66
$GPVTG,160.28,T,,M,0.16,N,0.29,K,A*3C
$GPGGA,104048.000,5211.9199,N,00007.1714,E,1,04,2.27,89.3,M,47.0,M,,*5C
$GPGSA,A,3,14,17,19,03,,,,,,,,,2.48,2.27,1.00*02
$GPRMC,104048.000,A,5211.9199,N,00007.1714,E,0.09,195.04,051118,,,A*60
$GPVTG,195.04,T,,M,0.09,N,0.16,K,A*3A
$GPGGA,104049.000,5211.9199,N,00007.1714,E,1,04,2.27,89.3,M,47.0,M,,*5D
$GPGSA,A,3,14,17,19,03,,,,,,,,,2.48,2.27,1.00*02
$GPRMC,104049.000,A,5211.9199,N,00007.1714,E,0.08,238.83,051118,,,A*6B
$GPVTG,238.83,T,,M,0.08,N,0.15,K,A*33
$GPGGA,104050.000,5211.9199,N,00007.1714,E,1,04,2.27,89.3,M,47.0,M,,*55
$GPGSA,A,3,14,17,19,03,,,,,,,,,2.48,2.27,1.00*02
$GPGSV,3,1,12,03,81,250,20,17,49,285,41,11,39,152,15,19,29,312,39*77
$GPGSV,3,2,12,14,28,048,34,31,15,080,16,32,10,038,25,06,08,298,13*75
$GPGSV,3,3,12,09,06,198,,44,06,109,,28,04,245,17,12,03,355,*73
$GPRMC,104050.000,A,5211.9199,N,00007.1714,E,0.05,262.58,051118,,,A*67
$GPVTG,262.58,T,,M,0.05,N,0.09,K,A*3A
$GPGGA,104051.000,5211.9199,N,00007.1714,E,1,04,2.27,89.3,M,47.0,M,,*54
$GPGSA,A,3,14,17,19,03,,,,,,,,,2.48,2.27,1.00*02
$GPRMC,104051.000,A,5211.9199,N,00007.1714,E,0.12,352.57,051118,,,A*6D
$GPVTG,352.57,T,,M,0.12,N,0.22,K,A*38
$GPGGA,104052.000,5211.9200,N,00007.1714,E,1,04,15.72,89.3,M,47.0,M,,*62
$GPGSA,A,3,14,17,19,03,,,,,,,,,25.50,15.72,20.08*33
$GPRMC,104052.000,A,5211.9200,N,00007.1714,E,0.21,312.29,051118,,,A*60
$GPVTG,312.29,T,,M,0.21,N,0.39,K,A*3F
$GPGGA,104053.000,5211.9200,N,00007.1713,E,1,04,2.27,89.3,M,47.0,M,,*52
$GPGSA,A,3,14,17,19,03,,,,,,,,,2.48,2.27,1.00*02
$GPRMC,104053.000,A,5211.9200,N,00007.1713,E,0.34,331.42,051118,,,A*6E
$GPVTG,331.42,T,,M,0.34,N,0.62,K,A*39
$GPGGA,104054.000,5211.9201,N,00007.1712,E,1,04,2.27,89.3,M,47.0,M,,*55
$GPGSA,A,3,14,17,19,03,,,,,,,,,2.48,2.27,1.00*02
$GPRMC,104054.000,A,5211.9201,N,00007.1712,E,0.19,299.82,051118,,,A*69
$GPVTG,299.82,T,,M,0.19,N,0.35,K,A*3B
$GPGGA,104055.000,5211.9201,N,00007.1711,E,1,04,2.27,89.3,M,47.0,M,,*57
$GPGSA,A,3,14,17,19,03,,,,,,,,,2.48,2.27,1.00*02
$GPGSV,3,1,12,03,81,250,23,17,49,285,41,11,39,152,16,19,29,312,39*77
$GPGSV,3,2,12,14,28,048,34,31,15,080,,32,10,038,25,06,08,298,12*73
$GPGSV,3,3,12,09,06,198,,44,06,109,,28,04,245,17,12,03,355,*73
$GPRMC,104055.000,A,5211.9201,N,00007.1711,E,0.21,304.17,051118,,,A*69
$GPVTG,304.17,T,,M,0.21,N,0.39,K,A*35
$GPGGA,104056.000,5211.9201,N,00007.1711,E,1,04,2.27,89.3,M,47.0,M,,*54
$GPGSA,A,3,14,17,19,03,,,,,,,,,2.48,2.27,1.00*02
$GPRMC,104056.000,A,5211.9201,N,00007.1711,E,0.16,286.31,051118,,,A*61
$GPVTG,286.31,T,,M,0.16,N,0.29,K,A*3F
$GPGGA,104057.000,5211.9202,N,00007.1710,E,1,04,2.27,89.3,M,47.0,M,,*57
$GPGSA,A,3,14,17,19,03,,,,,,,,,2.48,2.27,1.00*02
$GPRMC,104057.000,A,5211.9202,N,00007.1710,E,0.16,345.95,051118,,,A*62
$GPVTG,345.95,T,,M,0.16,N,0.30,K,A*37
$GPGGA,104058.000,5211.9202,N,00007.1710,E,1,04,15.53,89.3,M,47.0,M,,*6D
$GPGSA,A,3,14,17,19,03,,,,,,,,,25.19,15.53,19.83*34
$GPRMC,104058.000,A,5211.9202,N,00007.1710,E,0.03,126.52,051118,,,A*65
$GPVTG,126.52,T,,M,0.03,N,0.06,K,A*3A
$GPGGA,104059.000,5211.9202,N,00007.1710,E,1,04,2.27,89.3,M,47.0,M,,*59
$GPGSA,A,3,14,17,19,03,,,,,,,,,2.48,2.27,1.00*02
$GPRMC,104059.000,A,5211.9202,N,00007.1710,E,0.08,247.92,051118,,,A*67
$GPVTG,247.92,T,,M,0.08,N,0.14,K,A*3A
$GPGGA,104100.000,5211.9202,N,00007.1710,E,1,04,2.27,89.3,M,47.0,M,,*54
$GPGSA,A,3,14,17,19,03,,,,,,,,,2.48,2.27,1.00*02
$GPGSV,3,1,12,03,81,250,25,17,49,285,42,11,39,152,16,19,29,312,38*73
$GPGSV,3,2,12,14,28,048,34,31,15,080,,32,10,038,25,06,08,298,*70
$GPGSV,3,3,12,09,06,198,,28,04,245,17,12,03,355,,34,,,*4A
$GPRMC,104100.000,A,5211.9202,N,00007.1710,E,0.27,188.87,051118,,,A*63
$GPVTG,188.87,T,,M,0.27,N,0.49,K,A*3B
$GPGGA,104101.000,5211.9201,N,00007.1709,E,1,05,2.12,89.3,M,47.0,M,,*59
$GPGSA,A,3,32,14,17,19,03,,,,,,,,2.34,2.12,0.99*0F
$GPRMC,104101.000,A,5211.9201,N,00007.1709,E,0.07,129.10,051118,,,A*6E
$GPVTG,129.10,T,,M,0.07,N,0.14,K,A*34
$GPGGA,104102.000,5211.9201,N,00007.1710,E,1,05,2.12,89.3,M,47.0,M,,*52
$GPGSA,A,3,32,14,17,19,03,,,,,,,,2.34,2.12,0.99*0F
$GPRMC,104102.000,A,5211.9201,N,00007.1710,E,0.10,65.21,051118,,,A*58
$GPVTG,65.21,T,,M,0.10,N,0.18,K,A*05
$GPGGA,104103.000,5211.9201,N,00007.1710,E,1,05,2.12,89.3,M,47.0,M,,*53
$GPGSA,A,3,32,14,17,19,03,,,,,,,,2.34,2.12,0.99*0F
$GPRMC,104103.000,A,5211.9201,N,00007.1710,E,0.10,29.58,051118,,,A*5F
$GPVTG,29.58,T,,M,0.10,N,0.18,K,A*03
$GPGGA,104104.000,5211.9201,N,00007.1710,E,1,05,2.12,89.3,M,47.0,M,,*54
$GPGSA,A,3,32,14,17,19,03,,,,,,,,2.34,2.12,0.99*0F
$GPRMC,104104.000,A,5211.9201,N,00007.1710,E,0.20,330.83,051118,,,A*66
$GPVTG,330.83,T,,M,0.20,N,0.37,K,A*30
$GPGGA,104105.000,5211.9202,N,00007.1710,E,1,05,2.12,89.3,M,47.0,M,,*56
$GPGSA,A,3,32,14,17,19,03,,,,,,,,2.34,2.12,0.99*0F
$GPGSV,3,1,12,03,81,250,26,17,49,285,42,11,39,152,16,19,29,312,38*70
$GPGSV,3,2,12,14,28,048,33,31,15,079,16,32,09,038,22,06,08,298,*79
$GPGSV,3,3,12,09,06,198,,28,04,245,16,12,03,355,,34,,,*4B
$GPRMC,104105.000,A,5211.9202,N,00007.1710,E,0.31,279.76,051118,,,A*62
$GPVTG,279.76,T,,M,0.31,N,0.57,K,A*30
$GPGGA,104106.000,5211.9202,N,00007.1709,E,1,05,2.12,89.3,M,47.0,M,,*5D
$GPGSA,A,3,32,14,17,19,03,,,,,,,,2.34,2.12,0.99*0F
$GPRMC,104106.000,A,5211.9202,N,00007.1709,E,0.21,339.24,051118,,,A*6A
$GPVTG,339.24,T,,M,0.21,N,0.39,K,A*3B
$GPGGA,104107.000,5211.9202,N,00007.1708,E,1,05,2.12,89.3,M,47.0,M,,*5D
$GPGSA,A,3,32,14,17,19,03,,,,,,,,2.34,2.12,0.99*0F
$GPRMC,104107.000,A,5211.9202,N,00007.1708,E,0.17,204.59,051118,,,A*6A
$GPVTG,204.59,T,,M,0.17,N,0.31,K,A*33
$GPGGA,104108.000,5211.9202,N,00007.1708,E,1,05,2.12,89.3,M,47.0,M,,*52
$GPGSA,A,3,32,14,17,19,03,,,,,,,,2.34,2.12,0.99*0F
$GPRMC,104108.000,A,5211.9202,N,00007.1708,E,0.09,231.62,051118,,,A*64
$GPVTG,231.62,T,,M,0.09,N,0.17,K,A*36
$GPGGA,104109.000,5211.9202,N,00007.1708,E,1,05,2.12,89.3,M,47.0,M,,*53
$GPGSA,A,3,32,14,17,19,03,,,,,,,,2.34,2.12,0.99*0F
$GPRMC,104109.000,A,5211.9202,N,00007.1708,E,0.11,177.09,051118,,,A*60
$GPVTG,177.09,T,,M,0.11,N,0.21,K,A*36
$GPGGA,104110.000,5211.9202,N,00007.1708,E,1,05,2.12,89.3,M,47.0,M,,*5B
$GPGSA,A,3,32,14,17,19,03,,,,,,,,2.34,2.12,0.99*0F
$GPGSV,3,1,12,03,81,251,27,17,49,285,41,11,39,152,,19,29,312,39*75
$GPGSV,3,2,12,14,28,048,33,31,15,079,18,32,09,038,23,06,08,298,*76
$GPGSV,3,3,12,09,06,198,,28,04,245,15,12,03,355,,35,,,*49
$GPRMC,104110.000,A,5211.9202,N,00007.1708,E,0.15,228.86,051118,,,A*62
$GPVTG,228.86,T,,M,0.15,N,0.27,K,A*3A
$GPGGA,104111.000,5211.9201,N,00007.1707,E,1,05,2.12,89.3,M,47.0,M,,*56
$GPGSA,A,3,32,14,17,19,03,,,,,,,,2.34,2.12,0.99*0F
$GPRMC,104111.000,A,5211.9201,N,00007.1707,E,0.18,204.95,051118,,,A*6E
$GPVTG,204.95,T,,M,0.18,N,0.33,K,A*3E
$GPGGA,104112.000,5211.9201,N,00007.1707,E,1,05,2.12,89.2,M,47.0,M,,*54
$GPGSA,A,3,32,14,17,19,03,,,,,,,,2.34,2.12,0.99*0F
$GPRMC,104112.000,A,5211.9201,N,00007.1707,E,0.05,311.52,051118,,,A*6F
$GPVTG,311.52,T,,M,0.05,N,0.09,K,A*35
$GPGGA,104113.000,5211.9201,N,00007.1707,E,1,05,2.12,89.2,M,47.0,M,,*55
$GPGSA,A,3,32,14,17,19,03,,,,,,,,2.34,2.12,0.99*0F
$GPRMC,104113.000,A,5211.9201,N,00007.1707,E,0.10,49.84,051118,,,A*5F
$GPVTG,49.84,T,,M,0.10,N,0.19,K,A*05
$GPGGA,104114.000,5211.9201,N,00007.1707,E,1,05,2.12,89.2,M,47.0,M,,*52
$GPGSA,A,3,32,14,17,19,03,,,,,,,,2.34,2.12,0.99*0F
$GPRMC,104114.000,A,5211.9201,N,00007.1707,E,0.11,359.69,051118,,,A*68
$GPVTG,359.69,T,,M,0.11,N,0.20,K,A*3F
$GPGGA,104115.000,5211.9202,N,00007.1707,E,1,05,7.42,89.2,M,47.0,M,,*50
$GPGSA,A,3,32,14,17,19,03,,,,,,,,11.09,7.42,8.24*3D
$GPGSV,3,1,12,03,81,251,29,17,49,285,41,11,39,152,,19,29,312,39*7B
$GPGSV,3,2,12,14,28,048,33,31,15,079,17,32,09,038,22,06,08,298,*78
$GPGSV,3,3,12,09,06,198,,28,04,245,14,12,03,355,,36,,,*4B
$GPRMC,104115.000,A,5211.9202,N,00007.1707,E,0.28,318.48,051118,,,A*66
$GPVTG,318.48,T,,M,0.28,N,0.52,K,A*36
$GPGGA,104116.000,5211.9202,N,00007.1706,E,1,05,2.12,89.2,M,47.0,M,,*52
$GPGSA,A,3,32,14,17,19,03,,,,,,,,2.34,2.12,0.99*0F
$GPRMC,104116.000,A,5211.9202,N,00007.1706,E,0.23,284.45,051118,,,A*66
$GPVTG,284.45,T,,M,0.23,N,0.42,K,A*35
$GPGGA,104117.000,5211.9203,N,00007.1705,E,1,05,2.12,89.2,M,47.0,M,,*51
$GPGSA,A,3,32,14,17,19,03,,,,,,,,2.34,2.12,0.99*0F
$GPRMC,104117.000,A,5211.9203,N,00007.1705,E,0.23,293.18,051118,,,A*6B
$GPVTG,293.18,T,,M,0.23,N,0.42,K,A*3B
$GPGGA,104118.000,5211.9203,N,00007.1704,E,1,05,2.12,89.2,M,47.0,M,,*5F
$GPGSA,A,3,32,14,17,19,03,,,,,,,,2.34,2.12,0.99*0F
$GPRMC,104118.000,A,5211.9203,N,00007.1704,E,0.35,310.46,051118,,,A*63
$GPVTG,310.46,T,,M,0.35,N,0.66,K,A*3B
$GPGGA,104119.000,5211.9204,N,00007.1703,E,1,05,2.12,89.2,M,47.0,M,,*5E
$GPGSA,A,3,32,14,17,19,03,,,,,,,,2.34,2.12,0.99*0F
$GPRMC,104119.000,A,5211.9204,N,00007.1703,E,0.26,291.28,051118,,,A*60
$GPVTG,291.28,T,,M,0.26,N,0.48,K,A*35
$GPGGA,104120.000,5211.9204,N,00007.1702,E,1,05,2.12,89.2,M,47.0,M,,*55
$GPGSA,A,3,32,14,17,19,03,,,,,,,,2.34,2.12,0.99*0F
$GPGSV,3,1,12,03,81,251,29,17,49,285,41,11,39,152,,19,29,312,40*75
$GPGSV,3,2,12,14,28,048,33,31,15,079,18,32,09,038,23,06,08,298,*76
$GPGSV,3,3,12,09,06,198,,28,04,245,13,12,03,355,,38,,,*42
$GPRMC,104120.000,A,5211.9204,N,00007.1702,E,0.13,292.60,051118,,,A*62
$GPVTG,292.60,T,,M,0.13,N,0.24,K,A*36
$GPGGA,104121.000,5211.9204,N,00007.1701,E,1,05,2.12,89.2,M,47.0,M,,*57
$GPGSA,A,3,32,14,17,19,03,,,,,,,,2.34,2.12,0.99*0F
$GPRMC,104121.000,A,5211.9204,N,00007.1701,E,0.23,268.20,051118,,,A*62
$GPVTG,268.20,T,,M,0.23,N,0.42,K,A*34
$GPGGA,104122.000,5211.9204,N,00007.1700,E,1,05,2.12,89.2,M,47.0,M,,*55
$GPGSA,A,3,32,14,17,19,03,,,,,,,,2.34,2.12,0.99*0F
$GPRMC,104122.000,A,5211.9204,N,00007.1700,E,0.26,243.24,051118,,,A*68
$GPVTG,243.24,T,,M,0.26,N,0.49,K,A*37
$GPGGA,104123.000,5211.9204,N,00007.1699,E,1,05,2.12,89.2,M,47.0,M,,*55
$GPGSA,A,3,32,14,17,19,03,,,,,,,,2.34,2.12,0.99*0F
$GPRMC,104123.000,A,5211.9204,N,00007.1699,E,0.18,260.36,051118,,,A*67
$GPVTG,260.36,T,,M,0.18,N,0.34,K,A*32
$GPGGA,104124.000,5211.9204,N,00007.1698,E,1,05,2.12,89.1,M,47.0,M,,*50
$GPGSA,A,3,32,14,17,19,03,,,,,,,,2.34,2.12,0.99*0F
$GPRMC,104124.000,A,5211.9204,N,00007.1698,E,0.18,282.86,051118,,,A*66
$GPVTG,282.86,T,,M,0.18,N,0.34,K,A*35
$GPGGA,104125.000,5211.9204,N,00007.1698,E,1,05,2.12,89.1,M,47.0,M,,*51
$GPGSA,A,3,32,14,17,19,03,,,,,,,,2.34,2.12,0.99*0F
$GPGSV,3,1,12,03,81,251,30,17,49,285,41,11,39,152,,19,29,312,39*73
$GPGSV,3,2,12,14,28,048,32,31,15,079,18,32,09,038,24,06,08,298,*70
$GPGSV,3,3,12,09,06,198,,28,04,245,13,12,03,355,,38,,,*42
$GPRMC,104125.000,A,5211.9204,N,00007.1698,E,0.22,35.82,051118,,,A*54
$GPVTG,35.82,T,,M,0.22,N,0.40,K,A*05
$GPGGA,104126.000,5211.9204,N,00007.1698,E,1,05,2.12,89.1,M,47.0,M,,*52
$GPGSA,A,3,32,14,17,19,03,,,,,,,,2.34,2.12,0.99*0F
$GPRMC,104126.000,A,5211.9204,N,00007.1698,E,0.10,89.76,051118,,,A*5A
$GPVTG,89.76,T,,M,0.10,N,0.19,K,A*04
$GPGGA,104127.000,5211.9205,N,00007.1699,E,1,05,2.12,89.1,M,47.0,M,,*53
$GPGSA,A,3,32,14,17,19,03,,,,,,,,2.34,2.12,0.99*0F
$GPRMC,104127.000,A,5211.9205,N,00007.1699,E,0.15,2.36,051118,,,A*69
$GPVTG,2.36,T,,M,0.15,N,0.27,K,A*3B
$GPGGA,104128.000,5211.9205,N,00007.1699,E,1,05,7.38,89.1,M,47.0,M,,*51
$GPGSA,A,3,32,14,17,19,03,,,,,,,,11.01,7.38,8.18*37
$GPRMC,104128.000,A,5211.9205,N,00007.1699,E,0.05,215.91,051118,,,A*6E
$GPVTG,215.91,T,,M,0.05,N,0.09,K,A*3F
$GPGGA,104129.000,5211.9205,N,00007.1698,E,1,05,2.12,89.1,M,47.0,M,,*5C
$GPGSA,A,3,32,14,17,19,03,,,,,,,,2.34,2.12,0.99*0F
$GPRMC,104129.000,A,5211.9205,N,00007.1698,E,0.07,296.69,051118,,,A*60
$GPVTG,296.69,T,,M,0.07,N,0.14,K,A*3D
$GPGGA,104130.000,5211.9205,N,00007.1698,E,1,05,2.12,89.1,M,47.0,M,,*54
$GPGSA,A,3,32,14,17,19,03,,,,,,,,2.34,2.12,0.99*0F
$GPGSV,3,1,12,03,81,251,32,17,49,285,41,11,39,152,,19,30,312,39*79
$GPGSV,3,2,12,14,28,048,33,31,15,079,,32,09,038,25,06,08,298,*79
$GPGSV,3,3,12,09,06,198,,28,04,245,13,12,03,355,,41,,,*4C
$GPRMC,104130.000,A,5211.9205,N,00007.1698,E,0.23,315.86,051118,,,A*65
$GPVTG,315.86,T,,M,0.23,N,0.42,K,A*33
$GPGGA,104131.000,5211.9206,N,00007.1697,E,1,05,2.12,89.1,M,47.0,M,,*59
$GPGSA,A,3,32,14,17,19,03,,,,,,,,2.34,2.12,0.99*0F
$GPRMC,104131.000,A,5211.9206,N,00007.1697,E,0.28,337.42,051118,,,A*6B
$GPVTG,337.42,T,,M,0.28,N,0.53,K,A*30
$GPGGA,104132.000,5211.9207,N,00007.1697,E,1,05,2.12,89.1,M,47.0,M,,*5B
$GPGSA,A,3,32,14,17,19,03,,,,,,,,2.34,2.12,0.99*0F
$GPRMC,104132.000,A,5211.9207,N,00007.1697,E,0.41,341.92,051118,,,A*6A
$GPVTG,341.92,T,,M,0.41,N,0.75,K,A*37
$GPGGA,104133.000,5211.9208,N,00007.1696,E,1,05,2.12,89.1,M,47.0,M,,*54
$GPGSA,A,3,32,14,17,19,03,,,,,,,,2.34,2.12,0.99*0F
$GPRMC,104133.000,A,5211.9208,N,00007.1696,E,0.35,341.24,051118,,,A*6B
$GPVTG,341.24,T,,M,0.35,N,0.65,K,A*38
$GPGGA,104134.000,5211.9209,N,00007.1696,E,1,05,2.12,89.0,M,47.0,M,,*53
$GPGSA,A,3,32,14,17,19,03,,,,,,,,2.34,2.12,0.99*0F
$GPRMC,104134.000,A,5211.9209,N,00007.1696,E,0.08,328.65,051118,,,A*69
$GPVTG,328.65,T,,M,0.08,N,0.15,K,A*3B
$GPGGA,104135.000,5211.9209,N,00007.1696,E,1,05,2.12,89.0,M,47.0,M,,*52
$GPGSA,A,3,32,14,17,19,03,,,,,,,,2.34,2.12,0.99*0F
$GPGSV,3,1,12,03,81,251,31,17,49,285,41,11,39,152,,19,30,312,39*7A
$GPGSV,3,2,12,14,28,048,33,31,15,079,,32,09,038,26,06,08,298,*7A
$GPGSV,3,3,12,09,06,198,,28,04,245,13,12,03,355,,43,,,*4E
$GPRMC,104135.000,A,5211.9209,N,00007.1696,E,0.39,326.23,051118,,,A*66
$GPVTG,326.23,T,,M,0.39,N,0.72,K,A*34
$GPGGA,104136.000,5211.9210,N,00007.1694,E,1,05,2.12,89.0,M,47.0,M,,*5B
$GPGSA,A,3,32,14,17,19,03,,,,,,,,2.34,2.12,0.99*0F
$GPRMC,104136.000,A,5211.9210,N,00007.1694,E,0.61,326.15,051118,,,A*67
$GPVTG,326.15,T,,M,0.61,N,1.13,K,A*3A
$GPGGA,104137.000,5211.9211,N,00007.1693,E,1,05,2.12,89.0,M,47.0,M,,*5C
$GPGSA,A,3,32,14,17,19,03,,,,,,,,2.34,2.12,0.99*0F
$GPRMC,104137.000,A,5211.9211,N,00007.1693,E,0.53,321.89,051118,,,A*63
$GPVTG,321.89,T,,M,0.53,N,0.98,K,A*3B
$GPGGA,104138.000,5211.9212,N,00007.1691,E,1,05,2.12,89.0,M,47.0,M,,*52
$GPGSA,A,3,32,14,17,19,03,,,,,,,,2.35,2.12,0.99*0E
$GPRMC,104138.000,A,5211.9212,N,00007.1691,E,0.22,303.19,051118,,,A*62
$GPVTG,303.19,T,,M,0.22,N,0.41,K,A*30
$GPGGA,104139.000,5211.9213,N,00007.1691,E,1,05,2.12,89.0,M,47.0,M,,*52
$GPGSA,A,3,32,14,17,19,03,,,,,,,,2.35,2.12,0.99*0E
$GPRMC,104139.000,A,5211.9213,N,00007.1691,E,0.22,327.50,051118,,,A*69
$GPVTG,327.50,T,,M,0.22,N,0.41,K,A*3B
$GPGGA,104140.000,5211.9213,N,00007.1690,E,1,05,2.13,89.0,M,47.0,M,,*5C
$GPGSA,A,3,32,14,17,19,03,,,,,,,,2.35,2.13,0.99*0F
$GPGSV,3,1,12,03,81,251,31,17,49,285,41,11,39,152,,19,30,312,39*7A
$GPGSV,3,2,12,14,28,048,34,31,15,079,,32,09,038,25,06,08,298,*7E
$GPGSV,3,3,12,09,06,198,,28,04,245,13,12,03,355,,45,,,*48
$GPRMC,104140.000,A,5211.9213,N,00007.1690,E,0.38,336.56,051118,,,A*6B
$GPVTG,336.56,T,,M,0.38,N,0.71,K,A*35
$GPGGA,104141.000,5211.9214,N,00007.1689,E,1,05,2.13,89.0,M,47.0,M,,*52
$GPGSA,A,3,32,14,17,19,03,,,,,,,,2.35,2.13,0.99*0F
$GPRMC,104141.000,A,5211.9214,N,00007.1689,E,0.23,351.16,051118,,,A*6A
$GPVTG,351.16,T,,M,0.23,N,0.42,K,A*3A
$GPGGA,104142.000,5211.9215,N,00007.1689,E,1,05,7.31,89.0,M,47.0,M,,*55
$GPGSA,A,3,32,14,17,19,03,,,,,,,,10.90,7.31,8.09*37
$GPRMC,104142.000,A,5211.9215,N,00007.1689,E,0.25,335.44,051118,,,A*6B
$GPVTG,335.44,T,,M,0.25,N,0.47,K,A*3C
$GPGGA,104143.000,5211.9216,N,00007.1689,E,1,05,2.13,89.0,M,47.0,M,,*52
$GPGSA,A,3,32,14,17,19,03,,,,,,,,2.35,2.13,0.99*0F
$GPRMC,104143.000,A,5211.9216,N,00007.1689,E,0.25,352.01,051118,,,A*69
$GPVTG,352.01,T,,M,0.25,N,0.46,K,A*3D
$GPGGA,104144.000,5211.9216,N,00007.1689,E,1,05,7.31,89.0,M,47.0,M,,*50
$GPGSA,A,3,32,14,17,19,03,,,,,,,,10.89,7.31,8.08*3E
$GPRMC,104144.000,A,5211.9216,N,00007.1689,E,0.21,344.67,051118,,,A*6D
$GPVTG,344.67,T,,M,0.21,N,0.39,K,A*36
$GPGGA,104145.000,5211.9217,N,00007.1688,E,1,05,2.13,89.0,M,47.0,M,,*54
$GPGSA,A,3,32,14,17,19,03,,,,,,,,2.35,2.13,0.99*0F
$GPGSV,3,1,12,03,81,251,31,17,49,285,41,11,39,152,,19,30,312,39*7A
$GPGSV,3,2,12,14,28,048,34,31,15,079,,32,09,038,25,06,08,298,*7E
$GPGSV,3,3,12,09,06,198,,28,04,245,13,12,03,355,,46,,,*4B
$GPRMC,104145.000,A,5211.9217,N,00007.1688,E,0.04,256.09,051118,,,A*61
$GPVTG,256.09,T,,M,0.04,N,0.08,K,A*39
$GPGGA,104146.000,5211.9217,N,00007.1688,E,1,05,2.13,89.0,M,47.0,M,,*57
$GPGSA,A,3,32,14,17,19,03,,,,,,,,2.35,2.13,0.99*0F
$GPRMC,104146.000,A,5211.9217,N,00007.1688,E,0.11,123.91,051118,,,A*66
$GPVTG,123.91,T,,M,0.11,N,0.20,K,A*37
$GPGGA,104147.000,5211.9217,N,00007.1689,E,1,05,2.13,88.9,M,47.0,M,,*5F
$GPGSA,A,3,32,14,17,19,03,,,,,,,,2.35,2.13,0.99*0F
$GPRMC,104147.000,A,5211.9217,N,00007.1689,E,0.16,165.51,051118,,,A*6F
$GPVTG,165.51,T,,M,0.16,N,0.31,K,A*3E
$GPGGA,104148.000,5211.9216,N,00007.1689,E,1,05,2.13,88.9,M,47.0,M,,*51
$GPGSA,A,3,32,14,17,19,03,,,,,,,,2.35,2.13,0.99*0F
$GPRMC,104148.000,A,5211.9216,N,00007.1689,E,0.05,153.91,051118,,,A*6A
$GPVTG,153.91,T,,M,0.05,N,0.09,K,A*3E
$GPGGA,104149.000,5211.9216,N,00007.1689,E,1,05,2.13,88.9,M,47.0,M,,*50
$GPGSA,A,3,32,14,17,19,03,,,,,,,,2.35,2.13,0.99*0F
$GPRMC,104149.000,A,5211.9216,N,00007.1689,E,0.10,208.46,051118,,,A*68
$GPVTG,208.46,T,,M,0.10,N,0.19,K,A*3C
$GPGGA,104150.000,5211.9216,N,00007.1689,E,1,05,2.13,88.9,M,47.0,M,,*58
$GPGSA,A,3,32,14,17,19,03,,,,,,,,2.35,2.13,0.99*0F
$GPGSV,3,1,12,03,82,251,29,17,49,285,42,11,39,152,,19,30,312,39*73
$GPGSV,3,2,12,14,28,048,34,31,15,079,,32,09,038,23,06,08,298,*78
$GPGSV,3,3,12,09,06,198,,28,04,245,14,12,03,355,,46,,,*4C
$GPRMC,104150.000,A,5211.9216,N,00007.1689,E,0.14,227.80,051118,,,A*63
$GPVTG,227.80,T,,M,0.14,N,0.26,K,A*33
$GPGGA,104151.000,5211.9216,N,00007.1688,E,1,05,2.13,88.9,M,47.0,M,,*58
$GPGSA,A,3,32,14,17,19,03,,,,,,,,2.35,2.13,0.99*0F
$GPRMC,104151.000,A,5211.9216,N,00007.1688,E,0.06,185.21,051118,,,A*60
$GPVTG,185.21,T,,M,0.06,N,0.11,K,A*34
$GPGGA,104152.000,5211.9216,N,00007.1688,E,1,05,2.13,88.9,M,47.0,M,,*5B
$GPGSA,A,3,32,14,17,19,03,,,,,,,,2.35,2.13,0.99*0F
$GPRMC,104152.000,A,5211.9216,N,00007.1688,E,0.12,259.34,051118,,,A*60
$GPVTG,259.34,T,,M,0.12,N,0.23,K,A*36
$GPGGA,104153.000,5211.9216,N,00007.1688,E,1,05,2.13,88.9,M,47.0,M,,*5A
$GPGSA,A,3,32,14,17,19,03,,,,,,,,2.35,2.13,0.99*0F
$GPRMC,104153.000,A,5211.9216,N,00007.1688,E,0.13,327.02,051118,,,A*6D
$GPVTG,327.02,T,,M,0.13,N,0.24,K,A*3D
$GPGGA,104154.000,5211.9216,N,00007.1688,E,1,05,2.13,88.9,M,47.0,M,,*5D
$GPGSA,A,3,32,14,17,19,03,,,,,,,,2.35,2.13,0.99*0F
$GPRMC,104154.000,A,5211.9216,N,00007.1688,E,0.11,276.86,051118,,,A*61
$GPVTG,276.86,T,,M,0.11,N,0.21,K,A*33
$GPGGA,104155.000,5211.9216,N,00007.1687,E,1,05,2.13,88.9,M,47.0,M,,*53
$GPGSA,A,3,32,14,17,19,03,,,,,,,,2.35,2.13,0.99*0F
$GPGSV,3,1,12,03,82,251,28,17,49,285,42,11,39,152,,19,30,312,39*72
$GPGSV,3,2,12,14,28,048,34,31,15,079,,32,09,038,24,06,08,298,*7F
$GPGSV,3,3,12,09,06,198,,28,04,245,14,12,03,354,,47,,,*4C
$GPRMC,104155.000,A,5211.9216,N,00007.1687,E,0.14,213.58,051118,,,A*6A
$GPVTG,213.58,T,,M,0.14,N,0.26,K,A*31
$GPGGA,104156.000,5211.9216,N,00007.1687,E,1,05,2.13,88.9,M,47.0,M,,*50
$GPGSA,A,3,32,14,17,19,03,,,,,,,,2.35,2.13,0.99*0F
$GPRMC,104156.000,A,5211.9216,N,00007.1687,E,0.15,248.58,051118,,,A*66
$GPVTG,248.58,T,,M,0.15,N,0.27,K,A*3F
$GPGGA,104157.000,5211.9215,N,00007.1686,E,1,05,2.13,88.9,M,47.0,M,,*53
$GPGSA,A,3,32,14,17,19,03,,,,,,,,2.35,2.13,0.99*0F
$GPRMC,104157.000,A,5211.9215,N,00007.1686,E,0.17,218.46,051118,,,A*6D
$GPVTG,218.46,T,,M,0.17,N,0.31,K,A*30
$GPGGA,104158.000,5211.9215,N,00007.1686,E,1,05,2.13,88.9,M,47.0,M,,*5C
$GPGSA,A,3,32,14,17,19,03,,,,,,,,2.35,2.13,0.99*0F
$GPRMC,104158.000,A,5211.9215,N,00007.1686,E,0.21,193.57,051118,,,A*67
$GPVTG,193.57,T,,M,0.21,N,0.40,K,A*33
$GPGGA,104159.000,5211.9214,N,00007.1685,E,1,05,2.13,88.9,M,47.0,M,,*5F
$GPGSA,A,3,32,14,17,19,03,,,,,,,,2.35,2.13,0.99*0F
$GPRMC,104159.000,A,5211.9214,N,00007.1685,E,0.29,181.39,051118,,,A*67
$GPVTG,181.39,T,,M,0.29,N,0.53,K,A*32
$GPGGA,104200.000,5211.9214,N,00007.1685,E,1,05,2.13,88.9,M,47.0,M,,*50
$GPGSA,A,3,32,14,17,19,03,,,,,,,,2.35,2.13,0.99*0F
$GPGSV,3,1,12,03,82,251,28,17,49,284,41,11,39,152,,19,30,312,40*7E
$GPGSV,3,2,12,14,28,048,34,31,15,079,,32,09,038,24,06,08,298,*7F
$GPGSV,3,3,12,09,06,198,,28,04,245,13,12,03,354,,49,,,*45
$GPRMC,104200.000,A,5211.9214,N,00007.1685,E,0.14,345.68,051118,,,A*68
$GPVTG,345.68,T,,M,0.14,N,0.26,K,A*30
$GPGGA,104201.000,5211.9214,N,00007.1685,E,1,05,7.24,88.9,M,47.0,M,,*50
$GPGSA,A,3,32,14,17,19,03,,,,,,,,10.77,7.24,7.98*3D
$GPRMC,104201.000,A,5211.9214,N,00007.1685,E,0.21,272.23,051118,,,A*65
$GPVTG,272.23,T,,M,0.21,N,0.38,K,A*33
$GPGGA,104202.000,5211.9214,N,00007.1684,E,1,05,2.13,88.9,M,47.0,M,,*53
$GPGSA,A,3,32,14,17,19,03,,,,,,,,2.35,2.13,0.99*0F
$GPRMC,104202.000,A,5211.9214,N,00007.1684,E,0.23,250.74,051118,,,A*67
$GPVTG,250.74,T,,M,0.23,N,0.42,K,A*3E
$GPGGA,104203.000,5211.9214,N,00007.1683,E,1,05,2.13,88.9,M,47.0,M,,*55
$GPGSA,A,3,32,14,17,19,03,,,,,,,,2.35,2.13,0.99*0F
$GPRMC,104203.000,A,5211.9214,N,00007.1683,E,0.20,262.45,051118,,,A*61
$GPVTG,262.45,T,,M,0.20,N,0.37,K,A*3C
$GPGGA,104204.000,5211.9214,N,00007.1682,E,1,05,2.13,88.9,M,47.0,M,,*53
$GPGSA,A,3,32,14,17,19,03,,,,,,,,2.35,2.13,0.99*0F
$GPRMC,104204.000,A,5211.9214,N,00007.1682,E,0.18,281.05,051118,,,A*65
$GPVTG,281.05,T,,M,0.18,N,0.34,K,A*3D
$GPGGA,104205.000,5211.9214,N,00007.1682,E,1,05,2.13,88.9,M,47.0,M,,*52
$GPGSA,A,3,32,14,17,19,03,,,,,,,,2.35,2.13,0.99*0F
$GPGSV,3,1,12,03,82,251,28,17,49,284,41,11,39,152,,19,30,312,40*7E
$GPGSV,3,2,12,14,28,048,35,33,28,199,,31,15,079,,32,09,038,24*78
$GPGSV,3,3,12,06,08,298,,09,06,198,,28,04,245,13,12,03,354,*75
$GPRMC,104205.000,A,5211.9214,N,00007.1682,E,0.13,183.60,051118,,,A*6D
$GPVTG,183.60,T,,M,0.13,N,0.24,K,A*35
$GPGGA,104206.000,5211.9214,N,00007.1682,E,1,05,2.13,88.8,M,47.0,M,,*50
$GPGSA,A,3,32,14,17,19,03,,,,,,,,2.35,2.13,0.99*0F
$GPRMC,104206.000,A,5211.9214,N,00007.1682,E,0.09,223.59,051118,,,A*66
$GPVTG,223.59,T,,M,0.09,N,0.16,K,A*3C
$GPGGA,104207.000,5211.9213,N,00007.1681,E,1,05,2.13,88.8,M,47.0,M,,*55
$GPGSA,A,3,32,14,17,19,03,,,,,,,,2.35,2.13,0.99*0F
$GPRMC,104207.000,A,5211.9213,N,00007.1681,E,0.19,240.69,051118,,,A*64
$GPVTG,240.69,T,,M,0.19,N,0.35,K,A*3A
$GPGGA,104208.000,5211.9213,N,00007.1681,E,1,05,2.13,88.8,M,47.0,M,,*5A
$GPGSA,A,3,32,14,17,19,03,,,,,,,,2.35,2.13,0.99*0F
$GPRMC,104208.000,A,5211.9213,N,00007.1681,E,0.03,40.96,051118,,,A*52
$GPVTG,40.96,T,,M,0.03,N,0.05,K,A*00
$GPGGA,104209.000,5211.9213,N,00007.1681,E,1,05,2.13,88.8,M,47.0,M,,*5B
$GPGSA,A,3,32,14,17,19,03,,,,,,,,2.35,2.13,0.99*0F
$GPRMC,104209.000,A,5211.9213,N,00007.1681,E,0.08,327.75,051118,,,A*67
$GPVTG,327.75,T,,M,0.08,N,0.15,K,A*35
$GPGGA,104210.000,5211.9214,N,00007.1680,E,1,05,2.13,88.8,M,47.0,M,,*55
$GPGSA,A,3,32,14,17,19,03,,,,,,,,2.35,2.13,0.99*0F
$GPGSV,3,1,12,03,82,251,28,17,49,284,40,11,39,152,,19,30,312,40*7F
$GPGSV,3,2,12,14,28,048,34,33,28,199,,31,15,079,,32,09,038,23*7E
$GPGSV,3,3,12,06,08,298,,09,06,198,,28,04,245,,12,03,354,*77
$GPRMC,104210.000,A,5211.9214,N,00007.1680,E,0.13,310.46,051118,,,A*67
$GPVTG,310.46,T,,M,0.13,N,0.23,K,A*3E
$GPGGA,104211.000,5211.9214,N,00007.1680,E,1,05,2.13,88.8,M,47.0,M,,*54
$GPGSA,A,3,32,14,17,19,03,,,,,,,,2.35,2.13,0.99*0F
$GPRMC,104211.000,A,5211.9214,N,00007.1680,E,0.19,244.60,051118,,,A*68
$GPVTG,244.60,T,,M,0.19,N,0.35,K,A*37
$GPGGA,104212.000,5211.9214,N,00007.1679,E,1,05,2.13,88.8,M,47.0,M,,*51
$GPGSA,A,3,32,14,17,19,03,,,,,,,,2.35,2.13,0.99*0F
$GPRMC,104212.000,A,5211.9214,N,00007.1679,E,0.20,274.06,051118,,,A*64
$GPVTG,274.06,T,,M,0.20,N,0.38,K,A*33
$GPGGA,104213.000,5211.9214,N,00007.1678,E,1,05,2.13,88.8,M,47.0,M,,*51
$GPGSA,A,3,32,14,17,19,03,,,,,,,,2.35,2.13,0.99*0F
$GPRMC,104213.000,A,5211.9214,N,00007.1678,E,0.10,283.45,051118,,,A*68
$GPVTG,283.45,T,,M,0.10,N,0.18,K,A*3D
$GPGGA,104214.000,5211.9214,N,00007.1678,E,1,05,2.13,88.8,M,47.0,M,,*56
$GPGSA,A,3,32,14,17,19,03,,,,,,,,2.35,2.13,0.99*0F
$GPRMC,104214.000,A,5211.9214,N,00007.1678,E,0.18,311.62,051118,,,A*68
$GPVTG,311.62,T,,M,0.18,N,0.33,K,A*33
$GPGGA,104215.000,5211.9214,N,00007.1677,E,1,05,2.13,88.8,M,47.0,M,,*58
$GPGSA,A,3,32,14,17,19,03,,,,,,,,2.35,2.13,0.99*0F
$GPGSV,3,1,11,03,82,251,26,17,49,284,40,11,39,152,,19,30,312,40*72
$GPGSV,3,2,11,14,28,048,34,31,15,079,,32,09,038,24,06,08,298,*7C
$GPGSV,3,3,11,09,06,198,,28,04,245,,12,03,354,*49
$GPRMC,104215.000,A,5211.9214,N,00007.1677,E,0.16,297.38,051118,,,A*68
$GPVTG,297.38,T,,M,0.16,N,0.29,K,A*36
$GPGGA,104216.000,5211.9214,N,00007.1677,E,1,05,2.13,88.8,M,47.0,M,,*5B
$GPGSA,A,3,32,14,17,19,03,,,,,,,,2.35,2.13,0.99*0F
$GPRMC,104216.000,A,5211.9214,N,00007.1677,E,0.09,336.10,051118,,,A*65
$GPVTG,336.10,T,,M,0.09,N,0.17,K,A*35
$GPGGA,104217.000,5211.9214,N,00007.1677,E,1,05,2.13,88.8,M,47.0,M,,*5A
$GPGSA,A,3,32,14,17,19,03,,,,,,,,2.35,2.13,0.99*0F
$GPRMC,104217.000,A,5211.9214,N,00007.1677,E,0.11,18.55,051118,,,A*53
$GPVTG,18.55,T,,M,0.11,N,0.21,K,A*07
$GPGGA,104218.000,5211.9215,N,00007.1677,E,1,05,2.13,88.8,M,47.0,M,,*54
$GPGSA,A,3,32,14,17,19,03,,,,,,,,2.35,2.13,0.99*0F
$GPRMC,104218.000,A,5211.9215,N,00007.1677,E,0.05,351.40,051118,,,A*62
$GPVTG,351.40,T,,M,0.05,N,0.09,K,A*32
$GPGGA,104219.000,5211.9215,N,00007.1677,E,1,05,7.17,88.7,M,47.0,M,,*5B
$GPGSA,A,3,32,14,17,19,03,,,,,,,,10.66,7.17,7.88*3C
$GPRMC,104219.000,A,5211.9215,N,00007.1677,E,0.11,144.94,051118,,,A*69
$GPVTG,144.94,T,,M,0.11,N,0.21,K,A*32
$GPGGA,104220.000,5211.9214,N,00007.1677,E,1,05,2.13,88.7,M,47.0,M,,*51
$GPGSA,A,3,32,14,17,19,03,,,,,,,,2.35,2.13,0.99*0F
$GPGSV,3,1,11,03,82,251,27,17,49,284,40,11,39,152,,19,30,312,40*73
$GPGSV,3,2,11,14,28,048,35,31,15,079,,32,09,038,22,06,08,298,*7B
$GPGSV,3,3,11,09,06,198,,28,04,245,,12,03,354,*49
$GPRMC,104220.000,A,5211.9214,N,00007.1677,E,0.09,261.84,051118,,,A*6E
$GPVTG,261.84,T,,M,0.09,N,0.17,K,A*3B
$GPGGA,104221.000,5211.9214,N,00007.1677,E,1,05,2.13,88.7,M,47.0,M,,*50
$GPGSA,A,3,32,14,17,19,03,,,,,,,,2.35,2.13,0.99*0F
$GPRMC,104221.000,A,5211.9214,N,00007.1677,E,0.22,332.04,051118,,,A*69
$GPVTG,332.04,T,,M,0.22,N,0.40,K,A*3F
$GPGGA,104222.000,5211.9215,N,00007.1676,E,1,05,2.13,88.7,M,47.0,M,,*53
$GPGSA,A,3,32,14,17,19,03,,,,,,,,2.35,2.13,0.99*0F
$GPRMC,104222.000,A,5211.9215,N,00007.1676,E,0.17,301.32,051118,,,A*69
$GPVTG,301.32,T,,M,0.17,N,0.31,K,A*3A
$GPGGA,104223.000,5211.9215,N,00007.1676,E,1,05,2.13,88.7,M,47.0,M,,*52
$GPGSA,A,3,32,14,17,19,03,,,,,,,,2.35,2.13,0.99*0F
$GPRMC,104223.000,A,5211.9215,N,00007.1676,E,0.15,329.53,051118,,,A*67
$GPVTG,329.53,T,,M,0.15,N,0.28,K,A*3D
$GPGGA,104224.000,5211.9215,N,00007.1675,E,1,05,2.13,88.7,M,47.0,M,,*56
$GPGSA,A,3,32,14,17,19,03,,,,,,,,2.35,2.13,0.99*0F
$GPRMC,104224.000,A,5211.9215,N,00007.1675,E,0.15,319.76,051118,,,A*67
$GPVTG,319.76,T,,M,0.15,N,0.28,K,A*39
$GPGGA,104225.000,5211.9216,N,00007.1675,E,1,05,2.13,88.7,M,47.0,M,,*54
$GPGSA,A,3,32,14,17,19,03,,,,,,,,2.35,2.13,0.99*0F
$GPGSV,3,1,11,03,82,252,29,17,49,284,40,11,39,152,,19,30,312,40*7E
$GPGSV,3,2,11,14,28,048,35,31,15,079,,32,09,038,23,06,08,298,*7A
$GPGSV,3,3,11,09,06,198,,28,04,245,,12,03,354,*49
$GPRMC,104225.000,A,5211.9216,N,00007.1675,E,0.26,359.42,051118,,,A*66
$GPVTG,359.42,T,,M,0.26,N,0.47,K,A*33
$GPGGA,104226.000,5211.9217,N,00007.1675,E,1,05,7.14,88.7,M,47.0,M,,*54
$GPGSA,A,3,32,14,17,19,03,,,,,,,,10.59,7.14,7.83*38
$GPRMC,104226.000,A,5211.9217,N,00007.1675,E,0.34,11.48,051118,,,A*52
$GPVTG,11.48,T,,M,0.34,N,0.63,K,A*03
$GPGGA,104227.000,5211.9218,N,00007.1675,E,1,05,7.13,88.7,M,47.0,M,,*5D
$GPGSA,A,3,32,14,17,19,03,,,,,,,,10.59,7.13,7.83*3F
$GPRMC,104227.000,A,5211.9218,N,00007.1675,E,0.36,4.56,051118,,,A*65
$GPVTG,4.56,T,,M,0.36,N,0.67,K,A*3E
$GPGGA,104228.000,5211.9219,N,00007.1675,E,1,05,7.13,88.7,M,47.0,M,,*53
$GPGSA,A,3,32,14,17,19,03,,,,,,,,10.58,7.13,7.82*3F
$GPRMC,104228.000,A,5211.9219,N,00007.1675,E,0.14,30.74,051118,,,A*5C
$GPVTG,30.74,T,,M,0.14,N,0.26,K,A*0C
$GPGGA,104229.000,5211.9219,N,00007.1675,E,1,05,2.13,88.6,M,47.0,M,,*56
$GPGSA,A,3,32,14,17,19,03,,,,,,,,2.35,2.13,0.99*0F
$GPRMC,104229.000,A,5211.9219,N,00007.1675,E,0.08,157.76,051118,,,A*62
$GPVTG,157.76,T,,M,0.08,N,0.14,K,A*32
$GPGGA,104230.000,5211.9219,N,00007.1676,E,1,05,2.14,88.6,M,47.0,M,,*5A
$GPGSA,A,3,32,14,17,19,03,,,,,,,,2.35,2.14,0.99*08
$GPGSV,3,1,11,03,82,252,29,17,49,284,40,11,39,152,,19,30,312,40*7E
$GPGSV,3,2,11,14,28,048,35,31,15,079,,32,09,038,23,06,08,298,*7A
$GPGSV,3,3,11,09,07,198,,28,04,245,,12,03,354,*48
$GPRMC,104230.000,A,5211.9219,N,00007.1676,E,0.12,309.21,051118,,,A*69
$GPVTG,309.21,T,,M,0.12,N,0.23,K,A*36
$GPGGA,104231.000,5211.9219,N,00007.1675,E,1,05,2.14,88.6,M,47.0,M,,*58
$GPGSA,A,3,32,14,17,19,03,,,,,,,,2.35,2.14,0.99*08
$GPRMC,104231.000,A,5211.9219,N,00007.1675,E,0.04,315.29,051118,,,A*69
$GPVTG,315.29,T,,M,0.04,N,0.08,K,A*3D
$GPGGA,104232.000,5211.9219,N,00007.1675,E,1,05,2.14,88.6,M,47.0,M,,*5B
$GPGSA,A,3,32,14,17,19,03,,,,,,,,2.35,2.14,0.99*08
$GPRMC,104232.000,A,5211.9219,N,00007.1675,E,0.05,164.04,051118,,,A*60
$GPVTG,164.04,T,,M,0.05,N,0.08,K,A*37
$GPGGA,104233.000,5211.9219,N,00007.1675,E,1,05,2.14,88.6,M,47.0,M,,*5A
$GPGSA,A,3,32,14,17,19,03,,,,,,,,2.36,2.14,0.99*0B
$GPRMC,104233.000,A,5211.9219,N,00007.1675,E,0.16,215.04,051118,,,A*66
$GPVTG,215.04,T,,M,0.16,N,0.29,K,A*33
$GPGGA,104234.000,5211.9219,N,00007.1675,E,1,05,2.14,88.6,M,47.0,M,,*5D
$GPGSA,A,3,32,14,17,19,03,,,,,,,,2.36,2.14,0.99*0B
$GPRMC,104234.000,A,5211.9219,N,00007.1675,E,0.23,225.07,051118,,,A*67
$GPVTG,225.07,T,,M,0.23,N,0.42,K,A*38
$GPGGA,104235.000,5211.9218,N,00007.1674,E,1,05,2.14,88.6,M,47.0,M,,*5C
$GPGSA,A,3,32,14,17,19,03,,,,,,,,2.36,2.14,0.99*0B
$GPGSV,3,1,11,03,82,252,27,17,49,284,40,11,39,152,,19,30,312,40*70
$GPGSV,3,2,11,14,27,048,34,31,15,079,,32,09,038,24,06,08,298,*73
$GPGSV,3,3,11,09,07,198,,28,04,245,,12,03,354,*48
$GPRMC,104235.000,A,5211.9218,N,00007.1674,E,0.08,226.18,051118,,,A*62
$GPVTG,226.18,T,,M,0.08,N,0.16,K,A*3D
$GPGGA,104236.000,5211.9218,N,00007.1674,E,1,05,2.14,88.6,M,47.0,M,,*5F
$GPGSA,A,3,32,14,17,19,03,,,,,,,,2.36,2.14,0.99*0B
$GPRMC,104236.000,A,5211.9218,N,00007.1674,E,0.11,328.60,051118,,,A*69
$GPVTG,328.60,T,,M,0.11,N,0.21,K,A*31
