
$GPRMC,235947.799,V,,,,,0.00,0.00,050180,,,N*48

$GPGGA,235948.799,,,,,0,00,,,M,,M,,*7E

$GPGGA,235950.800,,,,,0,00,,,M,,M,,*78

$GPRMC,235950.800,V,,,,,0.00,0.00,050180,,,N*41

$GPRMC,235952.711,V,,,,,0.00,0.00,050180,,,N*4C

$GPGGA,235953.711,,,,,0,00,,,M,,M,,*74

$GPGGA,163745.094,,,,,0,00,,,M,,M,,*77

$GPRMC,163745.094,V,,,,,0.00,0.00,090180,,,N*42

$GPRMC,163747.094,V,,,,,0.00,0.00,090180,,,N*40

$GPGGA,163748.094,,,,,0,00,,,M,,M,,*7A

$GPGGA,163750.094,,,,,0,00,,,M,,M,,*73

$GPRMC,163750.094,V,,,,,0.00,0.00,090180,,,N*46

$GPRMC,163752.094,V,,,,,0.00,0.00,090180,,,N*44

$GPGGA,163753.094,,,,,0,00,,,M,,M,,*70

$GPGGA,163754.310,,,,,0,00,,,M,,M,,*78

$GPRMC,163754.310,V,,,,,0.00,0.00,090180,,,N*4D

$GPRMC,163756.310,V,,,,,0.00,0.00,090180,,,N*4F

$GPGGA,163757.310,,,,,0,00,,,M,,M,,*7B

$GPGGA,163759.310,,,,,0,00,,,M,,M,,*75

$GPRMC,163759.310,V,,,,,0.00,0.00,090180,,,N*40

$GPRMC,163801.096,V,,,,,0.00,0.00,311018,,,N*45

$GPGGA,163802.096,,,,,0,00,,,M,,M,,*79

$GPGGA,163804.096,,,,,0,00,,,M,,M,,*7F

$GPRMC,163804.096,V,,,,,0.00,0.00,311018,,,N*40

$GPRMC,163806.096,V,,,,,0.00,0.00,311018,,,N*42

$GPGGA,163807.096,,,,,0,00,,,M,,M,,*7C

$GPGGA,163809.096,,,,,0,00,,,M,,M,,*72

$GPRMC,163809.096,V,,,,,0.00,0.00,311018,,,N*4D

$GPRMC,163811.096,V,,,,,0.00,0.00,311018,,,N*44

$GPGGA,163812.086,,,,,0,00,,,M,,M,,*79

$GPGGA,163813.305,,,,,0,00,,,M,,M,,*70

$GPRMC,163813.305,V,,,,,0.00,0.00,311018,,,N*4F

$GPRMC,163815.305,V,,,,,0.00,0.00,311018,,,N*49

$GPGGA,163816.305,,,,,0,00,,,M,,M,,*75

$GPGGA,163818.092,,,,,0,00,,,M,,M,,*76

$GPRMC,163818.092,V,,,,,0.00,0.00,311018,,,N*49

$GPRMC,163819.313,V,,,,,0.00,0.00,311018,,,N*42

$GPGGA,163820.313,,,,,0,00,,,M,,M,,*77

$GPGGA,163822.313,,,,,0,00,,,M,,M,,*75

$GPRMC,163822.313,V,,,,,0.00,0.00,311018,,,N*4A

$GPRMC,163824.092,V,,,,,0.00,0.00,311018,,,N*46

$GPGGA,163824.313,,,,,0,00,,,M,,M,,*73

$GPGGA,163826.313,,,,,0,00,,,M,,M,,*71

$GPRMC,163826.313,V,,,,,0.00,0.00,311018,,,N*4E

$GPRMC,163828.313,V,,,,,0.00,0.00,311018,,,N*40

$GPGGA,163829.313,,,,,0,00,,,M,,M,,*7E

$GPGGA,163830.313,,,,,0,00,,,M,,M,,*76

$GPRMC,163830.313,V,,,,,0.00,0.00,311018,,,N*49

$GPRMC,163832.313,V,,,,,0.00,0.00,311018,,,N*4B

$GPGGA,163833.313,,,,,0,00,,,M,,M,,*75

$GPGGA,163835.313,,,,,0,00,,,M,,M,,*73

$GPRMC,163835.313,V,,,,,0.00,0.00,311018,,,N*4C

$GPRMC,163837.104,V,,,,,0.00,0.00,311018,,,N*4A

$GPGGA,163838.104,,,,,0,00,,,M,,M,,*7A

$GPGGA,163840.104,,,,,0,00,,,M,,M,,*75

$GPRMC,163840.104,V,,,,,0.00,0.00,311018,,,N*4A

$GPRMC,163842.091,V,,,,,0.00,0.00,311018,,,N*45

$GPGGA,163842.310,,,,,0,00,,,M,,M,,*70

$GPGGA,163844.310,,,,,0,00,,,M,,M,,*76

$GPRMC,163844.310,V,,,,,0.00,0.00,311018,,,N*49

$GPRMC,163846.310,V,,,,,0.00,0.00,311018,,,N*4B

$GPGGA,163847.310,,,,,0,00,,,M,,M,,*75

$GPGGA,163848.310,,,,,0,00,,,M,,M,,*7A

$GPRMC,163848.310,V,,,,,0.00,0.00,311018,,,N*45

$GPRMC,163850.310,V,,,,,0.00,0.00,311018,,,N*4C

$GPGGA,163851.285,,,,,0,03,,,M,,M,,*7C

$GPGGA,163853.285,,,,,0,00,,,M,,M,,*7D

$GPRMC,163853.285,V,,,,,0.00,0.00,311018,,,N*42

$GPRMC,163855.074,V,,,,,0.00,0.00,311018,,,N*48

$GPGGA,163856.074,,,,,0,00,,,M,,M,,*74

$GPGGA,163858.074,,,,,0,00,,,M,,M,,*7A

$GPRMC,163858.074,V,,,,,0.00,0.00,311018,,,N*45

$GPRMC,163900.074,V,,,,,0.00,0.00,311018,,,N*49

$GPGGA,163901.074,,,,,0,00,,,M,,M,,*77

$GPGGA,163903.074,,,,,0,00,,,M,,M,,*75

$GPRMC,163903.074,V,,,,,0.00,0.00,311018,,,N*4A

$GPRMC,163905.074,V,,,,,0.00,0.00,311018,,,N*4C

$GPGGA,163906.061,,,,,0,00,,,M,,M,,*74

$GPGGA,163907.281,,,,,0,00,,,M,,M,,*79

$GPRMC,163907.281,V,,,,,0.00,0.00,311018,,,N*46

$GPRMC,163909.281,V,,,,,0.00,0.00,311018,,,N*48

$GPGGA,163910.281,,,,,0,00,,,M,,M,,*7F

$GPGGA,163912.069,,,,,0,00,,,M,,M,,*79

$GPRMC,163912.069,V,,,,,0.00,0.00,311018,,,N*46

$GPRMC,163914.069,V,,,,,0.00,0.00,311018,,,N*40

$GPGGA,163915.069,,,,,0,00,,,M,,M,,*7E

$GPGGA,163917.069,,,,,0,00,,,M,,M,,*7C

$GPRMC,163917.069,V,,,,,0.00,0.00,311018,,,N*43

$GPRMC,163918.276,V,,,,,0.00,0.00,311018,,,N*40

$GPGGA,163919.276,,,,,0,00,,,M,,M,,*7E

$GPGGA,163921.276,,,,,0,00,,,M,,M,,*75

$GPRMC,163921.276,V,,,,,0.00,0.00,311018,,,N*4A

$GPRMC,163923.276,V,,,,,0.00,0.00,311018,,,N*48

$GPGGA,163924.094,,,,,0,03,,,M,,M,,*7D

$GPGGA,163926.095,,,,,0,03,,,M,,M,,*7E

$GPRMC,163926.095,V,,,,,0.25,24.48,311018,,,N*7F

$GPRMC,163929.000,V,,,,,0.16,114.35,311018,,,N*44

$GPGGA,163930.000,,,,,0,03,,,M,,M,,*75

$GPGGA,163933.000,,,,,0,03,,,M,,M,,*76

$GPRMC,163933.000,V,,,,,0.31,101.90,311018,,,N*41

$GPRMC,163935.000,V,,,,,0.39,108.02,311018,,,N*4D

$GPGGA,163936.000,,,,,0,03,,,M,,M,,*73

$GPGGA,163939.000,,,,,0,03,,,M,,M,,*7C

$GPRMC,163939.000,V,,,,,0.12,69.53,311018,,,N*7A

$GPRMC,163941.000,V,,,,,0.13,358.59,311018,,,N*4F

$GPGGA,163942.000,,,,,0,03,,,M,,M,,*70

$GPGGA,163945.000,,,,,0,02,,,M,,M,,*76

$GPRMC,163945.000,V,,,,,0.20,245.42,311018,,,N*4C

$GPRMC,163947.000,V,,,,,0.35,317.92,311018,,,N*41

$GPGGA,163948.000,,,,,0,02,,,M,,M,,*7B

$GPGGA,163951.000,,,,,0,02,,,M,,M,,*73

$GPRMC,163951.000,V,,,,,0.38,321.68,311018,,,N*4B

$GPRMC,163953.000,V,,,,,0.37,322.52,311018,,,N*4C

$GPGGA,163954.000,,,,,0,02,,,M,,M,,*76

$GPGGA,163957.000,,,,,0,03,,,M,,M,,*74

$GPRMC,163957.000,V,,,,,0.18,346.41,311018,,,N*45

$GPRMC,163959.000,V,,,,,0.20,339.18,311018,,,N*44

$GPGGA,164000.000,,,,,0,03,,,M,,M,,*78

$GPGGA,164003.000,,,,,0,03,,,M,,M,,*7B

$GPRMC,164003.000,V,,,,,0.12,191.70,311018,,,N*4A

$GPRMC,164005.000,V,,,,,0.71,107.22,311018,,,N*41

$GPGGA,164006.000,,,,,0,03,,,M,,M,,*7E

$GPGGA,164009.000,,,,,0,03,,,M,,M,,*71

$GPRMC,164009.000,V,,,,,0.64,102.45,311018,,,N*4D

$GPRMC,164011.000,V,,,,,0.37,57.77,311018,,,N*72

$GPGGA,164012.000,,,,,0,03,,,M,,M,,*7B

$GPGGA,164015.000,,,,,0,03,,,M,,M,,*7C

$GPRMC,164015.000,V,,,,,0.27,47.56,311018,,,N*75

$GPRMC,164017.000,V,,,,,0.57,68.05,311018,,,N*7B

$GPGGA,164018.000,,,,,0,03,,,M,,M,,*71

$GPGGA,164021.000,,,,,0,03,,,M,,M,,*7B

$GPRMC,164021.000,V,,,,,0.40,86.65,311018,,,N*7E

$GPRMC,164023.000,V,,,,,0.33,108.64,311018,,,N*4E

$GPGGA,164024.000,,,,,0,03,,,M,,M,,*7E

$GPGGA,164027.000,,,,,0,03,,,M,,M,,*7D

$GPRMC,164027.000,V,,,,,0.54,91.98,311018,,,N*79

$GPRMC,164029.000,V,,,,,0.69,80.54,311018,,,N*79

$GPGGA,164030.000,,,,,0,03,,,M,,M,,*7B

$GPGGA,164033.000,,,,,0,03,,,M,,M,,*78

$GPRMC,164033.000,V,,,,,0.43,66.01,311018,,,N*72

$GPRMC,164035.000,V,,,,,0.41,87.97,311018,,,N*76

$GPGGA,164036.000,,,,,0,03,,,M,,M,,*7D

$GPGGA,164039.000,,,,,0,03,,,M,,M,,*72

$GPRMC,164039.000,V,,,,,0.32,79.80,311018,,,N*79

$GPRMC,164041.000,V,,,,,0.42,77.55,311018,,,N*77

$GPGGA,164042.000,,,,,0,03,,,M,,M,,*7E

$GPGGA,164045.000,,,,,0,03,,,M,,M,,*79

$GPRMC,164045.000,V,,,,,0.50,63.46,311018,,,N*77

$GPRMC,164047.000,V,,,,,0.56,42.75,311018,,,N*70

$GPGGA,164048.000,,,,,0,03,,,M,,M,,*74

$GPGGA,164051.000,,,,,0,03,,,M,,M,,*7C

$GPRMC,164051.000,V,,,,,0.20,154.81,311018,,,N*4B

$GPRMC,164053.000,V,,,,,0.12,342.74,311018,,,N*47

$GPGGA,164054.000,,,,,0,03,,,M,,M,,*79

$GPGGA,164057.000,,,,,0,03,,,M,,M,,*7A

$GPRMC,164057.000,V,,,,,0.28,189.44,311018,,,N*4C

$GPRMC,164059.000,V,,,,,0.10,348.22,311018,,,N*46

$GPGGA,164100.000,,,,,0,03,,,M,,M,,*79

$GPGGA,164103.000,,,,,0,03,,,M,,M,,*7A

$GPRMC,164103.000,V,,,,,0.30,319.96,311018,,,N*41

$GPRMC,164105.000,V,,,,,0.33,289.12,311018,,,N*40

$GPGGA,164106.000,,,,,0,03,,,M,,M,,*7F

$GPGGA,164109.000,5212.2316,N,00007.0441,E,1,03,4.17,102.8,M,47.0,M,,*6A

$GPRMC,164109.000,A,5212.2316,N,00007.0441,E,0.10,323.70,311018,,,A*6F

$GPRMC,164111.000,V,,,,,0.08,0.48,311018,,,N*41

$GPGGA,164112.000,,,,,0,02,,,M,,M,,*7B

$GPGGA,164115.000,,,,,0,03,,,M,,M,,*7D

$GPRMC,164115.000,V,,,,,0.19,160.94,311018,,,N*43

$GPRMC,164117.000,V,,,,,0.16,190.49,311018,,,N*41

$GPGGA,164118.000,,,,,0,03,,,M,,M,,*70

$GPGGA,164121.000,,,,,0,03,,,M,,M,,*7A

$GPRMC,164121.000,V,,,,,0.13,95.69,311018,,,N*77

$GPRMC,164123.000,V,,,,,0.18,90.51,311018,,,N*70

$GPGGA,164124.000,,,,,0,02,,,M,,M,,*7E

$GPGGA,164127.000,,,,,0,03,,,M,,M,,*7C

$GPRMC,164127.000,V,,,,,0.57,39.70,311018,,,N*7F

$GPRMC,164129.000,V,,,,,0.39,32.25,311018,,,N*72

$GPGGA,164130.000,,,,,0,03,,,M,,M,,*7A

$GPGGA,164133.000,,,,,0,03,,,M,,M,,*79

$GPRMC,164133.000,V,,,,,0.08,243.34,311018,,,N*4F

$GPRMC,164135.000,V,,,,,0.23,348.20,311018,,,N*4F

$GPGGA,164136.000,,,,,0,03,,,M,,M,,*7C

$GPGGA,164139.000,,,,,0,03,,,M,,M,,*73

$GPRMC,164139.000,V,,,,,0.22,245.34,311018,,,N*4B

$GPRMC,164141.000,V,,,,,0.18,294.67,311018,,,N*47

$GPGGA,164142.000,,,,,0,03,,,M,,M,,*7F

$GPGGA,164145.000,,,,,0,03,,,M,,M,,*78

$GPRMC,164145.000,V,,,,,0.29,250.31,311018,,,N*4A

$GPRMC,164147.000,V,,,,,0.28,278.15,311018,,,N*45

$GPGGA,164148.000,,,,,0,03,,,M,,M,,*75

$GPGGA,164151.000,,,,,0,03,,,M,,M,,*7D

$GPRMC,164151.000,V,,,,,0.29,271.50,311018,,,N*4B

$GPRMC,164153.000,V,,,,,0.39,283.47,311018,,,N*43

$GPGGA,164154.000,,,,,0,03,,,M,,M,,*78

$GPGGA,164157.000,5212.2314,N,00007.0287,E,1,03,4.17,102.8,M,47.0,M,,*6F

$GPRMC,164157.000,A,5212.2314,N,00007.0287,E,0.57,306.34,311018,,,A*6E

$GPRMC,164159.000,A,5212.2316,N,00007.0280,E,0.35,286.84,311018,,,A*63

$GPGGA,164200.000,5212.2319,N,00007.0270,E,1,03,4.16,102.7,M,47.0%

$GPRMC,164203.000,A,5212.2322,N,00007.0252,E,0.60,286.69,311018,,,A*64

$GPGGA,164204.000,5212.2320,N,00007.0256,E,1,03,4.17,102.7,M,47.0,M,,*6

$GPRMC,164206.000,A,5212.2322,N,00007.0249,E,0.54,305.23,311018,,,A*68

$GPGGA,164206.211,5212.2320,N,00007.0256,E,1,03,4.17,102.7,M,47.0,M,,*6

$GPRMC,164209.000,V,,,,,0.02,29.62,311018,,,N*72

$GPGGA,164210.000,5212.2322,N,00007.0254,E,1,03,4.16,102.7,M,47.0,M,,*6A

$GPRMC,164212.000,A,5212.2320,N,00007.0255,E,0.17,269.07,311018,,,A*68

$GPGGA,164212.211,5212.2320,N,00007.0254,E,1,03,4.16,102.7,M,47.0,M,,*68

$GPRMC,164215.000,A,5212.2320,N,00007.0253,E,0.11,86.40,311018,,,A*5F

$GPGGA,164216.000,5212.2320,N,00007.0254,E,1,03,4.16,102.7,M,47.0,M,,*6

$GPRMC,164218.000,A,5212.2320,N,00007.0255,E,0.13,59.19,311018,,,A*58

$GPGGA,164218.205,5212.2320,N,00007.0255,E,1,03,4.16,102.7,M,47.0,M,,*6

$GPRMC,164221.000,A,5212.2321,N,00007.0256,E,0.18,61.33,311018,,,A*58

$GPGGA,164222.000,5212.2321,N,00007.0257,E,1,03,4.16,102.7,M,47.0,M,,*6

$GPRMC,164224.000,A,5212.2321,N,00007.0260,E,0.28,77.02,311018,,,A*5E

$GPGGA,164224.205,5212.2321,N,00007.0261,E,1,03,4.16,102.7,M,47.0,M,,*6

$GPRMC,164227.000,A,5212.2321,N,00007.0265,E,0.43,109.64,311018,,,A*6D

$GPGGA,164228.000,5212.2321,N,00007.0267,E,1,03,4.16,102.7,M,47.0,M,,*6

$GPRMC,164230.000,A,5212.2319,N,00007.0269,E,0.38,119.36,311018,,,A*66

$GPGGA,164230.217,5212.2319,N,00007.0270,E,1,03,4.16,102.7,M,47.0,M,,*62

$GPRMC,164233.000,A,5212.2318,N,00007.0275,E,0.25,111.36,311018,,,A*6D

$GPGGA,164234.000,5212.2317,N,00007.0277,E,1,03,4.16,102.7,M,47.0,M,,*6

$GPRMC,164236.000,A,5212.2318,N,00007.0279,E,0.36,84.65,311018,,,A*5D

$GPGGA,164236.217,5212.2318,N,00007.0280,E,1,03,4.16,102.7,M,47.0,M,,*6

$GPRMC,164239.000,A,5212.2318,N,00007.0284,E,0.33,89.61,311018,,,A*5C

$GPGGA,164240.000,5212.2318,N,00007.0286,E,1,03,4.16,102.7,M,47.0,M,,*6

$GPRMC,164242.000,A,5212.2318,N,00007.0286,E,0.13,347.55,311018,,,A*66

$GPGGA,164242.209,,,,,0,03,,,M,,M,,*77

$GPGGA,164245.000,,,,,0,03,,,M,,M,,*7B

$GPRMC,164245.000,V,,,,,0.32,348.85,311018,,,N*44

$GPRMC,164247.000,V,,,,,0.12,246.75,311018,,,N*44

$GPGGA,164248.000,5212.2321,N,00007.0286,E,1,03,4.16,102.7,M,47.0,M,,*6B

$GPRMC,164251.000,A,5212.2322,N,00007.0288,E,0.19,114.92,311018,,,A*66

$GPGGA,164252.000,5212.2322,N,00007.0288,E,1,03,4.16,102.7,M,47.0,M,,*6D

$GPRMC,164254.000,A,5212.2321,N,00007.0290,E,0.36,117.47,311018,,,A*6F

$GPGGA,164254.207,5212.2321,N,00007.0291,E,1,03,4.16,102.7,M,47.0,M,,*6

$GPRMC,164257.000,A,5212.2320,N,00007.0296,E,0.57,100.06,311018,,,A*6F

$GPGGA,164258.000,5212.2319,N,00007.0298,E,1,03,4.16,102.7,M,47.0,M,,*6

$GPRMC,164300.000,A,5212.2313,N,00007.0316,E,0.65,120.63,311018,,,A*65

$GPGGA,164300.209,5212.2311,N,00007.0323,E,1,03,4.16,102.7,M,47.0,M,,*6

$GPRMC,164303.000,A,5212.2309,N,00007.0330,E,0.58,102.99,311018,,,A*62

$GPGGA,164304.000,5212.2307,N,00007.0335,E,1,03,4.16,102.6,M,47.0,M,,*6

$GPRMC,164306.000,A,5212.2306,N,00007.0340,E,0.54,106.35,311018,,,A*61

$GPGGA,164306.207,5212.2305,N,00007.0344,E,1,03,4.16,102.6,M,47.0,M,,*6

$GPRMC,164309.000,A,5212.2301,N,00007.0347,E,0.58,132.02,311018,,,A*61

$GPGGA,164310.000,5212.2301,N,00007.0346,E,6,02,99.99,102.6,M,47.0,M,,*

$GPGGA,164312.000,,,,,0,02,,,M,,M,,*79

$GPRMC,164312.000,V,,,,,0.59,137.44,311018,,,N*4D

$GPGGA,164315.000,,,,,0,03,,,M,,M,,*7F

$GPRMC,164315.000,V,,,,,0.52,81.51,311018,,,N*79

$GPRMC,164317.000,V,,,,,0.57,78.53,311018,,,N*7A

$GPGGA,164318.000,,,,,0,03,,,M,,M,,*72

$GPGGA,164321.000,,,,,0,03,,,M,,M,,*78

$GPRMC,164321.000,V,,,,,0.47,79.97,311018,,,N*77

$GPRMC,164323.000,V,,,,,0.48,88.56,311018,,,N*79

$GPGGA,164324.000,,,,,0,03,,,M,,M,,*7D

$GPGGA,164327.000,5212.2297,N,00007.0382,E,1,03,4.15,102.5,M,47.0,M,,*6B

$GPRMC,164327.000,A,5212.2297,N,00007.0382,E,0.62,117.02,311018,,,A*64

$GPRMC,164329.000,A,5212.2297,N,00007.0384,E,0.48,103.41,311018,,,A*66

$GPGGA,164330.000,5212.2298,N,00007.0386,E,1,03,4.15,102.5,M,47.0,M,,*6

$GPRMC,164333.000,A,5212.2296,N,00007.0394,E,0.38,101.26,311018,,,A*69

$GPGGA,164334.000,5212.2296,N,00007.0395,E,1,03,4.15,102.5,M,47.0,M,,*6

$GPRMC,164336.000,A,5212.2295,N,00007.0398,E,0.27,138.26,311018,,,A*67

$GPGGA,164336.205,5212.2294,N,00007.0398,E,1,03,4.15,102.5,M,47.0,M,,*64

$GPRMC,164339.000,A,5212.2293,N,00007.0399,E,0.21,108.72,311018,,,A*6B

$GPGGA,164340.000,5212.2293,N,00007.0400,E,1,03,4.15,102.5,M,47.0,M,,*6

$GPRMC,164342.000,A,5212.2292,N,00007.0402,E,0.27,45.00,311018,,,A*58

$GPGGA,164342.215,5212.2292,N,00007.0402,E,1,03,4.15,102.5,M,47.0,M,,*6

$GPRMC,164345.000,A,5212.2293,N,00007.0405,E,0.36,69.56,311018,,,A*54

$GPGGA,164346.000,5212.2294,N,00007.0407,E,1,03,4.15,102.5,M,47.0,M,,*6

$GPRMC,164348.000,A,5212.2295,N,00007.0410,E,0.28,85.32,311018,,,A*54

$GPGGA,164348.213,5212.2295,N,00007.0410,E,1,03,4.15,102.5,M,47.0,M,,*6

$GPRMC,164351.000,A,5212.2295,N,00007.0413,E,0.09,62.09,311018,,,A*5D

$GPGGA,164352.000,5212.2295,N,00007.0413,E,1,03,4.15,102.5,M,47.0,M,,*6

$GPRMC,164354.000,V,,,,,0.14,65.11,311018,,,E*7B

$GPGGA,164354.235,,,,,0,03,,,M,,M,,*7E

$GPGGA,164357.000,5212.2294,N,00007.0417,E,1,03,4.15,102.5,M,47.0,M,,*64

$GPRMC,164357.000,A,5212.2294,N,00007.0417,E,0.21,161.25,311018,,,A*68

$GPRMC,164359.000,A,5212.2293,N,00007.0417,E,0.13,187.16,311018,,,A*68

$GPGGA,164400.000,5212.2292,N,00007.0417,E,1,03,4.15,102.5,M,47.0,M,,*6

$GPRMC,164403.000,A,5212.2292,N,00007.0423,E,0.56,105.02,311018,,,A*68

$GPGGA,164404.000,5212.2291,N,00007.0425,E,1,03,4.15,102.5,M,47.0,M,,*6

$GPRMC,164406.000,A,5212.2285,N,00007.0436,E,0.87,120.73,311018,,,A*62

$GPGGA,164406.215,5212.2282,N,00007.0449,E,1,03,4.15,102.5,M,47.0,M,,*6

$GPRMC,164409.000,A,5212.2276,N,00007.0454,E,0.96,130.20,311018,,,A*62

$GPGGA,164410.000,5212.2281,N,00007.0446,E,1,03,4.15,102.4,M,47.0,M,,*61

$GPRMC,164412.000,A,5212.2284,N,00007.0442,E,0.56,77.52,311018,,,A*59

$GPGGA,164412.215,5212.2285,N,00007.0435,E,1,03,4.15,102.4,M,47.0,M,,*6

$GPRMC,164415.000,A,5212.2287,N,00007.0423,E,0.30,38.57,311018,,,A*54

$GPGGA,164416.000,5212.2288,N,00007.0424,E,1,03,4.15,102.4,M,47.0,M,,*6

$GPRMC,164418.000,A,5212.2289,N,00007.0425,E,0.21,53.86,311018,,,A*50

$GPGGA,164418.215,5212.2289,N,00007.0425,E,1,03,4.15,102.4,M,47.0,M,,*6

$GPRMC,164421.000,A,5212.2290,N,00007.0428,E,0.45,51.08,311018,,,A*59

$GPGGA,164422.000,5212.2290,N,00007.0429,E,1,03,4.15,102.4,M,47.0,M,,*69

$GPRMC,164424.000,A,5212.2291,N,00007.0431,E,0.05,94.91,311018,,,A*58

$GPGGA,164424.215,5212.2291,N,00007.0431,E,1,03,4.15,102.4,M,47.0,M,,*6

$GPRMC,164427.000,A,5212.2292,N,00007.0432,E,0.18,127.83,311018,,,A*6D

$GPGGA,164428.000,5212.2291,N,00007.0433,E,1,03,4.15,102.4,M,47.0,M,,*6

$GPRMC,164430.000,A,5212.2290,N,00007.0435,E,0.54,111.95,311018,,,A*64

$GPGGA,164430.215,5212.2290,N,00007.0436,E,1,03,4.15,102.4,M,47.0,M,,*6

$GPRMC,164433.000,A,5212.2283,N,00007.0454,E,0.79,110.31,311018,,,A*62

$GPGGA,164434.000,5212.2281,N,00007.0457,E,1,03,4.15,102.3,M,47.0,M,,*6

$GPRMC,164436.000,A,5212.2279,N,00007.0457,E,0.42,98.53,311018,,,A*5C

$GPGGA,164436.203,5212.2278,N,00007.0459,E,1,03,4.14,102.3,M,47.0,M,,*6

$GPRMC,164439.000,A,5212.2277,N,00007.0457,E,0.24,100.77,311018,,,A*6B

$GPGGA,164440.000,5212.2277,N,00007.0458,E,1,03,4.14,102.3,M,47.0,M,,*6

$GPRMC,164442.000,A,5212.2278,N,00007.0460,E,0.31,124.78,311018,,,A*61

$GPGGA,164442.215,5212.2278,N,00007.0460,E,1,03,4.15,102.3,M,47.0,M,,*6

$GPRMC,164445.000,A,5212.2277,N,00007.0464,E,0.18,18.69,311018,,,A*58

$GPGGA,164446.000,5212.2277,N,00007.0464,E,1,03,4.15,102.3,M,47.0,M,,*6

$GPRMC,164448.000,A,5212.2277,N,00007.0464,E,0.29,218.10,311018,,,A*6B

$GPGGA,164448.215,5212.2276,N,00007.0463,E,1,03,4.15,102.3,M,47.0,M,,*6
<----------------------- New Session ----------------------->
***  5.1.80 -- 23:59:45  ***

$GPRMC,235947.799,V,,,,,0.00,0.00,050180,,,N*48

$GPGGA,235948.799,,,,,0,00,,,M,,M,,*7E

$GPGGA,235950.800,,,,,0,00,,,M,,M,,*78

$GPRMC,235950.800,V,,,,,0.00,0.00,050180,,,N*41

$GPRMC,235952.800,V,,,,,0.00,0.00,050180,,,N*43

$GPGGA,235953.800,,,,,0,00,,,M,,M,,*7B

$GPGGA,235955.800,,,,,0,00,,,M,,M,,*7D

$GPRMC,235955.800,V,,,,,0.00,0.00,050180,,,N*44

$GPRMC,235957.800,V,,,,,0.00,0.00,050180,,,N*46

$GPGGA,235958.588,,,,,0,00,,,M,,M,,*7D

$GPGGA,164938.085,,,,,0,00,,,M,,M,,*74

$GPRMC,164938.085,V,,,,,0.00,0.00,090180,,,N*41

$GPRMC,164940.085,V,,,,,0.00,0.00,090180,,,N*4E

$GPGGA,164941.085,,,,,0,00,,,M,,M,,*7A

$GPGGA,164942.304,,,,,0,00,,,M,,M,,*73

$GPRMC,164942.304,V,,,,,0.00,0.00,090180,,,N*46

$GPRMC,164944.304,V,,,,,0.00,0.00,090180,,,N*40

$GPGGA,164945.304,,,,,0,00,,,M,,M,,*74

$GPGGA,164947.304,,,,,0,00,,,M,,M,,*76

$GPRMC,164947.304,V,,,,,0.00,0.00,090180,,,N*43

$GPRMC,164948.294,V,,,,,0.00,0.00,090180,,,N*44

$GPGGA,164949.294,,,,,0,00,,,M,,M,,*70

$GPGGA,164951.294,,,,,0,00,,,M,,M,,*79

$GPRMC,164951.294,V,,,,,0.00,0.00,090180,,,N*4C

$GPRMC,164953.294,V,,,,,0.00,0.00,090180,,,N*4E

$GPGGA,164954.081,,,,,0,00,,,M,,M,,*7A

$GPGGA,164955.302,,,,,0,00,,,M,,M,,*73

$GPRMC,164955.302,V,,,,,0.00,0.00,090180,,,N*46

$GPRMC,164957.302,V,,,,,0.00,0.00,090180,,,N*44

$GPGGA,164958.302,,,,,0,00,,,M,,M,,*7E

$GPGGA,165000.081,,,,,0,00,,,M,,M,,*73

$GPRMC,165000.081,V,,,,,0.00,0.00,311018,,,N*4C

$GPGGA,165002.302,,,,,0,00,,,M,,M,,*79

$GPRMC,165002.302,V,,,,,0.00,0.00,311018,,,N*46

$GPRMC,165004.302,V,,,,,0.00,0.00,311018,,,N*40

$GPGGA,165005.302,,,,,0,00,,,M,,M,,*7E

$GPGGA,165006.302,,,,,0,00,,,M,,M,,*7D

$GPRMC,165006.302,V,,,,,0.00,0.00,311018,,,N*42

$GPRMC,165008.302,V,,,,,0.00,0.00,311018,,,N*4C

$GPGGA,165009.302,,,,,0,00,,,M,,M,,*72

$GPGGA,165011.302,,,,,0,00,,,M,,M,,*7B

$GPRMC,165011.302,V,,,,,0.00,0.00,311018,,,N*44

$GPRMC,165012.295,V,,,,,0.00,0.00,311018,,,N*48

$GPGGA,165013.295,,,,,0,00,,,M,,M,,*76

$GPGGA,165015.295,,,,,0,00,,,M,,M,,*70

$GPRMC,165015.295,V,,,,,0.00,0.00,311018,,,N*4F

$GPRMC,165017.295,V,,,,,0.00,0.00,311018,,,N*4D

$GPGGA,165018.082,,,,,0,00,,,M,,M,,*79

$GPGGA,165019.303,,,,,0,00,,,M,,M,,*72

$GPRMC,165019.303,V,,,,,0.00,0.00,311018,,,N*4D

$GPRMC,165021.303,V,,,,,0.00,0.00,311018,,,N*46

$GPGGA,165022.303,,,,,0,00,,,M,,M,,*7A

$GPGGA,165024.082,,,,,0,00,,,M,,M,,*76

$GPRMC,165024.082,V,,,,,0.00,0.00,311018,,,N*49

$GPRMC,165025.303,V,,,,,0.00,0.00,311018,,,N*42

$GPGGA,165026.303,,,,,0,00,,,M,,M,,*7E

$GPGGA,165028.303,,,,,0,00,,,M,,M,,*70

$GPRMC,165028.303,V,,,,,0.00,0.00,311018,,,N*4F

$GPRMC,165030.082,V,,,,,0.00,0.00,311018,,,N*4C

$GPGGA,165030.303,,,,,0,00,,,M,,M,,*79

$GPGGA,165032.303,,,,,0,00,,,M,,M,,*7B

$GPRMC,165032.303,V,,,,,0.00,0.00,311018,,,N*44

$GPRMC,165034.303,V,,,,,0.00,0.00,311018,,,N*42

$GPGGA,165035.303,,,,,0,00,,,M,,M,,*7C

$GPGGA,165037.086,,,,,0,00,,,M,,M,,*70

$GPRMC,165037.086,V,,,,,0.00,0.00,311018,,,N*4F

$GPRMC,165039.086,V,,,,,0.00,0.00,311018,,,N*41

$GPGGA,165040.086,,,,,0,00,,,M,,M,,*70

$GPGGA,165042.086,,,,,0,00,,,M,,M,,*72

$GPRMC,165042.086,V,,,,,0.00,0.00,311018,,,N*4D

$GPRMC,165044.086,V,,,,,0.00,0.00,311018,,,N*4B

$GPGGA,165045.086,,,,,0,00,,,M,,M,,*75

$GPGGA,165047.086,,,,,0,00,,,M,,M,,*77

$GPRMC,165047.086,V,,,,,0.00,0.00,311018,,,N*48

$GPRMC,165049.086,V,,,,,0.00,0.00,311018,,,N*46

$GPGGA,165050.086,,,,,0,00,,,M,,M,,*71

$GPGGA,165052.086,,,,,0,00,,,M,,M,,*73

$GPRMC,165052.086,V,,,,,0.00,0.00,311018,,,N*4C

$GPRMC,165054.086,V,,,,,0.00,0.00,311018,,,N*4A

$GPGGA,165055.086,,,,,0,00,,,M,,M,,*74

$GPGGA,165057.086,,,,,0,00,,,M,,M,,*76

$GPRMC,165057.086,V,,,,,0.00,0.00,311018,,,N*49

$GPRMC,165059.086,V,,,,,0.00,0.00,311018,,,N*47

$GPGGA,165100.083,,,,,0,00,,,M,,M,,*70

$GPGGA,165102.083,,,,,0,00,,,M,,M,,*72

$GPRMC,165102.083,V,,,,,0.00,0.00,311018,,,N*4D

$GPRMC,165104.083,V,,,,,0.00,0.00,311018,,,N*4B

$GPGGA,165105.083,,,,,0,00,,,M,,M,,*75

$GPGGA,165106.294,,,,,0,00,,,M,,M,,*72

$GPRMC,165106.294,V,,,,,0.00,0.00,311018,,,N*4D

$GPRMC,165108.294,V,,,,,0.00,0.00,311018,,,N*43

$GPGGA,165109.294,,,,,0,00,,,M,,M,,*7D

$GPGGA,165111.294,,,,,0,00,,,M,,M,,*74

$GPRMC,165111.294,V,,,,,0.00,0.00,311018,,,N*4B

$GPRMC,165112.294,V,,,,,0.00,0.00,311018,,,N*48

$GPGGA,165113.294,,,,,0,00,,,M,,M,,*76

$GPGGA,165115.294,,,,,0,00,,,M,,M,,*70

$GPRMC,165115.294,V,,,,,0.00,0.00,311018,,,N*4F

$GPRMC,165117.294,V,,,,,0.00,0.00,311018,,,N*4D

$GPGGA,165118.075,,,,,0,00,,,M,,M,,*70

$GPGGA,165119.294,,,,,0,00,,,M,,M,,*7C

$GPRMC,165119.294,V,,,,,0.00,0.00,311018,,,N*43

$GPRMC,165121.294,V,,,,,0.00,0.00,311018,,,N*48

$GPGGA,165122.294,,,,,0,00,,,M,,M,,*74

$GPGGA,165124.086,,,,,0,00,,,M,,M,,*73

$GPRMC,165124.086,V,,,,,0.00,0.00,311018,,,N*4C

$GPRMC,165126.086,V,,,,,0.00,0.00,311018,,,N*4E

$GPGGA,165127.086,,,,,0,00,,,M,,M,,*70

$GPGGA,165129.086,,,,,0,00,,,M,,M,,*7E

$GPRMC,165129.086,V,,,,,0.00,0.00,311018,,,N*41

$GPRMC,165131.086,V,,,,,0.00,0.00,311018,,,N*48

$GPGGA,165132.086,,,,,0,00,,,M,,M,,*74

$GPGGA,165134.086,,,,,0,00,,,M,,M,,*72

$GPRMC,165134.086,V,,,,,0.00,0.00,311018,,,N*4D

$GPRMC,165136.086,V,,,,,0.00,0.00,311018,,,N*4F

$GPGGA,165137.086,,,,,0,00,,,M,,M,,*71

$GPGGA,165139.086,,,,,0,00,,,M,,M,,*7F

$GPRMC,165139.086,V,,,,,0.00,0.00,311018,,,N*40

$GPRMC,165141.086,V,,,,,0.00,0.00,311018,,,N*4F

$GPGGA,165142.081,,,,,0,00,,,M,,M,,*74

$GPGGA,165143.302,,,,,0,00,,,M,,M,,*7D

$GPRMC,165143.302,V,,,,,0.00,0.00,311018,,,N*42

$GPRMC,165145.302,V,,,,,0.00,0.00,311018,,,N*44

$GPGGA,165146.302,,,,,0,00,,,M,,M,,*78

$GPGGA,165148.086,,,,,0,00,,,M,,M,,*79

$GPRMC,165148.086,V,,,,,0.00,0.00,311018,,,N*46

$GPRMC,165150.086,V,,,,,0.00,0.00,311018,,,N*4F

$GPGGA,165151.086,,,,,0,00,,,M,,M,,*71

$GPGGA,165153.086,,,,,0,00,,,M,,M,,*73

$GPRMC,165153.086,V,,,,,0.00,0.00,311018,,,N*4C

$GPRMC,165155.086,V,,,,,0.00,0.00,311018,,,N*4A

$GPGGA,165156.086,,,,,0,00,,,M,,M,,*76

$GPGGA,165158.086,,,,,0,00,,,M,,M,,*78

$GPRMC,165158.086,V,,,,,0.00,0.00,311018,,,N*47

$GPRMC,165200.086,V,,,,,0.00,0.00,311018,,,N*49

$GPGGA,165201.086,,,,,0,00,,,M,,M,,*77

$GPGGA,165203.086,,,,,0,00,,,M,,M,,*75

$GPRMC,165203.086,V,,,,,0.00,0.00,311018,,,N*4A

$GPRMC,165205.086,V,,,,,0.00,0.00,311018,,,N*4C

$GPGGA,165206.076,,,,,0,00,,,M,,M,,*7F

$GPGGA,165207.301,,,,,0,03,,,M,,M,,*7E

$GPRMC,165207.301,V,,,,,0.04,344.93,311018,,,N*4F

$GPRMC,165210.000,V,,,,,0.41,2.75,311018,,,N*43

$GPGGA,165211.000,,,,,0,03,,,M,,M,,*7B

$GPGGA,165212.206,,,,,0,03,,,M,,M,,*7C

$GPRMC,165212.206,V,,,,,0.42,342.37,311018,,,N*47

$GPRMC,165215.000,V,,,,,0.32,327.14,311018,,,N*41

$GPGGA,165216.000,,,,,0,03,,,M,,M,,*7C

$GPGGA,165218.000,,,,,0,03,,,M,,M,,*72

$GPRMC,165218.000,V,,,,,0.25,355.72,311018,,,N*4F

$GPGGA,165221.000,,,,,0,03,,,M,,M,,*78

$GPRMC,165221.000,V,,,,,0.19,108.22,311018,,,N*45

$GPRMC,165223.000,V,,,,,0.42,100.37,311018,,,N*45

$GPGGA,165224.000,,,,,0,03,,,M,,M,,*7D
