
$GPRMC,235947.799,V,,,,,0.00,0.00,050180,,,N*48

$GPGGA,235948.799,,,,,0,00,,,M,,M,,*7E

$GPGGA,235950.544,,,,,0,00,,,M,,M,,*75

$GPRMC,235950.544,V,,,,,0.00,0.00,050180,,,N*4C

$GPRMC,150327.091,V,,,,,0.00,0.00,090180,,,N*47

$GPGGA,150328.091,,,,,0,00,,,M,,M,,*7D

$GPGGA,150330.091,,,,,0,00,,,M,,M,,*74

$GPRMC,150330.091,V,,,,,0.00,0.00,090180,,,N*41

$GPRMC,150332.091,V,,,,,0.00,0.00,090180,,,N*43

$GPGGA,150333.091,,,,,0,00,,,M,,M,,*77

$GPGGA,150335.091,,,,,0,00,,,M,,M,,*71

$GPRMC,150335.091,V,,,,,0.00,0.00,090180,,,N*44

$GPRMC,150337.091,V,,,,,0.00,0.00,090180,,,N*46

$GPGGA,150338.091,,,,,0,00,,,M,,M,,*7C

$GPGGA,150340.091,,,,,0,00,,,M,,M,,*73

$GPRMC,150340.091,V,,,,,0.00,0.00,090180,,,N*46

$GPRMC,150342.091,V,,,,,0.00,0.00,090180,,,N*44

$GPGGA,150343.091,,,,,0,00,,,M,,M,,*70

$GPGGA,150345.091,,,,,0,00,,,M,,M,,*76

$GPRMC,150345.091,V,,,,,0.00,0.00,090180,,,N*43

$GPRMC,150347.091,V,,,,,0.00,0.00,090180,,,N*41

$GPGGA,150348.091,,,,,0,00,,,M,,M,,*7B

$GPGGA,150350.091,,,,,0,00,,,M,,M,,*72

$GPRMC,150350.091,V,,,,,0.00,0.00,311018,,,N*4D

$GPRMC,150352.091,V,,,,,0.00,0.00,311018,,,N*4F

$GPGGA,150353.091,,,,,0,00,,,M,,M,,*71

$GPGGA,150355.091,,,,,0,00,,,M,,M,,*77

$GPRMC,150355.091,V,,,,,0.00,0.00,311018,,,N*48

$GPRMC,150357.091,V,,,,,0.00,0.00,311018,,,N*4A

$GPGGA,150358.091,,,,,0,00,,,M,,M,,*7A

$GPGGA,150400.091,,,,,0,00,,,M,,M,,*70

$GPRMC,150400.091,V,,,,,0.00,0.00,311018,,,N*4F

$GPRMC,150402.091,V,,,,,0.00,0.00,311018,,,N*4D

$GPGGA,150403.091,,,,,0,00,,,M,,M,,*73

$GPGGA,150405.091,,,,,0,00,,,M,,M,,*75

$GPRMC,150405.091,V,,,,,0.00,0.00,311018,,,N*4A

$GPRMC,150407.091,V,,,,,0.00,0.00,311018,,,N*48

$GPGGA,150408.091,,,,,0,00,,,M,,M,,*78

$GPGGA,150410.091,,,,,0,00,,,M,,M,,*71

$GPRMC,150410.091,V,,,,,0.00,0.00,311018,,,N*4E

$GPRMC,150412.091,V,,,,,0.00,0.00,311018,,,N*4C

$GPGGA,150413.091,,,,,0,00,,,M,,M,,*72

$GPGGA,150415.091,,,,,0,00,,,M,,M,,*74

$GPRMC,150415.091,V,,,,,0.00,0.00,311018,,,N*4B

$GPRMC,150417.091,V,,,,,0.00,0.00,311018,,,N*49

$GPGGA,150418.091,,,,,0,00,,,M,,M,,*79

$GPGGA,150420.091,,,,,0,00,,,M,,M,,*72

$GPRMC,150420.091,V,,,,,0.00,0.00,311018,,,N*4D

$GPRMC,150422.091,V,,,,,0.00,0.00,311018,,,N*4F

$GPGGA,150423.091,,,,,0,00,,,M,,M,,*71

$GPGGA,150425.091,,,,,0,00,,,M,,M,,*77

$GPRMC,150425.091,V,,,,,0.00,0.00,311018,,,N*48

$GPRMC,150427.091,V,,,,,0.00,0.00,311018,,,N*4A

$GPGGA,150428.091,,,,,0,00,,,M,,M,,*7A

$GPGGA,150430.091,,,,,0,00,,,M,,M,,*73

$GPRMC,150430.091,V,,,,,0.00,0.00,311018,,,N*4C

$GPRMC,150432.091,V,,,,,0.00,0.00,311018,,,N*4E

$GPGGA,150433.091,,,,,0,00,,,M,,M,,*70

$GPGGA,150435.091,,,,,0,00,,,M,,M,,*76

$GPRMC,150435.091,V,,,,,0.00,0.00,311018,,,N*49

$GPRMC,150436.303,V,,,,,0.00,0.00,311018,,,N*42

$GPGGA,150437.303,,,,,0,00,,,M,,M,,*7C

$GPGGA,150439.303,,,,,0,00,,,M,,M,,*72

$GPRMC,150439.303,V,,,,,0.00,0.00,311018,,,N*4D

$GPRMC,150441.303,V,,,,,0.00,0.00,311018,,,N*42

$GPGGA,150442.082,,,,,0,00,,,M,,M,,*74

$GPGGA,150443.303,,,,,0,00,,,M,,M,,*7F

$GPRMC,150443.303,V,,,,,0.00,0.00,311018,,,N*40

$GPRMC,150445.303,V,,,,,0.00,0.00,311018,,,N*46

$GPGGA,150446.303,,,,,0,00,,,M,,M,,*7A

$GPGGA,150448.082,,,,,0,00,,,M,,M,,*7E

$GPRMC,150448.082,V,,,,,0.00,0.00,311018,,,N*41

$GPRMC,150449.303,V,,,,,0.00,0.00,311018,,,N*4A

$GPGGA,150450.303,,,,,0,00,,,M,,M,,*7D

$GPGGA,150452.303,,,,,0,00,,,M,,M,,*7F

$GPRMC,150452.303,V,,,,,0.00,0.00,311018,,,N*40

$GPRMC,150454.097,V,,,,,0.00,0.00,311018,,,N*48

$GPGGA,150455.097,,,,,0,00,,,M,,M,,*76

$GPGGA,150457.097,,,,,0,00,,,M,,M,,*74

$GPRMC,150457.097,V,,,,,0.00,0.00,311018,,,N*4B

$GPRMC,150459.097,V,,,,,0.00,0.00,311018,,,N*45

$GPGGA,150500.082,,,,,0,00,,,M,,M,,*73

$GPGGA,150501.303,,,,,0,00,,,M,,M,,*78

$GPRMC,150501.303,V,,,,,0.00,0.00,311018,,,N*47

$GPRMC,150503.303,V,,,,,0.00,0.00,311018,,,N*45

$GPGGA,150504.303,,,,,0,00,,,M,,M,,*7D

$GPGGA,150506.082,,,,,0,00,,,M,,M,,*75

$GPRMC,150506.082,V,,,,,0.00,0.00,311018,,,N*4A

$GPRMC,150507.303,V,,,,,0.00,0.00,311018,,,N*41

$GPGGA,150508.303,,,,,0,00,,,M,,M,,*71

$GPGGA,150510.303,,,,,0,00,,,M,,M,,*78

$GPRMC,150510.303,V,,,,,0.00,0.00,311018,,,N*47

$GPRMC,150512.080,V,,,,,0.00,0.00,311018,,,N*4D

$GPGGA,150512.299,,,,,0,00,,,M,,M,,*78

$GPGGA,150514.299,,,,,0,00,,,M,,M,,*7E

$GPRMC,150514.299,V,,,,,0.00,0.00,311018,,,N*41

$GPRMC,150516.299,V,,,,,0.00,0.00,311018,,,N*43

$GPGGA,150517.299,,,,,0,00,,,M,,M,,*7D

$GPGGA,150519.098,,,,,0,00,,,M,,M,,*70

$GPRMC,150519.098,V,,,,,0.00,0.00,311018,,,N*4F

$GPRMC,150521.098,V,,,,,0.00,0.00,311018,,,N*44

$GPGGA,150522.098,,,,,0,00,,,M,,M,,*78

$GPGGA,150524.098,,,,,0,00,,,M,,M,,*7E

$GPRMC,150524.098,V,,,,,0.00,0.00,311018,,,N*41

$GPRMC,150526.098,V,,,,,0.00,0.00,311018,,,N*43

$GPGGA,150527.098,,,,,0,00,,,M,,M,,*7D

$GPGGA,150529.098,,,,,0,00,,,M,,M,,*73

$GPRMC,150529.098,V,,,,,0.00,0.00,311018,,,N*4C

$GPRMC,150531.097,V,,,,,0.00,0.00,311018,,,N*4A

$GPGGA,150532.097,,,,,0,00,,,M,,M,,*76

$GPGGA,150534.097,,,,,0,00,,,M,,M,,*70

$GPRMC,150534.097,V,,,,,0.00,0.00,311018,,,N*4F

$GPRMC,150536.082,V,,,,,0.00,0.00,311018,,,N*49

$GPGGA,150537.082,,,,,0,00,,,M,,M,,*77

$GPGGA,150539.082,,,,,0,00,,,M,,M,,*79

$GPRMC,150539.082,V,,,,,0.00,0.00,311018,,,N*46

$GPRMC,150541.082,V,,,,,0.00,0.00,311018,,,N*49

$GPGGA,150542.082,,,,,0,00,,,M,,M,,*75

$GPGGA,150543.303,,,,,0,00,,,M,,M,,*7E

$GPRMC,150543.303,V,,,,,0.00,0.00,311018,,,N*41

$GPRMC,150545.303,V,,,,,0.00,0.00,311018,,,N*47

$GPGGA,150546.303,,,,,0,00,,,M,,M,,*7B

$GPGGA,150548.081,,,,,0,00,,,M,,M,,*7C

$GPRMC,150548.081,V,,,,,0.00,0.00,311018,,,N*43

$GPRMC,150550.081,V,,,,,0.00,0.00,311018,,,N*4A

$GPGGA,150551.081,,,,,0,00,,,M,,M,,*74

$GPGGA,150553.081,,,,,0,00,,,M,,M,,*76

$GPRMC,150553.081,V,,,,,0.00,0.00,311018,,,N*49

$GPRMC,150554.288,V,,,,,0.00,0.00,311018,,,N*45

$GPGGA,150555.288,,,,,0,00,,,M,,M,,*7B

$GPGGA,150557.288,,,,,0,00,,,M,,M,,*79

$GPRMC,150557.288,V,,,,,0.00,0.00,311018,,,N*46

$GPRMC,150559.288,V,,,,,0.00,0.00,311018,,,N*48

$GPGGA,150600.088,,,,,0,00,,,M,,M,,*7A

$GPGGA,150602.088,,,,,0,00,,,M,,M,,*78

$GPRMC,150602.088,V,,,,,0.00,0.00,311018,,,N*47

$GPRMC,150604.088,V,,,,,0.00,0.00,311018,,,N*41

$GPGGA,150605.088,,,,,0,00,,,M,,M,,*7F

$GPGGA,150607.085,,,,,0,00,,,M,,M,,*70

$GPRMC,150607.085,V,,,,,0.00,0.00,311018,,,N*4F

$GPRMC,150609.085,V,,,,,0.00,0.00,311018,,,N*41

$GPGGA,150610.085,,,,,0,00,,,M,,M,,*76

$GPGGA,150612.085,,,,,0,00,,,M,,M,,*74

$GPRMC,150612.085,V,,,,,0.00,0.00,311018,,,N*4B

$GPRMC,150614.085,V,,,,,0.00,0.00,311018,,,N*4D

$GPGGA,150615.085,,,,,0,00,,,M,,M,,*73

$GPGGA,150617.085,,,,,0,00,,,M,,M,,*71

$GPRMC,150617.085,V,,,,,0.00,0.00,311018,,,N*4E

$GPRMC,150619.085,V,,,,,0.00,0.00,311018,,,N*40

$GPGGA,150620.085,,,,,0,00,,,M,,M,,*75

$GPGGA,150622.085,,,,,0,00,,,M,,M,,*77

$GPRMC,150622.085,V,,,,,0.00,0.00,311018,,,N*48

$GPRMC,150624.085,V,,,,,0.00,0.00,311018,,,N*4E

$GPGGA,150625.085,,,,,0,00,,,M,,M,,*70

$GPGGA,150627.085,,,,,0,00,,,M,,M,,*72

$GPRMC,150627.085,V,,,,,0.00,0.00,311018,,,N*4D

$GPRMC,150629.085,V,,,,,0.00,0.00,311018,,,N*43

$GPGGA,150630.085,,,,,0,00,,,M,,M,,*74

$GPGGA,150632.085,,,,,0,00,,,M,,M,,*76

$GPRMC,150632.085,V,,,,,0.00,0.00,311018,,,N*49

$GPRMC,150634.085,V,,,,,0.00,0.00,311018,,,N*4F

$GPGGA,150635.085,,,,,0,00,,,M,,M,,*71

$GPGGA,150637.085,,,,,0,00,,,M,,M,,*73

$GPRMC,150637.085,V,,,,,0.00,0.00,311018,,,N*4C

$GPRMC,150639.085,V,,,,,0.00,0.00,311018,,,N*42

$GPGGA,150640.085,,,,,0,00,,,M,,M,,*73

$GPGGA,150642.085,,,,,0,00,,,M,,M,,*71

$GPRMC,150642.085,V,,,,,0.00,0.00,311018,,,N*4E

$GPRMC,150644.085,V,,,,,0.00,0.00,311018,,,N*48

$GPGGA,150645.085,,,,,0,00,,,M,,M,,*76

$GPGGA,150647.085,,,,,0,00,,,M,,M,,*74

$GPRMC,150647.085,V,,,,,0.00,0.00,311018,,,N*4B

$GPRMC,150649.085,V,,,,,0.00,0.00,311018,,,N*45

$GPGGA,150650.085,,,,,0,00,,,M,,M,,*72

$GPGGA,150652.085,,,,,0,00,,,M,,M,,*70

$GPRMC,150652.085,V,,,,,0.00,0.00,311018,,,N*4F

$GPRMC,150654.085,V,,,,,0.00,0.00,311018,,,N*49

$GPGGA,150655.085,,,,,0,00,,,M,,M,,*77

$GPGGA,150657.085,,,,,0,00,,,M,,M,,*75

$GPRMC,150657.085,V,,,,,0.00,0.00,311018,,,N*4A

$GPRMC,150659.085,V,,,,,0.00,0.00,311018,,,N*44

$GPGGA,150700.085,,,,,0,00,,,M,,M,,*76

$GPGGA,150702.085,,,,,0,00,,,M,,M,,*74

$GPRMC,150702.085,V,,,,,0.00,0.00,311018,,,N*4B

$GPRMC,150704.085,V,,,,,0.00,0.00,311018,,,N*4D

$GPGGA,150705.085,,,,,0,00,,,M,,M,,*73

$GPGGA,150707.085,,,,,0,00,,,M,,M,,*71

$GPRMC,150707.085,V,,,,,0.00,0.00,311018,,,N*4E

$GPRMC,150709.085,V,,,,,0.00,0.00,311018,,,N*40

$GPGGA,150710.085,,,,,0,00,,,M,,M,,*77

$GPGGA,150712.085,,,,,0,00,,,M,,M,,*75

$GPRMC,150712.085,V,,,,,0.00,0.00,311018,,,N*4A

$GPRMC,150714.085,V,,,,,0.00,0.00,311018,,,N*4C

$GPGGA,150715.085,,,,,0,00,,,M,,M,,*72

$GPGGA,150717.085,,,,,0,00,,,M,,M,,*70

$GPRMC,150717.085,V,,,,,0.00,0.00,311018,,,N*4F

$GPRMC,150719.085,V,,,,,0.00,0.00,311018,,,N*41

$GPGGA,150720.085,,,,,0,00,,,M,,M,,*74

$GPGGA,150722.085,,,,,0,00,,,M,,M,,*76

$GPRMC,150722.085,V,,,,,0.00,0.00,311018,,,N*49

$GPRMC,150724.089,V,,,,,0.00,0.00,311018,,,N*43

$GPGGA,150725.087,,,,,0,03,,,M,,M,,*70

$GPGGA,150727.087,,,,,0,03,,,M,,M,,*72

$GPRMC,150727.087,V,,,,,1.76,201.46,311018,,,N*4F

$GPRMC,150729.087,V,,,,,0.46,168.06,311018,,,N*4B

$GPGGA,150730.087,,,,,0,03,,,M,,M,,*74

$GPGGA,150732.087,,,,,0,03,,,M,,M,,*76

$GPRMC,150732.087,V,,,,,0.47,170.45,311018,,,N*4E

$GPRMC,150734.087,V,,,,,0.36,168.20,311018,,,N*44

$GPGGA,150735.087,,,,,0,03,,,M,,M,,*71

$GPGGA,150737.087,,,,,0,03,,,M,,M,,*73

$GPRMC,150737.087,V,,,,,0.14,8.12,311018,,,N*41

$GPRMC,150739.087,V,,,,,0.45,258.08,311018,,,N*47

$GPGGA,150740.087,,,,,0,03,,,M,,M,,*73

$GPGGA,150742.087,,,,,0,03,,,M,,M,,*71

$GPRMC,150742.087,V,,,,,0.11,89.31,311018,,,N*7E

$GPRMC,150744.087,V,,,,,0.25,276.92,311018,,,N*44

$GPGGA,150745.087,,,,,0,03,,,M,,M,,*76

$GPGGA,150747.087,,,,,0,03,,,M,,M,,*74

$GPRMC,150747.087,V,,,,,0.33,133.65,311018,,,N*4A

$GPRMC,150749.087,V,,,,,0.29,151.79,311018,,,N*46

$GPGGA,150750.087,,,,,0,03,,,M,,M,,*72

$GPGGA,150752.087,,,,,0,03,,,M,,M,,*70

$GPRMC,150752.087,V,,,,,0.22,137.79,311018,,,N*47

$GPRMC,150754.086,V,,,,,0.22,221.16,311018,,,N*4D

$GPGGA,150755.086,,,,,0,03,,,M,,M,,*76

$GPGGA,150757.086,,,,,0,03,,,M,,M,,*74

$GPRMC,150757.086,V,,,,,0.22,320.52,311018,,,N*4E

$GPRMC,150759.086,V,,,,,0.09,225.30,311018,,,N*49

$GPGGA,150800.086,,,,,0,03,,,M,,M,,*79

$GPGGA,150802.306,,,,,0,03,,,M,,M,,*70

$GPRMC,150802.306,V,,,,,0.33,187.89,311018,,,N*43

$GPRMC,150804.306,V,,,,,0.32,181.99,311018,,,N*43

$GPGGA,150805.306,,,,,0,03,,,M,,M,,*77

$GPGGA,150807.306,,,,,0,04,,,M,,M,,*72

$GPRMC,150807.306,V,,,,,0.11,341.18,311018,,,N*46

$GPRMC,150810.000,V,,,,,0.37,1.68,311018,,,N*41

$GPGGA,150811.000,,,,,0,04,,,M,,M,,*70

$GPGGA,150813.000,,,,,0,04,,,M,,M,,*72

$GPRMC,150813.000,V,,,,,0.06,92.55,311018,,,N*74

$GPRMC,150815.000,V,,,,,0.38,90.58,311018,,,N*70

$GPGGA,150816.000,,,,,0,04,,,M,,M,,*77

$GPGGA,150818.000,,,,,0,04,,,M,,M,,*79

$GPRMC,150818.000,V,,,,,0.38,179.07,311018,,,N*41

$GPRMC,150820.000,V,,,,,0.29,103.44,311018,,,N*40

$GPGGA,150821.000,,,,,0,04,,,M,,M,,*73

$GPGGA,150823.000,,,,,0,04,,,M,,M,,*71

$GPRMC,150823.000,V,,,,,0.49,57.64,311018,,,N*77

$GPRMC,150825.000,V,,,,,0.35,39.18,311018,,,N*79

$GPGGA,150826.000,,,,,0,04,,,M,,M,,*74

$GPGGA,150828.000,,,,,0,04,,,M,,M,,*7A

$GPRMC,150828.000,V,,,,,0.24,36.75,311018,,,N*70

$GPRMC,150830.000,V,,,,,0.26,18.70,311018,,,N*72

$GPGGA,150831.000,,,,,0,04,,,M,,M,,*72

$GPGGA,150833.000,,,,,0,04,,,M,,M,,*70

$GPRMC,150833.000,V,,,,,0.16,348.03,311018,,,N*40

$GPRMC,150835.000,V,,,,,0.18,9.21,311018,,,N*4E

$GPGGA,150836.000,,,,,0,04,,,M,,M,,*75

$GPGGA,150838.000,,,,,0,04,,,M,,M,,*7B

$GPRMC,150838.000,V,,,,,0.20,301.44,311018,,,N*40

$GPRMC,150840.000,V,,,,,0.07,238.27,311018,,,N*44

$GPGGA,150841.000,,,,,0,04,,,M,,M,,*75

$GPGGA,150843.000,,,,,0,04,,,M,,M,,*77

$GPRMC,150843.000,V,,,,,0.12,39.41,311018,,,N*70

$GPRMC,150845.000,V,,,,,0.18,7.79,311018,,,N*4A

$GPGGA,150846.000,,,,,0,04,,,M,,M,,*72

$GPGGA,150848.000,,,,,0,04,,,M,,M,,*7C

$GPRMC,150848.000,V,,,,,0.46,43.75,311018,,,N*70

$GPRMC,150850.000,V,,,,,0.33,61.75,311018,,,N*7B

$GPGGA,150851.000,,,,,0,04,,,M,,M,,*74

$GPGGA,150853.000,,,,,0,04,,,M,,M,,*76

$GPRMC,150853.000,V,,,,,0.25,22.12,311018,,,N*79

$GPRMC,150855.000,V,,,,,0.14,125.09,311018,,,N*41

$GPGGA,150856.000,,,,,0,04,,,M,,M,,*73

$GPGGA,150858.000,,,,,0,04,,,M,,M,,*7D

$GPRMC,150858.000,V,,,,,0.20,104.66,311018,,,N*41

$GPRMC,150900.000,V,,,,,0.15,73.38,311018,,,N*71

$GPGGA,150901.000,,,,,0,03,,,M,,M,,*77

$GPGGA,150903.000,,,,,0,04,,,M,,M,,*72

$GPRMC,150903.000,V,,,,,0.10,247.97,311018,,,N*47

$GPRMC,150905.000,V,,,,,0.51,230.41,311018,,,N*4F

$GPGGA,150906.000,,,,,0,04,,,M,,M,,*77

$GPGGA,150908.000,,,,,0,04,,,M,,M,,*79

$GPRMC,150908.000,V,,,,,0.27,204.65,311018,,,N*42

$GPRMC,150910.000,A,5212.2416,N,00007.0322,E,0.47,228.93,311018,,,A*68

$GPGGA,150911.000,5212.2416,N,00007.0323,E,1,04,5.72,0.1,M,47.0,M,,*67

$GPRMC,150913.000,A,5212.2415,N,00007.0322,E,0.72,223.85,311018,,,A*62

$GPGGA,150914.000,5212.2414,N,00007.0320,E,1,04,5.71,0.2,M,47.0,M,,*63

$GPRMC,150916.000,A,5212.2415,N,00007.0316,E,0.53,271.28,311018,,,A*63

$GPGGA,150917.000,5212.2420,N,00007.0326,E,1,04,5.70,1.0,M,47.0,M,,*63

$GPRMC,150919.000,A,5212.2419,N,00007.0325,E,0.64,225.72,311018,,,A*6A

$GPGGA,150920.000,5212.2421,N,00007.0332,E,1,04,5.69,2.3,M,47.0,M,,*6B

$GPRMC,150922.000,A,5212.2430,N,00007.0353,E,0.31,238.29,311018,,,A*6A

$GPGGA,150923.000,5212.2434,N,00007.0364,E,1,04,5.68,4.4,M,47.0,M,,*6F

$GPRMC,150925.000,A,5212.2444,N,00007.0388,E,0.09,164.74,311018,,,A*61

$GPGGA,150926.000,5212.2450,N,00007.0402,E,1,04,5.67,6.9,M,47.0,M,,*6F

$GPRMC,150928.000,A,5212.2459,N,00007.0422,E,0.13,4.20,311018,,,A*6A

$GPGGA,150929.000,5212.2458,N,00007.0420,E,1,04,7.82,9.0,M,47.0,M,,*67

$GPRMC,150931.000,A,5212.2460,N,00007.0422,E,0.99,247.75,311018,,,A*6F

$GPGGA,150932.000,5212.2458,N,00007.0416,E,1,04,5.65,10.0,M,47.0,M,,*5B

$GPRMC,150934.000,A,5212.2455,N,00007.0407,E,1.50,236.38,311018,,,A*60

$GPGGA,150935.000,5212.2458,N,00007.0414,E,1,04,5.64,11.1,M,47.0,M,,*5F

$GPRMC,150937.000,A,5212.2469,N,00007.0435,E,0.36,264.46,311018,,,A*62

$GPGGA,150938.000,5212.2470,N,00007.0434,E,1,04,5.63,12.9,M,47.0,M,,*56

$GPRMC,150940.000,A,5212.2474,N,00007.0446,E,0.63,232.33,311018,,,A*6B

$GPGGA,150941.000,5212.2471,N,00007.0436,E,1,04,5.62,13.5,M,47.0,M,,*57

$GPRMC,150943.000,A,5212.2472,N,00007.0438,E,0.23,244.92,311018,,,A*69

$GPGGA,150944.000,5212.2475,N,00007.0447,E,1,04,5.61,14.2,M,47.0,M,,*53

$GPRMC,150946.000,A,5212.2474,N,00007.0442,E,0.32,38.62,311018,,,A*51

$GPGGA,150947.000,5212.2470,N,00007.0432,E,1,04,5.61,15.0,M,47.0,M,,*54

$GPRMC,150949.000,A,5212.2476,N,00007.0446,E,0.16,91.26,311018,,,A*5D

$GPGGA,150950.000,5212.2479,N,00007.0460,E,1,04,5.60,15.6,M,47.0,M,,*5B

$GPRMC,150952.000,A,5212.2481,N,00007.0464,E,0.82,90.24,311018,,,A*51

$GPGGA,150953.000,5212.2481,N,00007.0462,E,1,04,5.59,16.0,M,47.0,M,,*52

$GPRMC,150955.000,A,5212.2481,N,00007.0458,E,0.46,33.29,311018,,,A*55

$GPGGA,150956.000,5212.2480,N,00007.0453,E,1,04,5.58,16.3,M,47.0,M,,*56

$GPRMC,150958.000,A,5212.2477,N,00007.0450,E,0.83,215.36,311018,,,A*68

$GPGGA,150959.000,5212.2479,N,00007.0461,E,1,04,5.57,16.8,M,47.0,M,,*5A

$GPRMC,151001.000,A,5212.2482,N,00007.0479,E,0.91,93.47,311018,,,A*54

$GPGGA,151002.000,5212.2481,N,00007.0479,E,1,04,5.56,17.4,M,47.0,M,,*5E

$GPRMC,151004.000,A,5212.2486,N,00007.0492,E,1.17,58.05,311018,,,A*5E

$GPGGA,151005.000,5212.2488,N,00007.0499,E,1,04,5.55,17.9,M,47.0,M,,*50

$GPRMC,151007.000,A,5212.2488,N,00007.0498,E,1.13,69.97,311018,,,A*54

$GPGGA,151008.000,5212.2485,N,00007.0488,E,1,04,5.54,18.7,M,47.0,M,,*50

$GPRMC,151010.000,A,5212.2481,N,00007.0470,E,0.06,41.15,311018,,,A*58

$GPGGA,151011.000,5212.2481,N,00007.0471,E,1,04,5.53,19.6,M,47.0,M,,*5D

$GPRMC,151013.000,A,5212.2480,N,00007.0470,E,0.59,234.77,311018,,,A*64

$GPGGA,151014.000,5212.2478,N,00007.0465,E,1,04,5.53,20.7,M,47.0,M,,*50

$GPRMC,151016.000,A,5212.2479,N,00007.0472,E,0.62,231.54,311018,,,A*69

$GPGGA,151017.000,5212.2477,N,00007.0468,E,1,04,5.52,21.3,M,47.0,M,,*55

$GPRMC,151019.000,A,5212.2484,N,00007.0488,E,0.55,217.28,311018,,,A*6A

$GPGGA,151020.000,5212.2494,N,00007.0522,E,1,04,5.51,22.3,M,47.0,M,,*53

$GPRMC,151022.000,A,5212.2505,N,00007.0549,E,1.03,70.83,311018,,,A*56

$GPGGA,151023.000,5212.2506,N,00007.0556,E,1,04,5.50,23.5,M,47.0,M,,*5F

$GPRMC,151025.000,A,5212.2510,N,00007.0570,E,0.28,137.67,311018,,,A*6F

$GPGGA,151026.000,5212.2510,N,00007.0570,E,1,04,5.49,24.0,M,47.0,M,,*53

$GPRMC,151028.000,A,5212.2516,N,00007.0581,E,0.60,66.95,311018,,,A*5E

$GPGGA,151029.000,5212.2517,N,00007.0583,E,1,04,5.48,24.8,M,47.0,M,,*5E

$GPRMC,151031.000,A,5212.2519,N,00007.0590,E,0.82,236.13,311018,,,A*6C

$GPGGA,151032.000,5212.2522,N,00007.0598,E,1,04,5.48,26.0,M,47.0,M,,*52

$GPRMC,151034.000,A,5212.2524,N,00007.0603,E,0.51,250.12,311018,,,A*61

$GPGGA,151035.000,5212.2527,N,00007.0610,E,1,04,5.47,26.8,M,47.0,M,,*54

$GPRMC,151037.000,A,5212.2529,N,00007.0612,E,1.09,245.72,311018,,,A*61

$GPGGA,151038.000,5212.2530,N,00007.0608,E,1,04,5.46,27.2,M,47.0,M,,*5C

$GPRMC,151040.000,A,5212.2530,N,00007.0609,E,0.40,238.69,311018,,,A*6F

$GPGGA,151041.000,5212.2534,N,00007.0620,E,1,04,5.45,27.3,M,47.0,M,,*5E

$GPRMC,151043.000,A,5212.2542,N,00007.0643,E,0.14,180.27,311018,,,A*6C

$GPGGA,151044.000,5212.2543,N,00007.0645,E,1,04,5.44,27.4,M,47.0,M,,*5E

$GPRMC,151046.000,A,5212.2547,N,00007.0659,E,0.09,101.70,311018,,,A*60

$GPGGA,151047.000,5212.2549,N,00007.0667,E,1,04,5.43,27.5,M,47.0,M,,*51

$GPRMC,151049.000,A,5212.2559,N,00007.0692,E,0.30,15.29,311018,,,A*55

$GPGGA,151050.000,5212.2563,N,00007.0703,E,1,04,5.42,27.8,M,47.0,M,,*50

$GPRMC,151052.000,A,5212.2568,N,00007.0718,E,0.58,75.27,311018,,,A*58

$GPGGA,151053.000,5212.2570,N,00007.0723,E,1,04,5.41,27.7,M,47.0,M,,*5F

$GPRMC,151055.000,A,5212.2572,N,00007.0734,E,0.20,105.45,311018,,,A*67

$GPGGA,151056.000,5212.2569,N,00007.0725,E,1,05,2.06,27.0,M,47.0,M,,*56

$GPRMC,151058.000,A,5212.2574,N,00007.0735,E,0.34,231.52,311018,,,A*6A

$GPGGA,151059.000,5212.2577,N,00007.0740,E,1,05,2.06,26.8,M,47.0,M,,*5C

$GPRMC,151101.000,A,5212.2579,N,00007.0751,E,0.25,133.41,311018,,,A*6B

$GPGGA,151102.000,5212.2578,N,00007.0750,E,1,05,2.06,27.0,M,47.0,M,,*54

$GPRMC,151104.000,A,5212.2580,N,00007.0752,E,0.04,47.85,311018,,,A*52

$GPGGA,151105.000,5212.2580,N,00007.0753,E,1,05,2.06,27.2,M,47.0,M,,*55

$GPRMC,151107.000,A,5212.2578,N,00007.0750,E,0.11,254.13,311018,,,A*6F

$GPGGA,151108.000,5212.2574,N,00007.0740,E,1,05,2.05,27.7,M,47.0,M,,*57

$GPRMC,151110.000,A,5212.2578,N,00007.0750,E,0.16,286.70,311018,,,A*64

$GPGGA,151111.000,5212.2579,N,00007.0755,E,1,05,2.05,28.0,M,47.0,M,,*5E

$GPRMC,151113.000,A,5212.2579,N,00007.0756,E,0.11,78.41,311018,,,A*56

$GPGGA,151114.000,5212.2579,N,00007.0757,E,1,05,2.05,28.1,M,47.0,M,,*58

$GPRMC,151116.000,A,5212.2579,N,00007.0757,E,0.20,97.14,311018,,,A*51

$GPGGA,151117.000,5212.2579,N,00007.0758,E,1,05,2.05,28.1,M,47.0,M,,*54

$GPRMC,151119.000,A,5212.2579,N,00007.0757,E,0.15,234.74,311018,,,A*65

$GPGGA,151120.000,5212.2579,N,00007.0757,E,1,05,2.05,28.1,M,47.0,M,,*5F

$GPRMC,151122.000,A,5212.2578,N,00007.0757,E,0.10,94.25,311018,,,A*55

$GPGGA,151123.000,5212.2578,N,00007.0758,E,1,05,2.05,28.2,M,47.0,M,,*51

$GPRMC,151125.000,A,5212.2578,N,00007.0759,E,0.22,325.97,311018,,,A*6D

$GPGGA,151126.000,5212.2579,N,00007.0758,E,1,05,2.05,28.2,M,47.0,M,,*55

$GPRMC,151128.000,A,5212.2580,N,00007.0757,E,0.07,342.63,311018,,,A*64

$GPGGA,151129.000,5212.2580,N,00007.0757,E,1,05,2.05,28.2,M,47.0,M,,*53

$GPRMC,151131.000,A,5212.2580,N,00007.0756,E,0.31,236.01,311018,,,A*6E

$GPGGA,151132.000,5212.2579,N,00007.0755,E,1,06,1.66,28.2,M,47.0,M,,*58

$GPRMC,151134.000,A,5212.2578,N,00007.0752,E,0.40,232.30,311018,,,A*68

$GPGGA,151135.000,5212.2577,N,00007.0750,E,1,06,1.66,28.2,M,47.0,M,,*54

$GPRMC,151137.000,A,5212.2577,N,00007.0747,E,0.14,266.00,311018,,,A*63

$GPGGA,151138.000,5212.2577,N,00007.0747,E,1,06,1.66,28.3,M,47.0,M,,*5E

$GPRMC,151140.000,A,5212.2576,N,00007.0744,E,0.30,215.43,311018,,,A*64

$GPGGA,151141.000,5212.2576,N,00007.0743,E,1,06,1.66,28.3,M,47.0,M,,*55

$GPRMC,151143.000,A,5212.2575,N,00007.0743,E,0.16,161.06,311018,,,A*66

$GPGGA,151144.000,5212.2574,N,00007.0743,E,1,06,1.66,28.3,M,47.0,M,,*52

$GPRMC,151146.000,A,5212.2574,N,00007.0744,E,0.09,221.24,311018,,,A*6C

$GPGGA,151147.000,5212.2574,N,00007.0743,E,1,06,1.66,28.3,M,47.0,M,,*51

$GPRMC,151149.000,A,5212.2573,N,00007.0743,E,0.12,303.48,311018,,,A*62

$GPGGA,151150.000,5212.2574,N,00007.0743,E,1,06,1.66,28.3,M,47.0,M,,*57

$GPRMC,151152.000,A,5212.2574,N,00007.0743,E,0.12,43.63,311018,,,A*51

$GPGGA,151153.000,5212.2574,N,00007.0743,E,1,06,1.66,28.4,M,47.0,M,,*53

$GPRMC,151155.000,A,5212.2574,N,00007.0744,E,0.18,291.04,311018,,,A*67

$GPGGA,151156.000,5212.2574,N,00007.0743,E,1,06,1.66,28.4,M,47.0,M,,*56

$GPRMC,151158.000,A,5212.2573,N,00007.0742,E,0.25,228.41,311018,,,A*66

$GPGGA,151159.000,5212.2573,N,00007.0741,E,1,06,1.66,28.4,M,47.0,M,,*5C

$GPRMC,151201.000,A,5212.2573,N,00007.0739,E,0.85,272.17,311018,,,A*63

$GPGGA,151202.000,5212.2571,N,00007.0734,E,1,06,1.66,28.5,M,47.0,M,,*50

$GPRMC,151204.000,A,5212.2570,N,00007.0730,E,0.65,243.55,311018,,,A*66

$GPGGA,151205.000,5212.2569,N,00007.0728,E,1,06,1.66,28.8,M,47.0,M,,*5E

$GPRMC,151207.000,A,5212.2569,N,00007.0726,E,0.58,237.51,311018,,,A*63

$GPGGA,151208.000,5212.2568,N,00007.0725,E,1,06,1.66,29.1,M,47.0,M,,*57

$GPRMC,151210.000,A,5212.2568,N,00007.0722,E,0.43,262.57,311018,,,A*6C

$GPGGA,151211.000,5212.2568,N,00007.0720,E,1,06,1.66,29.2,M,47.0,M,,*59

$GPRMC,151213.000,A,5212.2568,N,00007.0717,E,0.23,298.55,311018,,,A*68

$GPGGA,151214.000,5212.2568,N,00007.0716,E,1,06,1.66,29.2,M,47.0,M,,*59

$GPRMC,151216.000,A,5212.2568,N,00007.0716,E,0.11,270.68,311018,,,A*65

$GPGGA,151217.000,5212.2568,N,00007.0715,E,1,06,1.66,29.2,M,47.0,M,,*59

$GPRMC,151219.000,A,5212.2569,N,00007.0716,E,0.16,21.87,311018,,,A*5B

$GPGGA,151220.000,5212.2570,N,00007.0716,E,1,06,1.66,29.2,M,47.0,M,,*57

$GPRMC,151222.000,A,5212.2571,N,00007.0720,E,0.52,73.33,311018,,,A*57

$GPGGA,151223.000,5212.2571,N,00007.0722,E,1,06,1.66,29.2,M,47.0,M,,*52

$GPRMC,151225.000,A,5212.2573,N,00007.0728,E,0.64,69.22,311018,,,A*54

$GPGGA,151226.000,5212.2574,N,00007.0732,E,1,06,1.66,29.3,M,47.0,M,,*52

$GPRMC,151228.000,A,5212.2578,N,00007.0742,E,0.49,75.11,311018,,,A*5C

$GPGGA,151229.000,5212.2579,N,00007.0743,E,1,06,1.66,29.5,M,47.0,M,,*50

$GPRMC,151231.000,A,5212.2579,N,00007.0746,E,0.18,85.97,311018,,,A*54

$GPGGA,151232.000,5212.2579,N,00007.0747,E,1,06,1.66,29.5,M,47.0,M,,*5E

$GPRMC,151234.000,A,5212.2579,N,00007.0747,E,0.16,71.65,311018,,,A*58

$GPGGA,151235.000,5212.2579,N,00007.0748,E,1,06,1.66,29.5,M,47.0,M,,*56

$GPRMC,151237.000,A,5212.2579,N,00007.0748,E,0.19,271.29,311018,,,A*61

$GPGGA,151238.000,5212.2579,N,00007.0747,E,1,06,1.66,29.5,M,47.0,M,,*54

$GPRMC,151240.000,A,5212.2579,N,00007.0745,E,0.05,128.22,311018,,,A*65

$GPGGA,151241.000,5212.2579,N,00007.0745,E,1,06,1.66,29.5,M,47.0,M,,*58

$GPRMC,151243.000,A,5212.2577,N,00007.0744,E,0.15,247.02,311018,,,A*60

$GPGGA,151244.000,5212.2577,N,00007.0743,E,1,06,1.66,29.5,M,47.0,M,,*55

$GPRMC,151246.000,A,5212.2578,N,00007.0742,E,0.24,156.88,311018,,,A*6F

$GPGGA,151247.000,5212.2577,N,00007.0742,E,1,06,1.66,29.5,M,47.0,M,,*57

$GPRMC,151249.000,A,5212.2577,N,00007.0743,E,0.09,49.78,311018,,,A*51

$GPGGA,151250.000,5212.2577,N,00007.0743,E,1,06,1.66,29.5,M,47.0,M,,*50

$GPRMC,151252.000,A,5212.2577,N,00007.0745,E,0.17,222.94,311018,,,A*6F

$GPGGA,151253.000,5212.2576,N,00007.0744,E,1,06,1.66,29.5,M,47.0,M,,*55

$GPRMC,151255.000,A,5212.2576,N,00007.0744,E,0.10,297.54,311018,,,A*6D

$GPGGA,151256.000,5212.2576,N,00007.0744,E,1,06,1.66,29.5,M,47.0,M,,*50

$GPRMC,151258.000,A,5212.2576,N,00007.0744,E,0.31,193.45,311018,,,A*64

$GPGGA,151259.000,5212.2575,N,00007.0743,E,1,06,1.66,29.5,M,47.0,M,,*5B

$GPRMC,151301.000,A,5212.2574,N,00007.0742,E,0.06,326.54,311018,,,A*65

$GPGGA,151302.000,5212.2574,N,00007.0742,E,1,06,1.66,29.5,M,47.0,M,,*54

$GPRMC,151304.000,A,5212.2574,N,00007.0741,E,0.24,247.92,311018,,,A*6F

$GPGGA,151305.000,5212.2574,N,00007.0740,E,1,06,1.65,29.5,M,47.0,M,,*52

$GPRMC,151307.000,A,5212.2573,N,00007.0736,E,0.50,239.76,311018,,,A*6B

$GPGGA,151308.000,5212.2572,N,00007.0734,E,1,06,1.65,29.5,M,47.0,M,,*5A

$GPRMC,151310.000,A,5212.2571,N,00007.0731,E,0.25,266.15,311018,,,A*65

$GPGGA,151311.000,5212.2571,N,00007.0730,E,1,06,1.65,29.5,M,47.0,M,,*55

$GPRMC,151313.000,A,5212.2571,N,00007.0729,E,0.31,242.30,311018,,,A*6B

$GPGGA,151314.000,5212.2570,N,00007.0728,E,1,06,1.65,29.5,M,47.0,M,,*58

$GPRMC,151316.000,A,5212.2570,N,00007.0724,E,0.37,265.87,311018,,,A*6D

$GPGGA,151317.000,5212.2570,N,00007.0723,E,1,06,1.65,29.5,M,47.0,M,,*50

$GPRMC,151319.000,A,5212.2571,N,00007.0721,E,0.15,336.74,311018,,,A*6D

$GPGGA,151320.000,5212.2571,N,00007.0721,E,1,06,1.65,29.5,M,47.0,M,,*57

$GPRMC,151322.000,A,5212.2572,N,00007.0720,E,0.19,270.21,311018,,,A*68

$GPGGA,151323.000,5212.2572,N,00007.0719,E,1,06,1.65,29.5,M,47.0,M,,*5C

$GPRMC,151325.000,A,5212.2572,N,00007.0718,E,0.20,281.11,311018,,,A*63

$GPGGA,151326.000,5212.2572,N,00007.0717,E,1,06,1.65,29.5,M,47.0,M,,*57

$GPRMC,151328.000,A,5212.2571,N,00007.0715,E,0.42,245.03,311018,,,A*6F

$GPGGA,151329.000,5212.2571,N,00007.0713,E,1,06,1.65,29.5,M,47.0,M,,*5F

$GPRMC,151331.000,A,5212.2570,N,00007.0711,E,0.27,242.23,311018,,,A*64

$GPGGA,151332.000,5212.2569,N,00007.0710,E,1,06,1.65,29.5,M,47.0,M,,*5F

$GPRMC,151334.000,A,5212.2568,N,00007.0707,E,0.44,232.26,311018,,,A*68

$GPGGA,151335.000,5212.2567,N,00007.0705,E,1,06,1.65,29.5,M,47.0,M,,*52

$GPRMC,151337.000,A,5212.2566,N,00007.0703,E,0.49,237.69,311018,,,A*62

$GPGGA,151338.000,5212.2564,N,00007.0700,E,1,05,2.87,29.6,M,47.0,M,,*56

$GPRMC,151340.000,A,5212.2567,N,00007.0710,E,0.20,254.24,311018,,,A*62

$GPGGA,151341.000,5212.2566,N,00007.0710,E,1,05,2.87,29.6,M,47.0,M,,*5B

$GPRMC,151343.000,A,5212.2570,N,00007.0722,E,0.07,358.71,311018,,,A*6E

$GPGGA,151344.000,5212.2573,N,00007.0730,E,1,06,1.72,29.8,M,47.0,M,,*5C

$GPRMC,151346.000,A,5212.2575,N,00007.0736,E,0.24,64.55,311018,,,A*50

$GPGGA,151347.000,5212.2577,N,00007.0742,E,1,05,2.87,29.8,M,47.0,M,,*54

$GPRMC,151349.000,A,5212.2579,N,00007.0751,E,0.42,78.91,311018,,,A*57

$GPGGA,151350.000,5212.2579,N,00007.0753,E,1,05,2.87,29.8,M,47.0,M,,*5C

$GPRMC,151352.000,A,5212.2580,N,00007.0756,E,0.56,35.68,311018,,,A*56

$GPGGA,151353.000,5212.2581,N,00007.0758,E,1,05,2.87,29.8,M,47.0,M,,*53

$GPRMC,151355.000,A,5212.2583,N,00007.0761,E,0.33,28.41,311018,,,A*52

$GPGGA,151356.000,5212.2584,N,00007.0762,E,1,05,2.87,29.8,M,47.0,M,,*5A
