$66
$GPVTG,7.38,T,,M,2.05,N,3.81,K,A*3C
,,6.03,4.19,4.33*00
$GPRMC,114650.000,A,5211.9235,N,00007.2016,E,2.05,7.38,051118,,,A*66
$GPVTG,7.38,T,,M,2.05,N,3.81,K,A*3C
$GPGGA,114652.000,5211.9252,N,00007.2019,E,1,04,4.21,44.9,M,47.0,M,,*56
$GPGSA,A,3,09,23,01,17,,,,,,,,,6.04,4.21,4.33*0C
$GPRMC,114652.000,A,5211.9252,N,00007.2019,E,2.15,6.04,051118,,,A*65
$GPVTG,6.04,T,,M,2.15,N,3.98,K,A*3B
$GPGGA,114653.000,5211.9259,N,00007.2013,E,1,04,4.20,44.4,M,47.0,M,,*5A
$GPGSA,A,3,09,23,01,17,,,,,,,,,6.03,4.20,4.33*0A
$GPRMC,114653.000,A,5211.9259,N,00007.2013,E,2.23,359.74,051118,,,A*6E
$GPVTG,359.74,T,,M,2.23,N,4.13,K,A*34
$GPGGA,114654.000,5211.9283,N,00007.2016,E,1,04,4.20,43.6,M,47.0,M,,*5A
$GPGSA,A,3,09,23,01,17,,,,,,,,,6.03,4.20,4.33*0A
$GPGSV,4,1,14,03,68,074,14,23,60,176,25,22,46,085,,19,43,280,*78
$GPGSV,4,2,14,17,42,242,18,09,35,201,19,06,34,303,,01,31,137,24*72
$GPGSV,4,3,14,31,21,051,,11,10,155,,12,07,330,,18,05,135,*71
$GPGSV,4,4,14,14,04,040,,25,03,003,*7E
$GPRMC,114654.000,A,5211.9283,N,00007.2016,E,2.33,358.17,051118,,,A*6E
$GPVTG,358.17,T,,M,2.33,N,4.32,K,A*32
$GPGGA,114655.000,5211.9286,N,00007.2017,E,1,04,4.20,42.8,M,47.0,M,,*50
$GPGSA,A,3,09,23,01,17,,,,,,,,,6.03,4.20,4.33*0A
$GPRMC,114655.000,A,5211.9286,N,00007.2017,E,2.28,358.39,051118,,,A*6D
$GPVTG,358.39,T,,M,2.28,N,4.22,K,A*35
$GPGGA,114656.000,5211.9293,N,00007.2020,E,1,04,4.20,42.2,M,47.0,M,,*59
$GPGSA,A,3,09,23,01,17,,,,,,,,,6.03,4.20,4.33*0A
$GPRMC,114656.000,A,5211.9293,N,00007.2020,E,2.27,359.15,051118,,,A*6E
$GPVTG,359.15,T,,M,2.27,N,4.20,K,A*37
$GPGGA,114657.000,5211.9300,N,00007.2024,E,1,04,4.21,41.3,M,47.0,M,,*54
$GPGSA,A,3,09,23,01,17,,,,,,,,,6.03,4.21,4.32*0A
$GPRMC,114657.000,A,5211.9300,N,00007.2024,E,2.25,1.33,051118,,,A*68
$GPVTG,1.33,T,,M,2.25,N,4.16,K,A*3A
$GPGGA,114658.000,5211.9316,N,00007.2031,E,1,04,4.21,40.3,M,47.0,M,,*59
$GPGSA,A,3,09,23,01,17,,,,,,,,,6.03,4.21,4.32*0A
$GPRMC,114658.000,A,5211.9316,N,00007.2031,E,2.26,3.27,051118,,,A*60
$GPVTG,3.27,T,,M,2.26,N,4.20,K,A*3B
$GPGGA,114659.000,5211.9312,N,00007.2032,E,1,04,4.21,39.4,M,47.0,M,,*56
$GPGSA,A,3,09,23,01,17,,,,,,,,,6.03,4.21,4.32*0A
$GPGSV,4,1,14,03,68,074,,23,60,176,25,22,46,085,,19,43,279,*7B
$GPGSV,4,2,14,17,42,242,19,09,35,201,19,06,34,303,,01,31,137,25*72
$GPGSV,4,3,14,31,21,051,,11,10,155,,12,07,330,,14,04,040,*7F
$GPGSV,4,4,14,18,04,135,,25,03,003,*71
$GPRMC,114659.000,A,5211.9312,N,00007.2032,E,2.15,4.38,051118,,,A*6F
$GPVTG,4.38,T,,M,2.15,N,3.99,K,A*37
$GPGGA,114700.000,5211.9311,N,00007.2034,E,1,04,4.21,38.3,M,47.0,M,,*58
$GPGSA,A,3,09,23,01,17,,,,,,,,,6.03,4.21,4.32*0A
$GPRMC,114700.000,A,5211.9311,N,00007.2034,E,2.05,7.86,051118,,,A*60
$GPVTG,7.86,T,,M,2.05,N,3.80,K,A*38
$GPGGA,114701.000,5211.9315,N,00007.2041,E,1,04,4.21,37.5,M,47.0,M,,*56
$GPGSA,A,3,09,23,01,17,,,,,,,,,6.03,4.21,4.32*0A
$GPRMC,114701.000,A,5211.9315,N,00007.2041,E,1.99,10.93,051118,,,A*53
$GPVTG,10.93,T,,M,1.99,N,3.70,K,A*03
$GPGGA,114702.000,5211.9321,N,00007.2049,E,1,04,4.21,36.9,M,47.0,M,,*57
$GPGSA,A,3,09,23,01,17,,,,,,,,,6.03,4.21,4.32*0A
$GPRMC,114702.000,A,5211.9321,N,00007.2049,E,1.98,14.06,051118,,,A*56
$GPVTG,14.06,T,,M,1.98,N,3.66,K,A*0D
$GPGGA,114703.000,5211.9326,N,00007.2052,E,1,04,4.21,36.0,M,47.0,M,,*52
$GPGSA,A,3,09,23,01,17,,,,,,,,,6.03,4.21,4.32*0A
$GPRMC,114703.000,A,5211.9326,N,00007.2052,E,1.96,15.64,051118,,,A*51
$GPVTG,15.64,T,,M,1.96,N,3.63,K,A*03
$GPGGA,114704.000,5211.9326,N,00007.2056,E,1,04,3.79,35.4,M,47.0,M,,*5C
$GPGSA,A,3,09,23,01,17,,,,,,,,,3.91,3.79,0.97*05
$GPGSV,4,1,14,03,68,074,,23,61,175,25,22,45,085,,19,43,279,18*73
$GPGSV,4,2,14,17,42,242,20,09,35,201,19,06,34,303,,01,31,137,25*78
$GPGSV,4,3,14,31,21,051,,11,10,155,,12,07,330,,14,04,040,*7F
$GPGSV,4,4,14,18,04,135,,25,03,003,*71
$GPRMC,114704.000,A,5211.9326,N,00007.2056,E,1.90,16.79,051118,,,A*5B
$GPVTG,16.79,T,,M,1.90,N,3.51,K,A*0B
$GPGGA,114705.000,5211.9326,N,00007.2059,E,1,04,3.79,34.9,M,47.0,M,,*5E
$GPGSA,A,3,09,23,01,17,,,,,,,,,3.91,3.79,0.97*05
$GPRMC,114705.000,A,5211.9326,N,00007.2059,E,1.84,17.13,051118,,,A*5D
$GPVTG,17.13,T,,M,1.84,N,3.42,K,A*01
$GPGGA,114706.000,5211.9329,N,00007.2058,E,1,04,3.79,34.3,M,47.0,M,,*59
$GPGSA,A,3,09,23,01,17,,,,,,,,,3.92,3.79,0.97*06
$GPRMC,114706.000,A,5211.9329,N,00007.2058,E,1.81,14.15,051118,,,A*50
$GPVTG,14.15,T,,M,1.81,N,3.35,K,A*01
$GPGGA,114707.000,5211.9330,N,00007.2059,E,1,04,4.22,33.9,M,47.0,M,,*55
$GPGSA,A,3,09,23,01,17,,,,,,,,,6.04,4.22,4.32*0E
$GPRMC,114707.000,A,5211.9330,N,00007.2059,E,1.76,13.12,051118,,,A*50
$GPVTG,13.12,T,,M,1.76,N,3.25,K,A*08
$GPGGA,114708.000,5211.9327,N,00007.2058,E,1,04,4.22,33.6,M,47.0,M,,*52
$GPGSA,A,3,09,23,01,17,,,,,,,,,6.03,4.22,4.31*0A
$GPRMC,114708.000,A,5211.9327,N,00007.2058,E,1.67,11.91,051118,,,A*51
$GPVTG,11.91,T,,M,1.67,N,3.10,K,A*07
$GPGGA,114709.000,5211.9324,N,00007.2059,E,1,04,4.22,33.2,M,47.0,M,,*55
$GPGSA,A,3,09,23,01,17,,,,,,,,,6.04,4.22,4.31*0D
$GPGSV,4,1,14,03,68,074,,23,61,175,24,22,45,085,,19,43,279,18*72
$GPGSV,4,2,14,17,42,242,20,09,35,201,18,06,34,303,,01,31,137,25*79
$GPGSV,4,3,14,31,21,051,,11,10,155,,12,07,330,,14,04,040,*7F
$GPGSV,4,4,14,18,04,135,,25,03,003,*71
$GPRMC,114709.000,A,5211.9324,N,00007.2059,E,1.60,12.89,051118,,,A*5F
$GPVTG,12.89,T,,M,1.60,N,2.97,K,A*04
$GPGGA,114710.000,5211.9321,N,00007.2057,E,1,04,4.22,32.9,M,47.0,M,,*5C
$GPGSA,A,3,09,23,01,17,,,,,,,,,6.03,4.22,4.31*0A
$GPRMC,114710.000,A,5211.9321,N,00007.2057,E,1.55,10.83,051118,,,A*52
$GPVTG,10.83,T,,M,1.55,N,2.86,K,A*0A
$GPGGA,114711.000,5211.9317,N,00007.2058,E,1,04,4.22,32.5,M,47.0,M,,*5B
$GPGSA,A,3,09,23,01,17,,,,,,,,,6.03,4.22,4.31*0A
$GPRMC,114711.000,A,5211.9317,N,00007.2058,E,1.46,12.27,051118,,,A*57
$GPVTG,12.27,T,,M,1.46,N,2.70,K,A*0D
$GPGGA,114712.000,5211.9312,N,00007.2058,E,1,04,4.23,32.3,M,47.0,M,,*5A
$GPGSA,A,3,09,23,01,17,,,,,,,,,6.04,4.23,4.31*0C
$GPRMC,114712.000,A,5211.9312,N,00007.2058,E,1.37,15.09,051118,,,A*5C
$GPVTG,15.09,T,,M,1.37,N,2.55,K,A*07
$GPGGA,114713.000,5211.9308,N,00007.2053,E,1,04,3.80,32.1,M,47.0,M,,*57
$GPGSA,A,3,09,23,01,17,,,,,,,,,3.93,3.80,0.97*01
$GPRMC,114713.000,A,5211.9308,N,00007.2053,E,1.31,11.11,051118,,,A*56
$GPVTG,11.11,T,,M,1.31,N,2.43,K,A*0B
$GPGGA,114714.000,5211.9306,N,00007.2051,E,1,04,4.23,31.7,M,47.0,M,,*57
$GPGSA,A,3,09,23,01,17,,,,,,,,,6.03,4.23,4.31*0B
$GPGSV,4,1,14,03,68,074,,23,61,175,24,22,45,085,17,19,43,279,17*7B
$GPGSV,4,2,14,17,42,242,20,09,35,201,18,06,34,303,,01,31,137,26*7A
$GPGSV,4,3,14,31,21,050,,11,10,155,,12,07,330,,14,04,040,*7E
$GPGSV,4,4,14,18,04,135,,25,03,003,*71
$GPRMC,114714.000,A,5211.9306,N,00007.2051,E,1.27,12.13,051118,,,A*5B
$GPVTG,12.13,T,,M,1.27,N,2.35,K,A*0C
$GPGGA,114715.000,5211.9305,N,00007.2048,E,1,04,4.23,31.2,M,47.0,M,,*58
$GPGSA,A,3,09,23,01,17,,,,,,,,,6.04,4.23,4.31*0C
$GPRMC,114715.000,A,5211.9305,N,00007.2048,E,1.23,11.17,051118,,,A*52
$GPVTG,11.17,T,,M,1.23,N,2.27,K,A*0C
$GPGGA,114716.000,5211.9301,N,00007.2048,E,1,04,4.23,30.9,M,47.0,M,,*55
$GPGSA,A,3,09,23,01,17,,,,,,,,,6.03,4.23,4.30*0A
$GPRMC,114716.000,A,5211.9301,N,00007.2048,E,1.17,12.77,051118,,,A*57
$GPVTG,12.77,T,,M,1.17,N,2.17,K,A*0D
$GPGGA,114717.000,5211.9294,N,00007.2046,E,1,04,4.23,30.7,M,47.0,M,,*59
$GPGSA,A,3,09,23,01,17,,,,,,,,,6.04,4.23,4.31*0C
$GPRMC,114717.000,A,5211.9294,N,00007.2046,E,1.11,12.24,051118,,,A*55
$GPVTG,12.24,T,,M,1.11,N,2.05,K,A*0E
$GPGGA,114718.000,5211.9287,N,00007.2047,E,1,04,4.23,30.4,M,47.0,M,,*56
$GPGSA,A,3,09,23,01,17,,,,,,,,,6.04,4.23,4.30*0D
$GPRMC,114718.000,A,5211.9287,N,00007.2047,E,1.02,17.41,051118,,,A*5D
$GPVTG,17.41,T,,M,1.02,N,1.89,K,A*0D
$GPGGA,114719.000,5211.9280,N,00007.2046,E,1,04,3.81,30.0,M,47.0,M,,*5A
$GPGSA,A,3,09,23,01,17,,,,,,,,,3.93,3.81,0.97*00
$GPGSV,4,1,14,03,68,074,,23,61,175,23,22,45,085,17,19,43,279,14*7F
$GPGSV,4,2,14,17,42,242,20,09,35,201,17,06,34,303,,01,31,137,26*75
$GPGSV,4,3,14,31,21,050,,11,10,155,,12,07,330,,14,04,040,*7E
$GPGSV,4,4,14,18,04,135,,25,03,003,*71
$GPRMC,114719.000,A,5211.9280,N,00007.2046,E,0.96,20.05,051118,,,A*52
$GPVTG,20.05,T,,M,0.96,N,1.78,K,A*0B
$GPGGA,114720.000,5211.9258,N,00007.2049,E,1,04,3.81,34.8,M,47.0,M,,*56
$GPGSA,A,3,09,23,01,17,,,,,,,,,3.93,3.81,0.97*00
$GPRMC,114720.000,A,5211.9258,N,00007.2049,E,0.84,32.42,051118,,,A*51
$GPVTG,32.42,T,,M,0.84,N,1.56,K,A*04
$GPGGA,114721.000,5211.9255,N,00007.2053,E,1,04,3.81,34.6,M,47.0,M,,*5F
$GPGSA,A,3,09,23,01,17,,,,,,,,,3.93,3.81,0.97*00
$GPRMC,114721.000,A,5211.9255,N,00007.2053,E,0.84,40.02,051118,,,A*57
$GPVTG,40.02,T,,M,0.84,N,1.56,K,A*05
$GPGGA,114722.000,5211.9253,N,00007.2057,E,1,04,3.81,34.3,M,47.0,M,,*5B
$GPGSA,A,3,09,23,01,17,,,,,,,,,3.93,3.81,0.97*00
$GPRMC,114722.000,A,5211.9253,N,00007.2057,E,0.86,47.87,051118,,,A*5E
$GPVTG,47.87,T,,M,0.86,N,1.59,K,A*02
$GPGGA,114723.000,5211.9246,N,00007.2062,E,1,04,3.81,36.1,M,47.0,M,,*58
$GPGSA,A,3,09,23,01,17,,,,,,,,,3.93,3.81,0.97*00
$GPRMC,114723.000,A,5211.9246,N,00007.2062,E,0.88,53.19,051118,,,A*51
$GPVTG,53.19,T,,M,0.88,N,1.63,K,A*07
$GPGGA,114724.000,5211.9248,N,00007.2063,E,1,04,3.81,35.9,M,47.0,M,,*5B
$GPGSA,A,3,09,23,01,17,,,,,,,,,3.94,3.81,0.97*07
$GPGSV,4,1,14,03,68,074,,23,61,175,24,22,45,085,17,19,43,279,13*7F
$GPGSV,4,2,14,17,42,242,21,09,36,201,17,06,34,303,,01,31,137,26*77
$GPGSV,4,3,14,31,21,050,,11,10,155,,12,07,330,,14,04,040,*7E
$GPGSV,4,4,14,18,04,135,,25,03,003,*71
$GPRMC,114724.000,A,5211.9248,N,00007.2063,E,0.86,50.23,051118,,,A*5D
$GPVTG,50.23,T,,M,0.86,N,1.60,K,A*00
$GPGGA,114725.000,5211.9248,N,00007.2062,E,1,04,3.82,35.7,M,47.0,M,,*56
$GPGSA,A,3,09,23,01,17,,,,,,,,,3.94,3.82,0.97*04
$GPRMC,114725.000,A,5211.9248,N,00007.2062,E,0.83,46.66,051118,,,A*5E
$GPVTG,46.66,T,,M,0.83,N,1.53,K,A*03
$GPGGA,114726.000,5211.9246,N,00007.2060,E,1,04,3.82,35.6,M,47.0,M,,*58
$GPGSA,A,3,09,23,01,17,,,,,,,,,3.94,3.82,0.97*04
$GPRMC,114726.000,A,5211.9246,N,00007.2060,E,0.77,46.01,051118,,,A*5B
$GPVTG,46.01,T,,M,0.77,N,1.42,K,A*09
$GPGGA,114727.000,5211.9245,N,00007.2058,E,1,04,3.82,35.4,M,47.0,M,,*53
$GPGSA,A,3,09,23,01,17,,,,,,,,,3.94,3.82,0.97*04
$GPRMC,114727.000,A,5211.9245,N,00007.2058,E,0.69,44.01,051118,,,A*5F
$GPVTG,44.01,T,,M,0.69,N,1.28,K,A*08
$GPGGA,114728.000,5211.9246,N,00007.2057,E,1,04,3.82,35.2,M,47.0,M,,*56
$GPGSA,A,3,09,23,01,17,,,,,,,,,3.94,3.82,0.97*04
$GPRMC,114728.000,A,5211.9246,N,00007.2057,E,0.66,41.55,051118,,,A*57
$GPVTG,41.55,T,,M,0.66,N,1.23,K,A*08
$GPGGA,114729.000,5211.9248,N,00007.2056,E,1,04,3.82,35.0,M,47.0,M,,*5A
$GPGSA,A,3,09,23,01,17,,,,,,,,,3.94,3.82,0.97*04
$GPGSV,4,1,14,03,68,074,,23,61,175,24,22,45,085,17,19,43,279,14*78
$GPGSV,4,2,14,17,42,242,19,09,36,201,17,06,34,303,,01,31,137,25*7F
$GPGSV,4,3,14,31,21,050,,11,10,155,,12,07,329,,14,04,040,*76
$GPGSV,4,4,14,18,04,135,,25,03,003,*71
$GPRMC,114729.000,A,5211.9248,N,00007.2056,E,0.64,40.52,051118,,,A*5D
$GPVTG,40.52,T,,M,0.64,N,1.19,K,A*05
$GPGGA,114730.000,5211.9248,N,00007.2056,E,1,04,3.83,34.7,M,47.0,M,,*55
$GPGSA,A,3,09,23,01,17,,,,,,,,,3.95,3.83,0.97*04
$GPRMC,114730.000,A,5211.9248,N,00007.2056,E,0.63,42.37,051118,,,A*53
$GPVTG,42.37,T,,M,0.63,N,1.17,K,A*0D
$GPGGA,114731.000,5211.9251,N,00007.2054,E,1,04,3.82,34.6,M,47.0,M,,*5E
$GPGSA,A,3,09,23,01,17,,,,,,,,,3.94,3.82,0.97*04
$GPRMC,114731.000,A,5211.9251,N,00007.2054,E,0.62,37.29,051118,,,A*54
$GPVTG,37.29,T,,M,0.62,N,1.14,K,A*02
$GPGGA,114732.000,5211.9252,N,00007.2052,E,1,04,3.82,34.4,M,47.0,M,,*5A
$GPGSA,A,3,09,23,01,17,,,,,,,,,3.94,3.82,0.97*04
$GPRMC,114732.000,A,5211.9252,N,00007.2052,E,0.59,33.25,051118,,,A*52
$GPVTG,33.25,T,,M,0.59,N,1.10,K,A*06
$GPGGA,114733.000,5211.9256,N,00007.2050,E,1,04,3.82,34.2,M,47.0,M,,*5B
$GPGSA,A,3,09,23,01,17,,,,,,,,,3.95,3.82,0.97*05
$GPRMC,114733.000,A,5211.9256,N,00007.2050,E,0.61,29.24,051118,,,A*54
$GPVTG,29.24,T,,M,0.61,N,1.14,K,A*03
$GPGGA,114734.000,5211.9259,N,00007.2053,E,1,04,3.82,33.9,M,47.0,M,,*5C
$GPGSA,A,3,09,23,01,17,,,,,,,,,3.95,3.82,0.97*05
$GPGSV,4,1,14,03,68,074,,23,61,175,24,22,45,085,17,19,43,279,15*79
$GPGSV,4,2,14,17,41,242,21,09,36,201,18,06,34,303,,01,31,137,25*78
$GPGSV,4,3,14,31,21,050,,11,10,155,,12,07,329,,14,04,040,*76
$GPGSV,4,4,14,18,04,135,,25,03,003,*71
$GPRMC,114734.000,A,5211.9259,N,00007.2053,E,0.65,30.49,051118,,,A*58
$GPVTG,30.49,T,,M,0.65,N,1.21,K,A*02
$GPGGA,114735.000,5211.9261,N,00007.2052,E,1,04,3.83,33.6,M,47.0,M,,*59
$GPGSA,A,3,09,23,01,17,,,,,,,,,3.95,3.83,0.97*04
$GPRMC,114735.000,A,5211.9261,N,00007.2052,E,0.63,25.99,051118,,,A*5C
$GPVTG,25.99,T,,M,0.63,N,1.17,K,A*08
$GPGGA,114736.000,5211.9259,N,00007.2051,E,1,04,3.83,33.4,M,47.0,M,,*50
$GPGSA,A,3,09,23,01,17,,,,,,,,,3.96,3.83,0.97*07
$GPRMC,114736.000,A,5211.9259,N,00007.2051,E,0.59,25.44,051118,,,A*5E
$GPVTG,25.44,T,,M,0.59,N,1.09,K,A*0E
$GPGGA,114737.000,5211.9255,N,00007.2049,E,1,04,3.83,33.1,M,47.0,M,,*51
$GPGSA,A,3,09,23,01,17,,,,,,,,,3.95,3.83,0.97*04
$GPRMC,114737.000,A,5211.9255,N,00007.2049,E,0.48,29.62,051118,,,A*52
$GPVTG,29.62,T,,M,0.48,N,0.89,K,A*0F
$GPGGA,114738.000,5211.9254,N,00007.2049,E,1,04,3.83,33.2,M,47.0,M,,*5C
$GPGSA,A,3,09,23,01,17,,,,,,,,,3.95,3.83,0.97*04
$GPRMC,114738.000,A,5211.9254,N,00007.2049,E,0.45,34.67,051118,,,A*58
$GPVTG,34.67,T,,M,0.45,N,0.83,K,A*01
$GPGGA,114739.000,5211.9254,N,00007.2049,E,1,04,3.83,33.2,M,47.0,M,,*5D
$GPGSA,A,3,09,23,01,17,,,,,,,,,3.95,3.83,0.97*04
$GPGSV,4,1,14,03,68,074,,23,61,175,24,22,45,085,19,19,43,279,16*74
$GPGSV,4,2,14,17,41,242,21,09,36,201,20,06,34,303,,01,31,137,25*73
$GPGSV,4,3,14,31,21,050,,11,10,155,,12,07,329,,14,04,040,*76
$GPGSV,4,4,14,18,04,135,,25,03,003,*71
$GPRMC,114739.000,A,5211.9254,N,00007.2049,E,0.44,35.87,051118,,,A*57
$GPVTG,35.87,T,,M,0.44,N,0.82,K,A*0E
$GPGGA,114740.000,5211.9255,N,00007.2051,E,1,04,3.83,33.2,M,47.0,M,,*5B
$GPGSA,A,3,09,23,01,17,,,,,,,,,3.96,3.83,0.97*07
$GPRMC,114740.000,A,5211.9255,N,00007.2051,E,0.47,38.37,051118,,,A*54
$GPVTG,38.37,T,,M,0.47,N,0.87,K,A*0E
$GPGGA,114741.000,5211.9250,N,00007.2052,E,1,04,3.83,33.3,M,47.0,M,,*5D
$GPGSA,A,3,09,23,01,17,,,,,,,,,3.95,3.83,0.97*04
$GPRMC,114741.000,A,5211.9250,N,00007.2052,E,0.45,50.20,051118,,,A*59
$GPVTG,50.20,T,,M,0.45,N,0.82,K,A*01
$GPGGA,114742.000,5211.9248,N,00007.2052,E,1,04,3.83,33.3,M,47.0,M,,*57
$GPGSA,A,3,09,23,01,17,,,,,,,,,3.96,3.83,0.97*07
$GPRMC,114742.000,A,5211.9248,N,00007.2052,E,0.43,56.42,051118,,,A*57
$GPVTG,56.42,T,,M,0.43,N,0.79,K,A*01
$GPGGA,114743.000,5211.9246,N,00007.2051,E,1,04,3.83,33.3,M,47.0,M,,*5B
$GPGSA,A,3,09,23,01,17,,,,,,,,,3.95,3.83,0.97*04
$GPRMC,114743.000,A,5211.9246,N,00007.2051,E,0.39,57.25,051118,,,A*56
$GPVTG,57.25,T,,M,0.39,N,0.71,K,A*04
$GPGGA,114744.000,5211.9246,N,00007.2050,E,1,04,3.84,33.4,M,47.0,M,,*5D
$GPGSA,A,3,09,23,01,17,,,,,,,,,3.96,3.84,0.97*00
$GPGSV,4,1,14,03,68,074,,23,61,175,25,22,45,085,19,19,43,279,15*76
$GPGSV,4,2,14,17,41,242,20,09,36,201,22,06,34,303,,01,31,137,25*70
$GPGSV,4,3,14,31,21,050,,11,10,155,,12,07,329,,14,04,040,*76
$GPGSV,4,4,14,18,04,135,,25,03,003,*71
$GPRMC,114744.000,A,5211.9246,N,00007.2050,E,0.38,61.12,051118,,,A*50
$GPVTG,61.12,T,,M,0.38,N,0.70,K,A*05
$GPGGA,114745.000,5211.9245,N,00007.2049,E,1,04,3.84,33.4,M,47.0,M,,*57
$GPGSA,A,3,09,23,01,17,,,,,,,,,3.96,3.84,0.97*00
$GPRMC,114745.000,A,5211.9245,N,00007.2049,E,0.34,63.03,051118,,,A*54
$GPVTG,63.03,T,,M,0.34,N,0.63,K,A*09
$GPGGA,114746.000,5211.9241,N,00007.2046,E,1,04,3.85,33.5,M,47.0,M,,*5F
$GPGSA,A,3,09,23,01,17,,,,,,,,,3.97,3.85,0.97*00
$GPRMC,114746.000,A,5211.9241,N,00007.2046,E,0.25,61.23,051118,,,A*5C
$GPVTG,61.23,T,,M,0.25,N,0.47,K,A*0F
$GPGGA,114747.000,5211.9236,N,00007.2044,E,1,04,3.84,33.4,M,47.0,M,,*5C
$GPGSA,A,3,09,23,01,17,,,,,,,,,3.96,3.84,0.97*00
$GPRMC,114747.000,A,5211.9236,N,00007.2044,E,0.20,71.88,051118,,,A*5A
$GPVTG,71.88,T,,M,0.20,N,0.38,K,A*02
$GPGGA,114748.000,5211.9238,N,00007.2044,E,1,04,3.84,33.4,M,47.0,M,,*5D
$GPGSA,A,3,09,23,01,17,,,,,,,,,3.96,3.84,0.97*00
$GPRMC,114748.000,A,5211.9238,N,00007.2044,E,0.18,57.43,051118,,,A*53
$GPVTG,57.43,T,,M,0.18,N,0.33,K,A*01
$GPGGA,114749.000,5211.9237,N,00007.2044,E,1,04,3.84,33.3,M,47.0,M,,*54
$GPGSA,A,3,09,23,01,17,,,,,,,,,3.97,3.84,0.97*01
$GPGSV,4,1,14,03,68,074,,23,61,175,26,22,45,085,19,19,43,279,14*74
$GPGSV,4,2,14,17,41,242,20,09,36,201,21,06,34,303,,01,31,137,25*73
$GPGSV,4,3,14,31,21,050,,11,10,155,,12,07,329,,14,04,040,*76
$GPGSV,4,4,14,18,04,135,,25,03,003,*71
$GPRMC,114749.000,A,5211.9237,N,00007.2044,E,0.17,69.88,051118,,,A*58
$GPVTG,69.88,T,,M,0.17,N,0.31,K,A*06
$GPGGA,114750.000,5211.9238,N,00007.2045,E,1,04,3.84,33.2,M,47.0,M,,*53
$GPGSA,A,3,09,23,01,17,,,,,,,,,3.96,3.84,0.97*00
$GPRMC,114750.000,A,5211.9238,N,00007.2045,E,0.18,70.37,051118,,,A*5D
$GPVTG,70.37,T,,M,0.18,N,0.33,K,A*07
$GPGGA,114751.000,5211.9235,N,00007.2044,E,1,04,3.84,33.2,M,47.0,M,,*5E
$GPGSA,A,3,09,23,01,17,,,,,,,,,3.96,3.84,0.97*00
$GPRMC,114751.000,A,5211.9235,N,00007.2044,E,0.17,87.47,051118,,,A*50
$GPVTG,87.47,T,,M,0.17,N,0.31,K,A*05
$GPGGA,114752.000,5211.9229,N,00007.2041,E,1,04,3.85,33.1,M,47.0,M,,*57
$GPGSA,A,3,09,23,01,17,,,,,,,,,3.97,3.85,0.97*00
$GPRMC,114752.000,A,5211.9229,N,00007.2041,E,0.09,125.17,051118,,,A*68
$GPVTG,125.17,T,,M,0.09,N,0.18,K,A*3D
$GPGGA,114753.000,5211.9209,N,00007.2033,E,1,04,3.85,33.1,M,47.0,M,,*51
$GPGSA,A,3,09,23,01,17,,,,,,,,,3.97,3.85,0.97*00
$GPRMC,114753.000,A,5211.9209,N,00007.2033,E,0.16,163.36,051118,,,A*61
$GPVTG,163.36,T,,M,0.16,N,0.29,K,A*30
$GPGGA,114754.000,5211.9190,N,00007.2027,E,1,04,3.85,33.1,M,47.0,M,,*50
$GPGSA,A,3,09,23,01,17,,,,,,,,,3.97,3.85,0.97*00
$GPGSV,4,1,14,03,67,075,,23,61,175,26,22,45,085,19,19,43,279,13*7D
$GPGSV,4,2,14,17,41,242,20,09,36,201,21,06,34,303,,01,31,137,25*73
$GPGSV,4,3,14,31,21,050,,11,10,155,,12,07,329,,14,04,040,*76
$GPGSV,4,4,14,18,04,135,,25,03,003,*71
$GPRMC,114754.000,A,5211.9190,N,00007.2027,E,0.22,164.09,051118,,,A*6C
$GPVTG,164.09,T,,M,0.22,N,0.40,K,A*33
$GPGGA,114755.000,5211.9173,N,00007.2020,E,1,04,3.85,33.1,M,47.0,M,,*5B
$GPGSA,A,3,09,23,01,17,,,,,,,,,3.97,3.85,0.97*00
$GPRMC,114755.000,A,5211.9173,N,00007.2020,E,0.30,181.09,051118,,,A*6F
$GPVTG,181.09,T,,M,0.30,N,0.56,K,A*3C
