$GPGSV,3,1,10,07,64,118,43,30,47,176,42,02,42,247,38,05,42,297,31*75
$GPGSV,3,2,10,09,42,076,31,06,23,197,38,23,15,078,33,13,11,252,29*70
$GPGSV,3,3,10,40,07,111,,29,,,24*
47
$GPRMC,142636.000,A,
5212.0932,N,00005.9632,E,0.01,321.70,181118,,,A*6B
$GPVTG,321.70,T,,M,0.01,N,0.02,K,A*39
$PMTKLOG,0,1,a,31,1
5,0,0,1,0,0*11
$PMTK001,183,3*3A
$PMTK869,2,1*36

$G
PGGA,142637.000,5212.0932,N,00005.9632,E,1,08,1.08,13.3,M,47.0,M,,*5D
$GPGSA,A,3,06,07,05,09,23,30,02,13,,,,,1.36,1.08,0.84*0C
$GPRMC,142637.000,A,5212.0932,N,00005.9632,E,0.14,310.89,181118,,,A*6A
$GPVTG,310.89,T,,M,0.14,N,0.25,K,A*3C
$PMTKLOG
,0,1,a,31,15,0,0,1,0,0*11
$PMTK001,183,3*3A
$PMTK869,2,1*36

$GPGGA,142638.000,5212.0933
,N,00005.9632,E,1,08,1.07,13.3,M,47.0,M,,*5C
$GPGSA,A,3,06,07,05,09,23,30,02,13,,,,,1.36,1.07,0.84*03
$GPRMC,142638.000,A,5212.0933,N,00005.9632,E,0.07,288.45,181118,,,A*66
$GPVTG,288.45
,T,,M,0.07,N,0.12,K,A*3A
$PMTKLOG,0,1,a,31,15,0,0,1,0,0*11
$PMTK001,183,3*3A
$PMTK869,2,1*36

$GPGGA,142639.000,5212.0933,N,00005.9632,E,1,08,1.07,13.3,M,47.0,M,,*5D
$GPGSA,A,3,06,07,05,09,23,30,02,13,,,,,1.36,1.07,0.84*03
$GPRMC,142639.000,A,5212.0933,N,00005.9632,E,0.09,292.77,181118,,,A*63
$GPVTG,292.77,T,,M,
0.09,N,0.17,K,A*3B
$PMTKLOG,0,1,a,31,15,0,0,1,0,0*11
$PMTK001,183,3*3A
$PMTK869,2,1*36

$GPGGA,142640.000,5212.0
933,N,00005.9631,E,1,08,1.08,13.4,M,47.0,M,,*58
$GPGSA,A,3,06,07,05,09,23,30,02,13,,,,,1.36,1.08,0.84*0C
$GPRMC,142640.000,A,5212.0933,N,00005.9631,E,0.01,312.19,181118,,,A*67
$GPVTG,312.19,T,,M,0.01,N,
0.02,K,A*36
$PMTKLOG,0,1,a,31,15,0,0,1,0,0*11
$PMTK001,183,3*3A
$PMTK869,2,1*36

$GPGGA,14
2641.000,5212.0933,N,00005.9631,E,1,08,1.07,13.4,M,47.0,M,,*56
$GPGSA,A,3,06,07,05,09,23,30,02,13,,,,,1.36,1.07,0.84*03
$GPGSV,3,1,10,07,64,118,43,30,47,176,41,05,42,297,33,09,42,076,41*71
$GPGSV,3,2,10,02,41,2
47,37,06,23,197,38,23,15,078,35,13,11,252,31*71
$GPGSV,3,3,10,44,06,109,,29,,,27*48
$GPRMC,142641.000,A,5212
.0933,N,00005.9631,E,0.01,121.21,181118,,,A*6F
$GPVTG,121.21,T,,M,0.01,N,0.03,K,A*3E
$PMTKLOG,0,1,a,31,15,0,
0,1,0,0*11
$PMTK001,183,3*3A
$PMTK869,2,1*36

$GPGGA,142642.000,5212.0933,N,00005.9631,E,1,08,1.08,13.4,M,47.0,M,,*5A
$GPGSA,A,3,06,07,05,09,23,30,02,13,,,,,1.36,1.08,0.84*0C
$GPRMC,142642.000,A,5212.0933,N,00005.9631,E,0.04,317.85,181118,,,A*60
$GPVTG,317.85,T,,M,0.04,N,0.08,K,A*39
$PMTK
LOG,0,1,a,31,15,0,0,1,0,0*11
$PMTK001,183,3*3A
$PMTK869,2,1*36

$GPGGA,142643.000,5212.0933,N,00005.9631,E,1,08,1.08,13.4,M,47.0,M,,*5B
$GPGSA,A,3,06,07,05,09,23,30,02,13,,,,,1.36,1.08,0.84*0C
$GPRMC,142643.000,A,5212.0933,N,00005.9631,E,0.02,146.62,181118,,,A
*68
$GPVTG,146.62,T,,M,0.02,N,0.04,K,A*3C
$PMTKLOG,0,1,a,31,15,0,0,1,0,0*11
$PMTK001,183,3*3A
$PMTK869,2,1
*36

$GPGGA,142644.000,5212.0933,N,00005.9631,E,1,08,1.08,13.4,M,47.0,M,,*5C
$GPGSA,A,3,06,07,05,09,23,30,02,13,,,,,1.37,1.08,0.84*0D
$GPRMC,142644.000,A,5212.0933,N,00005.9631,E,0.02,332.15,181118,,,A*6E
$GPVTG,332.15,T
,,M,0.02,N,0.04,K,A*3D
$PMTKLOG,0,1,a,31,15,0,0
,1,0,0*11
$PMTK001,183,3*3A
$PMTK869,2,1*36

$GP
GGA,142645.000,5212.0933,N,00005.9631,E,1,08,1.08,13.3,M,47.0,M,,*5A
$GPGSA,A,3,06,07,05,09,23,30,02,13,,,,,1.36,1.08,0.84*0C
$GPRMC,142645.000,A,5212.0933,N,00005.9631,E,0.03,144.32,181118,,,A*68
$GPVTG,144.3
2,T,,M,0.03,N,0.06,K,A*38
$PMTKLOG,0,1,a,31,15,0,0,1,0,0*11
$PMTK001,183,3*3A

$PMTK869,2,1*36

$GPGGA,142646.000,5212.0933,N,00005.9631,E,1,08,1.08,13.3,M,47.0,M,,*59
$GPGSA,A,3,
06,07,05,09,23,30,02,13,,,,,1.37,1.08,0.84*0D
$GPGSV,3,1,10,07,64,117,43,30,47,176,41,05,42,297,33,09,42,076,42*7D
$GPGSV,3,2,10,02,41,247,37,06,23,
197,38,23,15,078,36,13,11,252,32*71
$GPGSV,3,3,10,44,06,109,,29,,,26*49
$GPRMC,142646.000,A,5212.0933,N,0000
5.9631,E,0.00,355.24,181118,,,A*6D
$GPVTG,355.24,T,,M,0.00,N,0.01,K,A*39
$PMTKLOG,0,1,a,31,15,0,0,1,
0,0*11
$PMTK001,183,3*3A
$PMTK869,2,1*36

$GPGGA,142647.000,5212.0933,N,00005.9631,E,1,08,1.08,13.3,M,47.0,M
,,*58
$GPGSA,A,3,06,07,05,09,23,30,02,13,,,,,1.88,1.08,1.55*04
$GPRMC,142647.000,A,5212.0933,N,00005.9631,E,0.03,324.63,181118,,,A*6A
$GPVTG,324.63,T,,M,0.03,N,0.06,K,A*38
$PMTKLOG,0,1,a,31,15,0,0,1,0,
0*11
$PMTK001,183,3*3A
$PMTK869,2,1*36

$GPGGA,142648.000,5212.0933,N,00005.9631,E,1,08,1.08,13.3,M,47.0,M,,*57
$GPGSA,A,3,06
,07,05,09,23,30,02,13,,,,,1.88,1.08,1.55*04
$GPRMC,142648.000,A,5212.0933,N,00005.9631,E,0.01,268.98,181118,,,A*6A
$GPVTG,268.98,T,,M,0.01,N,0.01,K,A*30
$PMTKLOG,0,1,
a,31,15,0,0,1,0,0*11
$PMTK001,183,3*3A
$PMTK869,2,1*36

$GPGGA,142649.000,5212.09
33,N,00005.9631,E,1,08,1.08,13.3,M,47.0,M,,*56
$GPGSA,A,3,06,07,05,09,23,30,02,13,,,,,1.89,1.08,1.55*05
$GPRMC,142649.000,A,5212.0933,N,00005.9631,E,0.01,44.24,181118,,,A*50
$GPVTG,44.24,T,,M,0.01,N,0.01,K,A*0B
$PMTKLOG,
0,1,a,31,15,0,0,1,0,0*11
$PMTK001,183,3*3A
$PMTK869,2,1*36

$GPGGA,142650.0
00,5212.0933,N,00005.9631,E,1,08,1.08,13.3,M,47.0,M,,*5E
$GPGSA,A,3,06,07,05,09,23,30,02,13,,,,,1.89,1.08
,1.55*05
$GPRMC,142650.000,A,5212.0933,N,00005.9631,E,0.00,1.16,181118,,,A*69
$GPVTG,1.16,T,,M,0.00,N,0.01,K,A*3A

$PMTKLOG,0,1,a,31,15,0,0,1,0,0*11
$PMTK001,183,3*3A
$PMTK869,2,1*36

$GPGGA,142651.000,5212.09
33,N,00005.9631,E,1,08,1.08,13.3,M,47.0,M,,*5F
$GPGSA,A,3,06,07,05,09,23,30,02,13,,,,,1.88,1.08,1.55*04
$GPGSV,3,1,10,07,64,117,43,30,47,176,41,05,42,297,33,09,42,076,43*7C
$GPGSV,3,2,10,02,41,247,37,33,28,199,,06,23,197,37,23,15
,078,37*72
$GPGSV,3,3,10,13,11,252,31,29,,,21*45
$GPRMC,142651.000,A,5212.0933,N,00005.9631,E,0.
00,195.45,181118,,,A*62
$GPVTG,195.45,T,,M,0.00,N,0.00,K,A*31
$PMTKLOG,0,1,a,31,15,0,0,1,0,0*11
$PMTK00
1,183,3*3A
$PMTK869,2,1*36

$GPGGA,142652.000,521
2.0933,N,00005.9631,E,1,08,1.08,13.3,M,47.0,M,,*5C
$GPGSA,A,3,06,07,05,09,23,30,02,13,,,,,1.88,1.08,1.55*04
$GPRMC,142652.000,A,5212.0933,N,00005.9631,E,0.01,345.69,181118,,,A*61
$GPVTG,345.69,T,,M,0.01,N,0.01,K,A*30
$PMTKLOG,0,1,a,31,15,0,0,1,0,0*11
$PMTK001
,183,3*3A
$PMTK869,2,1*36

$GPGGA,142653.000,5212.0932,N,00005.9631,E,1,08,1.08,13.3,M,47.0,M,,*5C
$GPGSA,A,3,06,07,05
,09,23,30,02,13,,,,,1.88,1.08,1.55*04
$GPRMC,142653.000,A,5212.0932,N,00005.9631,E,0.00,13.46,181118,,,A*5D
$GPVTG,13.46,T,,M,0.00,N,0.00,K,A*0D
$PMTKLOG,0,1,a,31,15,0,0,1,0,0*11
$PMTK0
01,183,3*3A
$PMTK869,2,1*36

$GPGGA,142654.000,5212.0932,N,00005.9631,E,1,08,1.08,13.3,M,47.0,M,,*5B

$GPGSA,A,3,06,07,05,09,23,30,02,13,,,,,1.88,1.08,1.54*05
$GPRMC,142654.000,A,5212.0932,N,00005.9631,E,0.02,340.84,181118,,,A*63
$GPVTG,340.84,T,,M,0.02,N,0.04,K,A*30
$PMTKLOG,0,1,a,31,15,0,0,1,0,0*11
$PMTK001,183,3*3A

$PMTK869,2,1*36

$GPGGA,142655.000,5212.0932,N,00005.9631,E,1,08,1.08,13.3,M,47.0,M,,*5A
$G
PGSA,A,3,06,07,05,09,23,30,02,13,,,,,1.88,1.08,1.55*04
$GPRMC,142655.000,A,5212.0932,N,00005.9631,E,0.01,236.09,181118,,,A*64
$GPVTG,236.09,T,,M,0.01,N,0.02,K,A*30
$PMTKLOG,0,1,a,31,15,0,0,1,0,0*11
$PMTK001,183,3*3A
$PMT
K869,2,1*36

$GPGGA,142656.000,5212.0932,N,00005.9631,E,1,08,1.08,13.3,M,47.0,M,,*5
9
$GPGSA,A,3,06,07,05,09,23,30,02,13,,,,,1.88,1.08,1.54*05
$GPGSV,3,1,10,07,64,117,43,30,47,176,41,05,42,297,34,09,42,076,43*7B
$GPGSV,3,2,10,02,41,247,25,37,27,153,,06,23,197,37,23,15,078,37*7C
$GPGSV,3,3,10,13,
11,252,30,29,,,17*41
$GPRMC,142656.000,A,5212.0932,N,00005.9631,E,0.01,18.48,181118,,,A*5C
$GPVTG,18
.48,T,,M,0.01,N,0.02,K,A*0B
$PMTKLOG,0,1,a,31,15,0,0,1,0,0*11
$PMTK001,183,3*3A
$PMTK869,2,1*36

$GPGGA,142657.000,5212.0932,N,00005.9631,E,1,08,1.08,13.3,M,47.0,M,,*58

$GPGSA,A,3,06,07,05,09,23,30,02,13,,,,,1.88,1.08,1.54*05
$GPRMC,142657.000,A,5212.0932,N,00005.9631,E,0.00,134.42,181118,,,A*69
$GPVTG,134.42,T,,M,0.00,N,0.01,K,A*3C

$PMTKLOG,0,1,a,31,15,0,0,1,0,0*11
$PMTK001,183,3*3A
$PMTK869,2,1*36

$GPGGA,142658.000,5212.0932,N,00005.9631,E,1,08,1.08,13.3,M,47.0,M,,*57
$GPGSA,A,3,06,07,05,09
,23,30,02,13,,,,,1.88,1.08,1.54*05
$GPRMC,142658.000,A,5212.0932,N,00005.9631,E,0.01,3.05,181118,,,A*61
$GPVTG,3.05,T,,M,0.01,N,0.01,K,A*3B
$PMTKLOG,0,1,a,31,15,0,0,1,0,0*11
$PMTK001,183,3*3A

$PMTK869,2,1
*36

$GPGG
A,142659.000,5212.0932,N,00005.9631,E,1,08,1.08,13.3,M,47.0,M,,*56
$GPGSA,A,3,06,07,05,09,23,30,02,13
,,,,,1.88,1.08,1.54*05
$GPRMC,142659.000,A,5212.0932,N,00005.9631,E,0.01,103.99,181118,,,A*64
$GPVTG,103.99,T,,M,0.01,N,0.01,K,A*3F
$PMTKLOG,0,1,a,31,15,0,0,1,0,0*11
$PMTK001,183,3*3A
$PMTK869
,2,1*36

$GPGGA,142700.000,5212.0932,N,00005.9631,E,1,08,1.08,13.3,M,47.0,M,,*5B
$GPGSA,A,3,0
6,07,05,09,23,30,02,13,,,,,1.88,1.08,1.54*05
$GPRMC,142700.000,A,5212.0932,N,00005.9631,E,0.01,112.37,181118,,,A*6D
$GPVTG,112.37,T,,M,0.01,N,0.02,K,A*38
$PMTKLOG,0,1,a,31,15,0,0,1,0,0*11
$PMTK001,183,3*3A

$PMTK869,2,1*36

$GPGGA,142701.000,5212.0932,N,00005.9631,E,1,08,1.08,13.3,M,47.0,M,,*5A

$GPGSA,A,3,06,07,05,09,23,30,02,13,,,,,1.88,1.08,1.54*05
$GPGSV,3,1,10,07,64,117,44,30,47,176,41,05,42,297,24,09,42,076,43*7D
$GPGSV,3,2,10,02,41,247,35,37,27,153,,06,23,197,37,23,15,078,37*7D
$GPGSV,3,3,10,13,11,252,31,2
9,,,21*45
$GPRMC,142701.000,A,5212.0932,N,00005.9631,E,0.01,309.16,181118,,,A*67
$GPVTG,309.16,T,
,M,0.01,N,0.01,K,A*30
$PMTKLOG,0,1,a,31,15,0,0,1,0,0*11
$PMTK001,183,3*3A
$PMTK869,2,1*36

$GPGGA,142702.000,5212.0932,N,00005.9631,E,1,08,1.08,13.3,M,47.0,M,,*59
$GPGSA,A,3,06,07,05,09,23,30,
02,13,,,,,1.88,1.08,1.54*05
$GPRMC,142702.000,A,5212.0932,N,00005.9631,E,0.00,337.04,181118,,,A*6B
$GPVTG,337.04,T,,M,0.00,N,0.01,K,A*3F
$PMTKLOG,0,1,
a,31,15,0,0,1,0,0*11
$PMTK001,183,3*3A
$PMTK869,2,1*36

$GPGGA,142703.
000,5212.0932,N,00005.9631,E,1,08,1.08,13.3,M,47.0,M,,*58
$GPGSA,A,3,06,07,05,09,23,30,02,13,,,,,1.88,1.08,1.54*05
$
GPRMC,142703.000,A,5212.0932,N,00005.9631,E,0.01,48.93,181118,,,A*5E
$GPVTG,48.93,T,,M,0.01,N,0.02,K,A*08
$PMTKLOG,0,1,a,31,15,0,0,1,0,0*11
$PMTK001,183,3*3A
$PMTK869
,2,1*36

$GPGGA,142704.000,5212.0932,N,00005.9631,E,1,08,1.08,13.3,M,47.0,M,,*5F
$GPGSA,A,3,06,07,05,09,
23,30,02,13,,,,,1.88,1.08,1.54*05
$GPRMC,142704.000,A,5212.0932,N,00005.9631,E,0.00,245.93,181118,,,A*67
$GPVTG,245.93,T,,M,0.00,N,0.01,K,A*35
$PMTKLOG,0,1,a,31,15,0,0,1,0,0*11
$PMTK001,183,3*3A
$PMT
K869,2,1*36

$GPGGA,142705.000,5212.0932,N,00005.9631,E,1,08,1.08,13.3,M,47.0,M,,*5E
$GPGSA,A,3,06,07,05,09,23,
30,02,13,,,,,1.88,1.08,1.54*05
$GPRMC,142705.000,A,5212.0932,N,00005.9631,E,0.00,138.27,181118,,,A*60
$GPVTG,138.27,T,,M,0.00,N,0.00,K,A*32
$PMTKLOG,0,1,a,31,15,0,0,1,0,0*11
$PMTK001,183,3*3A

$PMTK869,2,1*36

$GPGGA,142706.000,5212.0932,N,00005.9631,E,1,08,1.08,13.3,M,47.0,M,,*5D
$GPGSA
,A,3,06,07,05,09,23,30,02,13,,,,,1.88,1.08,1.54*05
$GPGSV,3,1,10,07,64,117,44,30,47,176,41,05,42,297,24,09,42,076,43*7D
$GPGSV,3,2,10,02,41,247,35,39,25,149,,06,23,197,37,23,15,078,37*7A
$GPGSV,3,3,10,13,11,252,31,29,,,26*42

$GPRMC,142706.000,A,5212.0932,N,00005.9631,E,0.01,324.49,181118,,,A*65
$GPVTG,324.49,T,,M,0.01,N,0.02,K,
A*36
$PMTKLOG,0,1,a,31,15,0,0,1,0,0*11
$PMTK001,183,3*3A
$PMTK869,2,1*36

$GPGGA,142707.000,5212.0932,N,00005.9631,E,1,08,1.08,13.3,M,47.0,M,,*5C
$GPGSA,
A,3,06,07,05,09,23,30,02,13,,,,,1.88,1.08,1.54*05
$GPRMC,142707.000,A,5212.0932,N,00005.9631,E,0.02,4.55,181118,,,A*6B
$GPVTG,4.55,T,,M,0.02,N,0.04,K,A*3F
$PMTKLOG,0,1,a,31,15,0,0,1,0,0*11
$PMTK001,183,3*3A
$PMTK869,2,1*36

$GPGGA,142708.000,5212.0932,N,00005.9631,E,1,08,1.08,13.3,M,47.0,M,,*53
$GPGSA,A,3,06,07,05,09,23,30,
02,13,,,,,1.88,1.08,1.54*05
$GPRMC,142708.000,A,5212.0932,N,00005.9631,E,0.01,263.34,181118,,,A*63
$GPVTG,263.34,T,,M,0.01,N,0.03,K,A*3F
$PMTKLOG,0,1,a,31,15,0,0,1,0,0*11
$PMTK001,183,3*3A
$PMTK869,2,
1*36

$GPGGA,142709.000,5212.0932,N,00005.9631,E,1,08,1.08,13.3,M,47.0,M,,*52
$GPGSA,A,3,06,07,
05,09,23,30,02,13,,,,,1.88,1.08,1.54*05
$GPRMC,142709.000,A,5212.0932,N,00005.9631,E,0.01,352.41,181118,,,A*63
$GPVTG,352.41,T,,M,0.01,N,0.01,K,A*3C
$PMTKLOG,0,1,a,31,15,0,0,1,0,0*11
$PMTK001,183,3*3A

$PMTK869,2,1*36

$GPGGA,142710.000,5212.0932,N,00005.9631,E,1,08,1.08,13.3,M,47.0,M,,*5A
$GPGSA,A,3,06,07,05,
09,23,30,02,13,,,,,1.88,1.08,1.54*05
$GPRMC,142710.000,A,5212.0932,N,00005.9631,E,0.00,131.19,181118,,,A*60
$GPVTG,131.19,T,,M,0.00,N,0.01,K,A*37
$
PMTKLOG,0,1,a,31,15,0,0,1,0,0*11
$PMTK001,183,3*3A
$PMTK869,2,1*36

$GPGGA,142711.000,5212.0932,N,00005.9631,E,1,08,1.08,13.3,M,47.0,M,,*5B
$GPGSA,A,3,06,07,05,09,
23,30,02,13,,,,,1.88,1.08,1.54*05
$GPGSV,3,1,10,07,64,117,44,30,47,176,41,05,42,297,31,09,42,076,43*79
$GPGSV,3,2,10,02,41,247,36,39,25,149,,06,23,197,37,23,15,078,38*76
$GPGSV,3,3,10,13,11,252,28,29,,
,25*49
$GPRMC,142711.000,A,5212.0932,N,00005.9631,E,0.02,295.35,181118,,,A*60
$GPVTG,295.35,T,,M,0.02,N,
0.03,K,A*34
$PMTKLOG,0,1,a,31,15,0,0,1,0,0*11
$PMTK001,183,3*3A
$PMTK869,2,1*36

$GPGGA,142712.000,5212.0932,N,00005.9631,E,1,08,1.08,13.3,M,47.0,M,,*58
$GP
GSA,A,3,06,07,05,09,23,30,02,13,,,,,1.88,1.08,1.54*05
$GPRMC,142712.000,A,5212.0932,N,00005.9631,E,0.01,0
.35,181118,,,A*6E
$GPVTG,0.35,T,,M,0.01,N,0.01,K,A*3B
$PMTKLOG,0,1,a,31,15,0,0,1,0,0*11
$PMTK001,183,3*3A
$PMTK869,2,1*36

$GPGGA,142713.000,5212.0932,N,00005.9631,E,1,08,1.08,13.3,M,47.0,M,,*59
$GPGSA,A,3,06,07,05,09,2
3,30,02,13,,,,,1.88,1.08,1.54*05
$GPRMC,142713.000,A,5212.0932,N,00005.9631,E,0.01,347.03,181118,,,A*6A
$GPVTG,347.03,T,,M,0.01,N,0.02,K,A*3D
$PMTKLOG,0,1,a,31,15,0,0,1,0,0*11
$PMTK001,183
,3*3A
$PMTK869,2,1*36

$GPGGA,142714.000,5212.0932,N,00005.9631,E,1,08,1.08,13.3,M,47.0,M,,
*5E
$GPGSA,A,3,06,07,05,09,23,30,02,13,,,,,1.88,1.08,1.54*05
$GPRMC,142714.000,A,5212.0932,N,00005.9631,E,0.01,327.16,181118,,,A*6F
$GPVTG,327.16,T,,M,0.01,N,0.02,K,A*3F
$PMTKLOG,0,1,a,31,15,0,0,1,0,0*11
$PMTK001,183,3*
3A
$PMTK869,2,1*36

$GPGGA,142715.000,5212.0932,N,00005.9631,E,1,08,1.08,13.3,M,47.0,M,,*5F
$GPGSA,A,3,06,07,05,09
,23,30,02,13,,,,,1.88,1.08,1.54*05
$GPRMC,142715.000,A,5212.0932,N,00005.9631,E,0.01,303.24,181118,,,A*69
$GPVTG,303.24,T,,M,0.01,N,0.02,K,A*38

$PMTKLOG,0,1,a,31,15,0,0,1,0,0*11
$PMTK001
,183,3*3A
$PMTK869,2,1*36

$GPGGA,142716.000,5212.0932,N,00005.9631,E,1,08,1.08,13.3,M,47.0,M,,*5C
$GPGSA,A,3,06,07,05,09,2
3,30,02,13,,,,,1.88,1.08,1.54*05
$GPGSV,3,1,10,07,64,117,44,30,47,176,41,05,42,297,33,09,42,076,43*7B
$GPGSV,3,2,10,02,41,247,36,06,23,197,37,23,15,078,38,13,11,252,29*7B
$GPGSV,3,3,10,40,07,111,,29,,,29*4A
$GPRMC,14
2716.000,A,5212.0932,N,00005.9631,E,0.00,247.62,181118,,,A*68
$GPVTG,247.62,T,,M,0.00,N,0.01,K,A*39

$PMTKLOG,0,1,a,31,15,0,0,1,0,0*11
$PMTK001,183,3*3A
$PMTK869,2,1*36

$GPGGA,142717.000,5212.0932,N,00005.9631,E,1,08,1.08,13.3,M,47.0,M,,*5D
$GPGSA,A
,3,06,07,05,09,23,30,02,13,,,,,1.88,1.08,1.54*05
$GPRMC,142717.000,A,5212.0932,N,00005.9631,E,0.01,7.22,181118,,,A*6A
$GPVTG,7.22,T,,M,0.01,N,0.03,K,A*38
$PMTKLOG,0,1,a,31,15,0,0,1,0,0*11
$PMTK001,183,3*3A
$PMTK869,2,1*
36

$GPGGA,142718.000,5212.0932,N,00005.9631,E,1,08,1.08,13.3,M,47.0,M,,*52
$GPGSA,A,3,06,07,05,09
,23,30,02,13,,,,,1.88,1.08,1.54*05
$GPRMC,142718.000,A,5212.0932,N,00005.9631,E,0.01,212.97,181118,,,A*6D
$GPVTG,212.97,T,,M,0.01,N,0.02,K,A*31
$PMTKLOG,0,1,a,31,15,0,0,1,0,0*11
$PMTK001,183,3*3A
$PMT
K869,2,1*36

$GPGGA,142719.000,5212.0932,N,00005.9631,E,1,09,0.91,1
3.3,M,47.0,M,,*53
$GPGSA,A,3,06,07,05,29,09,23,30,02,13,,,,1.70,0.91,1.43*0E
$GPRMC,142719.000,A,5212.0932,N,00005.9631,E,0.01,353.29,181118,,,A*6D
$GPVTG,353.29,T,,M,0.01,N,0.02,K,A*30
$PMTKLOG,0,1,a,31,15,0,0,1,0,0*11
$PMTK
001,183,3*3A
$PMTK869,2,1*36

$GPGGA,142720.000,5212.0932,N,00005.9631,E,1,09,0.91,13.3,M,47.0,M,,*59
$GPGSA,A,3,0
6,07,05,29,09,23,30,02,13,,,,1.70,0.91,1.43*0E
$GPRMC,142720.000,A,5212.0932,N,00005.9631,E,0.00,249.41,181118,,,A*62
$GPVTG,249.41,T,,M,0.00,N,0.01,K,A*36
$PMTKLOG,0,1,a,31,15,0,0,1,0,0*11
$PMTK001,183,3*3A

$PMTK869,2,1*36

$GPGGA,142721.000,5212.0932,N,00005.9631,E,1,09,0.91,13.3,
M,47.0,M,,*58
$GPGSA,A,3,06,07,05,29,09,23,30,02,13,,,,1.70,0.91,1.43*0E
$GPGSV,3,1,10,07,64,117,44,30,47,17
6,41,05,42,297,33,09,42,076,43*7B
$GPGSV,3,2,10,02,41,247,36,06,23,197,36,23,15,078,38,13,11,252,29*7A
$GPGSV,3,3,10,29,09,313,27,40
,07,111,*7C
$GPRMC,142721.000,A,5212.0932,N,00005.9631,E,0.01,343.20,181118,,,A*6E
$GPVTG,343.20,T,,
M,0.01,N,0.01,K,A*3B
$PMTKLOG,0,1,a,31,15,0,0,1,0,0*11
$PMTK001,183,3*3A
$PMTK869,2,1*36

$GPGGA,142722.000,5212.0932,N,00005.9631,E,1,09,0.91,13.3,M,47.0,M,,*5B
$GPGSA,A,3,06,07,0
5,29,09,23,30,02,13,,,,1.70,0.91,1.43*0E
$GPRMC,142722.000,A,5212.0932,N,00005.9631,E,0.01,230.24,181118,,,A*6C
$GPVTG,230.24,T,,M,0.01,N,0.01,K,A*3A
$PMTKLOG,0,1,a,31,15,0,0,1,0,0*11

$PMTK001,183,3*3A
$PMTK869,2,1*36

$GPGGA,142723.00
0,5212.0932,N,00005.9631,E,1,09,0.91,13.3,M,47.0,M,,*5A
$GPGSA,A,3,06,07,05,29,09,23,30,02,13,,,,1.70
,0.91,1.43*0E
$GPRMC,142723.000,A,5212.0932,N,00005.9631,E,0.00,26.34,181118,,,A*58
$GPVTG,26.34,T,,M,0.00,N,0.01,K,A*0F
$PMTKLOG,0,1,a,31,15,0,0,1,0,0*11
$PMTK001,183,3*3A
$PMTK869,2,1*36

$GPGGA,142724.000,5212.0932,N,00005.9631,E,1,09,0.91,13.3,M,47.0,M,,
*5D
$GPGSA,A,3,06,07,05,29,09,23,30,02,13,,,,1.70,0.91,1.43*0E
$GPRMC,142724.000,A,5212.0932,N,00005.9631,E,0.01,330.74,181118,,,A*6E
$GPVTG,330.74,T,,M,0.01,N,0.01,K,A*3E
$PMTKLOG,0,1,a,31,15,0,0,1,0,0*11
$PMTK001,183,
3*3A
$PMTK869,2,1*36

$GPGGA,142725.000,5212.0932,N,00005.9631,E,1,09,0.91,13.3,M,47.0,
M,,*5C
$GPGSA,A,3,06,07,05,29,09,23,30,02,13,,,,1.70,0.91,1.43*0E
$GPRMC,142725.000,A,5212.0932,N,00005.9631,E,0.01,3.22,181118,,,A*6F
$GPVTG,3.22,T,,M,0.01,N,0.01,K,A*3E
$PMTKLOG,0,1,a,31,15,0,0,1,0,0*11
$PMTK001,183,3*3A

$PMTK869,2,1*36

$GPGGA,142726.000,5212.0932,N,00005.9631,E,1,09,0.91,13.3,M,47.0,M,,*5F
$GPGSA,A
,3,06,07,05,29,09,23,30,02,13,,,,1.70,0.91,1.43*0E
$GPGSV,3,1,10,07,64,116,44,30,47,176,41,05,42,297,33,02,41,247,36*70
$GPGSV,3,2,10,09,41,076,43,06,22,197,36,23,15,078,38,13,11,252,29*72
$GPGSV,3,3,10,29,09,313,23,44,06,109,*74
$G
PRMC,142726.000,A,5212.0932,N,00005.9631,E,0.01,269.88,181118,,,A*62
$GPVTG,269.88,T,,M,0.01,
N,0.02,K,A*33
$PMTKLOG,0,1,a,31,15,0,0,1,0,0*11
$PMTK001,183,3*3A
$PMTK869,2,1*36

$GPGGA,142727.000,5212.0932,N,00005.9631,E,1,09,0.91,13.3,M,47.0,M,,*5E
$GPGSA,A,3,06,07,05,2
9,09,23,30,02,13,,,,1.70,0.91,1.43*0E
$GPRMC,142727.000,A,5212.0932,N,00005.9631,E,0.00,133.08,181118,,,A*66
$GPVTG,133.08,T,,M,0.00,N,0.01,K,A*35
$PMTKLOG,0,1,a,31,15,0,0,1,0,0*11
$PMTK001,183,3*3A
$PMTK869,2,1*36

$GPGGA,142728.000,5212.0932,N,00005.9631,E,1,09,0.91,13.3,M,47.0,M,,*51
$GPGSA,A,3,06,07,05,29,09
,23,30,02,13,,,,1.70,0.91,1.43*0E
$GPRMC,142728.000,A,5212.0932,N,00005.9631,E,0.01,294.96,181118,,,A*61
$GPVTG,294.96,T,,M,0.01,N,0.01,K,A*3D
$PMTKL
OG,0,1,a,31,15,0,0,1,0,0*11
$PMTK001,183,3*3A
$PMTK869,2,1*36

$GPGGA,142729.000,5212.0932,N,00005.9631,E,1,09,0.91,13.3,M,47.0,M,,*50
$G
PGSA,A,3,06,07,05,29,09,23,30,02,13,,,,1.70,0.91,1.43*0E
$GPRMC,142729.000,A,5212.0932,N,00005.9631,E,0.01,79.25,181118,,,A*59
$GPVTG,79.25,T,,M,0.01,N,0.02,K,A*07

$PMTKLOG,0,1,a,31,15,0,0,1,0,0*11
$PMTK001,183,3*
3A
$PMTK869,2,1*36

$GPGGA,142730.000,5212.0932,N,00005.9631,E,1,09,0.91,13.3,M,47.0,M,,*58
$GPGSA,A,3,0
6,07,05,29,09,23,30,02,13,,,,1.70,0.91,1.43*0E
$GPRMC,142730.000,A,5212.0932,N,00005.9631,E,0.02,306.52,181118,,,A*69
$GPVTG,306.52,T,,M,0.02,N,0.03,K,A*3E
$PMTKLOG,0,1,a,31,15,0,0,1,0,0*11
$PMTK001,183,3*3A
$PMTK869,2,1*3
6

$GPGGA,142731.000,5212.0932,N,00005.9631,E,1,09,0.91,13.3,M,47.0,M,,*59
$GPGSA,A,3,06,07,0
5,29,09,23,30,02,13,,,,1.70,0.91,1.43*0E
$GPGSV,3,1,10,07,64,116,44,30,47,176,41,05,42,297,33,02,41,247,37*71
$GPGSV,3,2,10,09,41,076,43,06,22,197,36,23,15,078,38,13,12,252,29*71
$GPGSV,3,3,10,29,09,313,17,44,
06,109,*73
$GPRMC,142731.000,A,5212.0932,N,00005.9631,E,0.01,316.97,181118,,,A*63
$GPVTG,316.97,T,,M,
0.01,N,0.01,K,A*37
$PMTKLOG,0,1,a,31,15,0,0,1,0,0*11
$PMTK001,183,3*3A
$PMTK869,2,1*36

$GPGGA,142732.000,5212.0932,N,00005.9631,E,1,09,0.91,13.2,M,47.0,M,,*5B
$GPGSA,A,3,06,07,05,29,09,
23,30,02,13,,,,1.70,0.91,1.43*0E
$GPRMC,142732.000,A,5212.0932,N,00005.9631,E,0.00,61.95,181118,,,A*50
$GPVTG,61.95,T,,M,0.00,N,0.00,K,A*06
$PMTKLOG,0,1,a,31,15,0,0,1,0,0*11
$PMTK001,183,3*3A
$PMTK869,2,1*36

$GPGGA,142733.000,5212.093
1,N,00005.9631,E,1,09,0.91,13.1,M,47.0,M,,*5A
$GPGSA,A,3,06,07,05,29,09,23,30,02,13,,,,1.69,0.91,1.43*06
$GP
RMC,142733.000,A,5212.0931,N,00005.9631,E,0.01,334.14,181118,,,A*69
$GPVTG,334.14,T,,M,0.01,N,0.01,K,A*3C
$PMTKLOG,0,1,a,31,15,0,0,1,0,0*11
$PMTK001,183,3*3A

$PMTK869,2,1*36

$GPGGA,142734.000,5212.0931,N,00005.9630,E,1,09,0.91,13.1,M,47.0,M,,*5C
$GPGSA,A,3,0
6,07,05,29,09,23,30,02,13,,,,1.70,0.91,1.43*0E
$GPRMC,142734.000,A,5212.0931,N,00005.9630,E,0.00,146.41,181118,,,A*69
$GPVTG,146.41,T,,M,0.00,N,0.00,K,A*3B
$PMTKLOG,0,1,a,31,15,0,0,1,0,0*11
$PMTK001,183,3*3A
$PMTK869,2,1*36


$GPGGA,142735.000,5212.0931,N,00005.9630,E,1,09,0.91,13.0,M,47.0,M
,,*5C
$GPGSA,A,3,06,07,05,29,09,23,30,02,13,,,,1.69,0.91,1.43*06
$GPRMC,142735.000,A,5212.0931,N,00005.9630,E,0.01,304.37,181118,,,A*6C
$GPVTG,304.37,T,,M,0.01,N,0.02,K,A*3D

$PMTKLOG,0,1,a,31,15,0,0,1,0,0*11
$PMTK001,183,3*3A
$PMTK869,2,1*36

$GPGGA,142736.000,5212.0931,N,00005.9630,E,1,09,0.91,12.9,M,47.0,M,,*57
$GPGSA,A,3,06,07,05,29,09,
23,30,02,13,,,,1.69,0.91,1.43*06
$GPGSV,3,1,10,07,64,116,44,30,47,176,41,05,42,297,33,02,41,247,37*71
$GPGSV,3,2,10,09,41,076,43,06,22,197,36,23,15,078,38,13,12,252,31*78
$GPGSV,3,3,10,29,09,313
,18,34,,,*45
$GPRMC,142736.000,A,5212.0931,N,00005.9630,E,0.01,333.53,181118,,,A*69
$GPVTG,333.53,T,,M,0.01,
N,0.02,K,A*3B
$PMTKLOG,0,1,a,31,15,0,0,1,0,0*11
$PMTK001,183,3*3A
$PMTK869,2,1*36

$GPGGA,142737.000,5212.0931,N,00005.9630,E,1,09,0.91,12.9,M,47.0,M,,*56

$GPGSA,A,3,06,07,05,29,09,23,30,02,13,,,,1.69,0.91,1.43*06
$GPRMC,142737.000,A,5212.0931,N,00005.9630,E
,0.00,5.14,181118,,,A*6C
$GPVTG,5.14,T,,M,0.00,N,0.01,K,A*3C
$PMTKLOG,0,1,a,31,15,0,0,1,0,0*11
$PMTK001,183,3*3A
$PMTK869,2,1*3
6

$GPGGA,142738.000,5212.0930,N,00005.9630,E,1,09,0.91,12.8,M,47.0,M,,*59
$GPGSA,A,3,06,07,05,29,
09,23,30,02,13,,,,1.69,0.91,1.43*06
$GPRMC,142738.000,A,5212.0930,N,00005.9630,E,0.00,187.84,181118,,,A*60
$GPVTG,187.84,T,,M,0.00,N,0.01,K,A*3E
$PMTKLOG,0,1,a,31,15,0
,0,1,0,0*11
$PMTK001,183,3*3A
$PMTK869,2,1*36

$GPGGA,142739.000,5212.0930,N,00005.9629,E,1,09,0.91,12.7,M,47.0,M,,*5F
$GPGSA,A,3,06,
07,05,29,09,23,30,02,13,,,,1.69,0.91,1.43*06
$GPRMC,142739.000,A,5212.0930,N,00005.9629,E,0.00,266.56,181118,,,A*6A
$GPVTG,266.56,T,,M,0.00,N,0.00,K,A*3C
$PMTKLOG,0,1,a,31,15,0,0,1,0,0*11
$PMTK001,183,3*3A

$PMTK86
9,2,1*36

$GPGGA,142740.000,5212.0930,N,00005.9629,E,1,09,0.91,12.6,M,47.0,M,,*50
$GPGSA,A,3,06,07,05,29,0
9,23,30,02,13,,,,1.69,0.91,1.43*06
$GPRMC,142740.000,A,5212.0930,N,00005.9629,E,0.01,346.82,181118,,,A*6F
$GPVTG,346.82,T,,M,0.01,N,0.01,K,A*36

$PMTKLOG,0,1,a,31,15,0,0,1,0,0*11
$PMTK001,183,3*3A
$PMTK869,2,1*36

$GPGGA,142741.000,5212.0930,N,00005.9628,E,1,09,0.91,12.6,M,47.0,M,,*50
$GPGSA,A,3,06,07,05,
29,09,23,30,02,13,,,,1.69,0.91,1.43*06
$GPGSV,3,1,10,07,64,116,44,30,47,176,41,05,42,297,33,02,41,247,37*71
$GPGSV,3,2,10,09,41,076,43,06,22,197,36,23,15,078,38,13,12,252,31*78
$GPGSV,3,3,10,29,09,313,26,34,,,*48
$GPRMC,
142741.000,A,5212.0930,N,00005.9628,E,0.01,327.72,181118,,,A*67
$GPVTG,327.72,T,,M,0.01,N,0.02,K,A*3D
$P
MTKLOG,0,1,a,31,15,0,0,1,0,0*11
$PMTK001,183,3*3A
$PMTK869,2,1*36

$GPGGA,142742.000,5212.0929,N,00005.9628,E,1,09,0.91,12.5,M,47.0,M,,*58
$GPGSA,A,3,06,07,0
5,29,09,23,30,02,13,,,,1.69,0.91,1.43*06
$GPRMC,142742.000,A,5212.0929,N,00005.9628,E,0.01,96.65,181118,,,A*53
$GPVTG,96.65,T,,M,0.01,N,0.01,K,A*01
$PMTKLOG,0,1,a,31,15,0,0,1,0,0*11
$PMTK001,183,3*3A
$PMTK869,2,1*36

$GPGGA,142743.000,5212.0929,N,00005.9628,E,1,09,0.91,12.5,M,47.0,M,,*59
$GPGSA,A,3,06,07,05,29,09,23,30,02,
13,,,,1.69,0.91,1.43*06
$GPRMC,142743.000,A,5212.0929,N,00005.9628,E,0.02,314.74,181118,,,A*68
$GPVTG,314.74,T,,M,0.02,N,0.05,K,A*3F
$PMTKLOG,0,1,a,31,15,0,0,1,0,0*11
$PMTK001,183,3*3A

$PMTK869,2,1*36

$GPGGA,142744.000,5212.0929,N,00005.9628,E,1,09,0.91,12.4,M,47.0,M,,*5F
$GPGSA,A,3,06,07,05,2
9,09,23,30,02,13,,,,1.69,0.91,1.43*06
$GPRMC,142744.000,A,5212.0929,N,00005.9628,E,0.01,205.05,181118,,,A*6B
$GPVTG,205.05,T,,M,0.01,N,0.01,K,A*3F
$PMTKLOG,0,1,a,31,15,0,0,1,0,0*11
$PMTK001,183,3*3A
$PMTK869,
2,1*36

$GPGGA,142745.000,5212.0928,N,00005.9628,E,1,09,0.91,12.4,M,47.0,M,,*5F
$GPGS
A,A,3,06,07,05,29,09,23,30,02,13,,,,1.69,0.91,1.43*06
$GPRMC,142745.000,A,5212.0928,N,00005.9628,E,0.01,10.80,181118,,,A*50
$GPVTG,10.80,T,,M,0.01,N,0.02,K,A*07
$PMTKLOG,0,1,a,31,15,0,0,1,0,0*11
$PMTK001,183,3*3A
$PMTK8
69,2,1*36

$GPGGA,142746.000,5212.0928,N,00005.9627,E,1,09,0.91,12.3,M,47.0,M,,*54
$G
PGSA,A,3,06,07,05,29,09,23,30,02,13,,,,1.69,0.91,1.43*06
$GPGSV,3,1,10,07,64,116,44,30,47,176,41,05,42,297,33,02,41,247,37*71
$GPGSV,3,2,10,09,41,076,43,06,22,197,36,23,15,078,38,13,12,252,31*78
$GPGSV,3,3,10,29,09,313
,29,35,,,*46
$GPRMC,142746.000,A,5212.0928,N,00005.9627,E,0.01,282.42,181118,,,A*6B
$GPVTG,282.42,T,
,M,0.01,N,0.01,K,A*33
$PMTKLOG,0,1,a,31,15,0,0,1,0,0*11
$PMTK001,183,3*3A
$PMTK869,2,1*36

$GPGGA,142747.000,5212.0928,N,00005.9627,E,1,09,0.91,12.3,M,47.0,M,,*55
$GPGSA,A,
3,06,07,05,29,09,23,30,02,13,,,,1.69,0.91,1.43*06
$GPRMC,142747.000,A,5212.0928,N,00005.9627,E,0.02,300.32,181118,,,A*65
$GPVTG,300.32,T,,M,0.02,N,0.03,K,A*3E
$PMTKLOG,0,1,a,3
1,15,0,0,1,0,0*11
$PMTK001,183,3*3A
$PMTK869,2,1*36

$GPGGA
,142748.000,5212.0928,N,00005.9627,E,1,09,0.91,12.2,M,47.0,M,,*5B
$GPGSA,A,3,06,07,05,29,09,23,30,02,13,,
,,1.69,0.91,1.43*06
$GPRMC,142748.000,A,5212.0928,N,00005.9627,E,0.01,316.46,181118,,,A*6D
$GPVTG,316.46,T,,M,0.01,N,0.01,K,A*3B
$PMTKLOG,0,1,a,31,15,0,0,1,0,0*
11
$PMTK001,183,3*3A
$PMTK869,2,1*36

$GPGGA,142749.000,5212.0928,N,00005.9627,E,1,09,0.91,12.2,M,47.0,M,,*5A
$GPGSA,A,
3,06,07,05,29,09,23,30,02,13,,,,1.69,0.91,1.43*06
$GPRMC,142749.000,A,5212.0928,N,00005.9627,E,0.01,277.17,181118,,,A*6E
$GPVTG,277.17,T,,M,0.01,N,0.02,K,A*3A
$PMTKLOG,0,1,a,31,15,0,0,1,0,0*11
$PMTK001,183,3*3A
$PMTK869,
2,1*36

$GPGGA,142750.000,5212.0927,N,00005.9627,E,1,09,0.91,12.1,M,47.0,M,,*5E
$GPGSA,A,3,06,07,0
5,29,09,23,30,02,13,,,,1.69,0.91,1.42*07
$GPRMC,142750.000,A,5212.0927,N,00005.9627,E,0.01,320.13,181118,,,A*6E
$GPVTG,320.13,T,,M,0.01,N,0.03,K,A*3C

$PMTKLOG,0,1,a,31,15,0,
0,1,0,0*11
$PMTK001,183,3*3A
$PMTK869,2,1*36

$GPGGA,142751.000,5212.0927,N,00005.9627,E,1,09,0.91,12.1,M,47.0,M,,*5F
$GPGSA,A,3,06,07,05,29
,09,23,30,02,13,,,,1.69,0.91,1.42*07
$GPGSV,3,1,10,07,64,116,44,30,47,176,41,05,42,297,33,02,41,247,36*70
$GPGSV,3,2,10,09,41,076,43,06,22,197,36,23,15,078,38,13,12,252,31*78
$GPGSV,3,3,10,29,09,312,30,36,,,*4C
$
GPRMC,142751.000,A,5212.0927,N,00005.9627,E,0.01,296.70,181118,,,A*66
$GPVTG,296.70,T,,M,0.01,N,0.01,K,A*37

$PMTKLOG,0,1,a,31,15,0,0,1,0,0*11
$PMTK001,183,3*3A
$PMTK869,2,1*36

$GPGGA,142752.000,5212.0927,N,00005.9627,E,1,09,0.91,12.1,M,47.0,M,,*5C
$GPGSA,
A,3,06,07,05,29,09,23,30,02,13,,,,1.69,0.91,1.43*06
$GPRMC,142752.000,A,5212.0927,N,00005.9627,E,0.00,20.68,181118,,,A*52
$GPVTG,20.68,T,,M,0.00,N,0.01,K,A*00
$PMTKLOG,0,1,a,31,15,0,0,1,0,0*11
$PMTK001,183,3*3A
$PMTK869,2,1*36

$GPGGA,142753.
000,5212.0926,N,00005.9627,E,1,09,0.91,12.1,M,47.0,M,,*5C
$GPGSA,A,3,06,07,05,29,09,23,30,02,13,,,,1.6
9,0.91,1.42*07
$GPRMC,142753.000,A,5212.0926,N,00005.9627,E,0.01,257.79,181118,,,A*61
$GPVTG,257.79,T,,M,0.01,N,0.02,K,A*30
$PMTKLOG,0,1,a,31,15,0,0,1,0,0*11
$PMTK001,183,3*3A

$PMTK869,2,1*36

$GPGGA,142754.000,5212.0926,N,00005.9627,E,1,09,0.91,12.1,M,47.0,M,,*5B
$GPGS
A,A,3,06,07,05,29,09,23,30,02,13,,,,1.69,0.91,1.42*07
$GPRMC,142754.000,A,5212.0926,N,00005.9627,E,0.
01,348.31,181118,,,A*65
$GPVTG,348.31,T,,M,0.01,N,0.02,K,A*33
$PMTKLOG,0,1,a,31,15,0,0,1,0,0*11
$PMTK001,183,3*3A

$PMTK869,2,1*36

$GPGGA,142755.000,5212.0926,N,00005.9627,E,1,09,0.91,12.0,M,47.0,M,,*5B
$GPGSA
,A,3,06,07,05,29,09,23,30,02,13,,,,1.69,0.91,1.42*07
$GPRMC,142755.000,A,5212.0926,N,00005.9627,E,0.01,321.58,181118,,,A*64
$GPVTG,321.58,T,,M,0.01,N,0.02,K,A*33
$PMTKLOG,0,1,a,31,15,0,0,1,0,0*11
$PMTK001,183,3*3A
$PMTK869,2,1*
36

$GPGGA,142756.000,5212.0926,N,00005.9626,E,1,09,0.91,12.0,M,47.0,M,,*59
$GPGSA,A,3,06,07,05,29
,09,23,30,02,13,,,,1.69,0.91,1.42*07
$GPGSV,3,1,10,07,64,116,44,30,47,176,41,05,42,297,34,02,41,246,36*76
$GPGSV,3,2,10,09,41,076,43,06,22,197,36,23,15,078,38,13,12,252,32*7B
$GPGSV,3,3,10,29,09,312,29,38,,,*4A
$GPRM
C,142756.000,A,5212.0926,N,00005.9626,E,0.01,261.42,181118,,,A*68
$GPVTG,261.42,T,,M,0.01,N,0.02,K,A*3D
$PMTKLOG
,0,1,a,31,15,0,0,1,0,0*11
$PMTK001,183,3*3A
$PMTK869,2,1*36

$GPGGA,142757.000,5212.0925,N,00005.9626,E,1,09,0.91,12.0,M,47.0,M,,*5B
$GPGSA,A,3,06,07,05,29,09,23,3
0,02,13,,,,1.69,0.91,1.42*07
$GPRMC,142757.000,A,5212.0925,N,00005.9626,E,0.00,294.91,181118,,,A*6F
$GPVTG,294.91,T,,M,0.00,N,0.00,K,A*3A
$PMTKLOG,0,1,a,31,15,0,0,1,0,0*11
$PMTK001,183,3*3A
$PMTK
869,2,1*36

$GPGGA,142758.000,5212.0925
,N,00005.9626,E,1,09,0.91,11.9,M,47.0,M,,*5E
$GPGSA,A,3,06,07,05,29,09,23,30,02,13,,,,1.69,0.91,1.42*07

$GPRMC,142758.000,A,5212.0925,N,00005.9626,E,0.00,87.41,181118,,,A*5D
$GPVTG,87.41,T,,M,0.00,N,0.00,K,A*07
$PMTKLOG,0,1,a,31,15,0,0,1,0,0*11
$PMTK001,183,3*3A

$PMTK869,2,1*36

$GPGGA,142759.000,5212.0925,N,00005.9626,E,1,09,0.91,11.9,M,47.0,M,,*5F
$GPGSA,A,
3,06,07,05,29,09,23,30,02,13,,,,1.69,0.91,1.42*07
$GPRMC,142759.000,A,5212.0925,N,00005.9626,E,0.00,38.74
,181118,,,A*5E
$GPVTG,38.74,T,,M,0.00,N,0.01,K,A*04

$PMTKLOG,0,1,a,31,15,0,0,1,0,0*11
$PMTK001,183,3*3A
$PMT
K869,2,1*36

$GPGGA,142800.000,5212.0925,N,00005.9626,E,1,09,0.91,11.9,M,47.0,M,,*5C
$GPGSA,A,3,06,07,05,29,09,23,
30,02,13,,,,1.69,0.91,1.42*07
$GPRMC,142800.000,A,5212.0925,N,00005.9626,E,0.01,330.05,181118,,,A*61

$GPVTG,330.05,T,,M,0.01,N,0.01,K,A*38
$PMTKLOG,0,1,a,31,15,0,0,1,0,0*11
$PMTK001,183,3*3A
$PMTK869,2,1*36

$GPGGA,142801.0
00,5212.0924,N,00005.9626,E,1,09,0.91,11.8,M,47.0,M,,*5D
$GPGSA,A,3,06,07,05,29,09,23,30,02,13,,,,1.69,0.
91,1.42*07
$GPGSV,3,1,10,07,65,116,44,30,47,176,41,05,43,297,34,02,41,246,36*76
$GPGSV,3,2,10,09,41,076,43,06,22,197,36,23,15,078,38,13,12,252,31*78
$GPGSV,3,3,10,29,09,312,24,41,,,*49
$GPRMC,142801.000,A,
5212.0924,N,00005.9626,E,0.03,309.70,181118,,,A*6B
$GPVTG,309.70,T,,M,0.03,N,0.05,K,A*36
$PMTKLOG,0,1,a,3
1,15,0,0,1,0,0*11
$PMTK001,183,3*3A
$PMTK869,2,1*36

$GPGGA,142802.000,
5212.0924,N,00005.9625,E,1,09,0.91,11.8,M,47.0,M,,*5D
$GPGSA,A,3,06,07,05,29,09,23,30,02,13,,,,1.69,0
.91,1.42*07
$GPRMC,142802.000,A,5212.0924,N,00005.9625,E,0.01,12.87,181118,,,A*58
$GPVTG,12.87,T,,M,0.01
,N,0.01,K,A*01

$PMTKLOG,0,1,a,31,15,0,0,1,0,0*11
$PMTK001,183,3*3A
$P
MTK869,2,1*36

$GPGGA,142803.000,5212.0924,N,00005.9625,E,1,09
,0.91,11.8,M,47.0,M,,*5C
$GPGSA,A,3,06,07,05,29,09,23,30,02,13,,,,1.69,0.91,1.42*07
$GPRMC,142803.000
,A,5212.0924,N,00005.9625,E,0.01,306.21,181118,,,A*63
$GPVTG,306.21,T,,M,0.01,N,0.02,K,A*38
$P
MTKLOG,0,1,a,31,15,0,0,1,0,0*11
$PMTK001,183,3*3A
$PMTK869,2,1*36

$GPGGA,142804.000,5212.0924,
N,00005.9625,E,1,09,0.91,11.8,M,47.0,M,,*5B
$GPGSA,A,3,06,07,05,29,09,23,30,02,13,,,,1.69,0.91,1.42*07

$GPRMC,142804.000,A,5212.0924,N,00005.9625,E,0.01,220.06,181118,,,A*64
$GPVTG,220.06,T,,M,0.01,N,0.01,K,A*3B

$PMTKLOG,0,1,a,31,15,0,0,1,0,0*11
$PMTK001
,183,3*3A
$PMTK869,2,1*36

$GPGGA,142805.000,5212.0923,N,00005.9625,E,1
,09,0.91,11.7,M,47.0,M,,*52
$GPGSA,A,3,06,07,05,29,09,23,30,02,13,,,,1.69,0.91,1.42*07
$GPRMC,142805.000,
A,5212.0923,N,00005.9625,E,0.02,349.15,181118,,,A*6D
$GPVTG,349.15,T,,M,0.02,N,0.03,K,A*36
$PMTKLO
G,0,1,a,31,15,0,0,1,0,0*11
$PMTK001,183,3*3A
$PMTK869,2,1*36

$GPGGA,1428
06.000,5212.0923,N,00005.9625,E,1,09,0.91,11.7,M,47.0,M,,*51
$GPGSA,A,3,06,07,05,29,09,23,30,02,13,,,
,1.69,0.91,1.42*07
$GPGSV,3,1,10,07,65,116,44,30,47,176,41,05,43,297,33,02,41,246,36*71
$GPGSV,3,2,10,09
,41,076,43,06,22,197,35,23,15,078,38,13,12,253,31*7A
$GPGSV,3,3,10,29,09,312,19,41,,,*47
$GPRMC,142806.000,A,5212.0923,N,00005.9
625,E,0.00,259.93,181118,,,A*62
$GPVTG,259.93,T,,M,0.00,N,0.00,K,A*39
$PMTKLOG,0,1,a,31,15,0,0,1,0,0*11
$PM
TK001,183,3*3A
$PMTK869,2,1*36

$GPGGA,142807.000,5212.0923,N,00005.9625,E,1,09,0.91,11.7,M,47.0,M,,*50
$GPGSA,A,3,06,07,05,29,09,2
3,30,02,13,,,,1.69,0.91,1.42*07
$GPRMC,142807.000,A,5212.0923,N,00005.9625,E,0.01,298.67,181118,,,A*64
$GPVTG,298.67,T,,M,0.01,N,0.01,K,A*3F

$PMTKLOG,0,1,a,31,15,0,0,1,0,0*11
$PMTK
001,183,3*3A
$PMTK869,2,1*36

$GPGGA,142808.000,5212.0922,N,00005.9625,E,1,
09,0.91,11.6,M,47.0,M,,*5F
$GPGSA,A,3,06,07,05,29,09,23,30,02,13,,,,1.69,0.91,1.42*07
$GPRMC,142808.000,A,52
12.0922,N,00005.9625,E,0.01,308.29,181118,,,A*68
$GPVTG,308.29,T,,M,0.01,N,0.01,K,A*3D
$PMTKLOG,0,1,a,31,15,0,0,1,0,0*11
$
PMTK001,183,3*3A
$PMTK869,2,1*36

$GPGGA,142809.000,5212.
0922,N,00005.9625,E,1,09,0.91,11.6,M,47.0,M,,*5E
$GPGSA,A,3,06,07,05,29,09,23,30,02,13,,,,1.69,0.91,1
.42*07
$GPRMC,142809.000,A,5212.0922,N,00005.9625,E,0.01,63.54,181118,,,A*5D
$GPVTG,63.54,T,,M,0.01,N,0.01,K,A*09

$PMTKLOG,0,1,a,31,15,0,
0,1,0,0*11
$PMTK001,183,3*3A
$PMTK869,2,1*36

$GP
GGA,142810.000,5212.0921,N,00005.9625,E,1,09,0.91,11.5,M,47.0,M,,*56
$GPGSA,A,3,06,07,05,29,09,23,30,0
2,13,,,,1.69,0.91,1.42*07
$GPRMC,142810.000,A,5212.0921,N,00005.9625,E,0.00,304.41,181118,,,A*61
$GP
VTG,304.41,T,,M,0.00,N,0.01,K,A*3E
$PMTKLOG,0,1,a,31,15,0,0,1,0,0*11
$PMTK001,183,3*3A
$PMTK
869,2,1*36

$GPG
GA,142811.000,5212.0921,N,00005.9624,E,1,09,0.91,11.5,M,47.0,M,,*56
$GPGSA,A,3,06,07,05,29,09,23,30,02,13
,,,,1.69,0.91,1.42*07
$GPGSV,3,1,10,07,65,116,44,30,47,176,41,05,43,297,33,02,41,246,36*71
$GPGSV,3,2,10,09,
41,076,43,06,22,197,35,23,15,078,38,13,12,253,30*7B
$GPGSV,3,3,10,29,09,312,18,43,,,*44
$GPRMC,142811.000,A,5212.0921,N,00005.9624,E
,0.01,17.58,181118,,,A*59
$GPVTG,17.58,T,,M,0.01,N,0.01,K,A*06
$PMTKLOG,0,1,a,31,15,0,0,1,0,0*11
$P
MTK001,183,3*3A
$PMTK869,2,1*36

$GPGGA,142812.000,5212.0921,N,00005.
9624,E,1,09,0.91,11.5,M,47.0,M,,*55
$GPGSA,A,3,06,07,05,29,09,23,30,02,13,,,,1.69,0.91,1.42*07
$G
PRMC,142812.000,A,5212.0921,N,00005.9624,E,0.01,282.42,181118,,,A*6F
$GPVTG,282.42,T,,M,0.01,N,0.02,K,A*30

$PMTKLOG,0,1,a,31,15,0,0,1,0,0*11
$PMTK001,183,3*3A
$PMTK869,2,1*36

$GPGGA,142813.000,5212.0921,N,00005.9624,E,1,09,0.91,
11.5,M,47.0,M,,*54
$GPGSA,A,3,06,07,05,29,09,23,30,02,13,,,,1.69,0.91,1.42*07
$GPRMC,142813.000,A,5212.0
921,N,00005.9624,E,0.01,9.57,181118,,,A*6B
$GPVTG,9.57,T,,M,0.01,N,0.01,K,A*36

$PMTKLOG,0,1,a,31,15,0,0,
1,0,0*11
$PMTK001,183,3*3A
$PMTK869,2,1*36

$GPGGA,142814.000,5212.0921,N
,00005.9624,E,1,09,0.91,11.5,M,47.0,M,,*53
$GPGSA,A,3,06,07,05,29,09,23,30,02,13,,,,1.69,0.91,1.42*07

$GPRMC,142814.000,A,5212.0921,N,00005.9624,E,0.01,318.63,181118,,,A*68
$GPVTG,318.63,T,,M,0.01,N,0.01,K,A*32
$PMTKLOG,0,1,a,31,15,0,0,1,0,0*11
$PMTK001,183,3*3A
$PMTK869,2,1*36

$GPGGA,142815.0
00,5212.0921,N,00005.9624,E,1,09,0.91,11.5,M,47.0,M,,*52
$GPGSA,A,3,06,07,05,29,09,23,30,02,13,,,,1.69,0.
91,1.42*07
$GPRMC,142815.000,A,5212.0921,N,00005.9624,E,0.00,333.45,181118,,,A*65
$GPVTG,333.45,T,,M,0.00,N,0.01,K,A*3E

$PMTKLOG,0,1,a,31,15,0,0,1,0
,0*11
$PMTK001,183,3*3A
$PMTK869,2,1*36

$GPGGA,142816.000,5
212.0921,N,00005.9624,E,1,09,0.91,11.5,M,47.0,M,,*51
$GPGSA,A,3,06,07,05,29,09,23,30,02,13,,,,1.69,0.91,1.42*
07
$GPGSV,3,1,10,07,65,116,44,30,47,176,41,05,43,297,34,02,41,246,36*76
$GPGSV,3,2,10,09,41,076,43,06,22,197,35,23,15,078,38,13,12,253,32*79
$GPGSV,3,3,10,29,09,312,21,45,,,*48
$GPRMC,142816.000,A,5212.0921,N,00005.9624,E,0.
00,95.22,181118,,,A*58
$GPVTG,95.22,T,,M,0.00,N,0.01,K,A*00
$PMTKLOG,0,1,a,31,15,0,0,1,0,0*11

$PMTK001,183,3*3A
$PMTK869,2,1*36

$GPGGA,142817.000,5212.0
921,N,00005.9624,E,1,09,0.91,11.5,M,47.0,M,,*50
$GPGSA,A,3,06,07,05,29,09,23,30,02,13,,,,1.69,0.9
1,1.42*07
$GPRMC,142817.000,A,5212.0921,N,00005.9624,E,0.01,320.76,181118,,,A*64
$GPVTG,320.76,T,,M,0.01,N,0.02,K,A*3E
$PMTKLOG,0,1,a,31,15,0,0,1,0,0*11
$PMTK001,183,3*3A
$PMTK869,2,1*36

$GPGGA,142818.000,5212.0921,N,00005.9624,E,1,09,0.91,11.5,M,47.0,M
,,*5F
$GPGSA,A,3,06,07,05,29,09,23,30,02,13,,,,1.69,0.91,1.42*07
$GPRMC,142818.000,A,5212.09
21,N,00005.9624,E,0.01,197.45,181118,,,A*65
$GPVTG,197.45,T,,M,0.01,N,0.02,K,A*30
$PMTKLOG,0,1,a,31,15,0,0,1,0,0*
11
$PMTK001,183,3*3A
$PMTK869,2,1*36

$GPGGA,142819.000,5212.0921,N,00005.9624,E,1,09,0.91,
11.5,M,47.0,M,,*5E
$GPGSA,A,3,06,07,05,29,09,23,30,02,13,,,,1.69,0.91,1.42*07
$GPRMC,142819
.000,A,5212.0921,N,00005.9624,E,0.01,33.85,181118,,,A*57
$GPVTG,33.85,T,,M,0.01,N,0.02,K,A*03
$P
MTKLOG,0,1,a,31,15,0,0,1,0,0*11
$PMTK001,183,3*3A
$PMTK869,2,1*36

$GPGGA,142820.000,
5212.0921,N,00005.9624,E,1,09,0.91,11.5,M,47.0,M,,*54
$GPGSA,A,3,06,07,05,29,09,23,30,02,13,,,,1.69,0.91
,1.42*07
$GPRMC,142820.000,A,5212.0921,N,00005.9624,E,0.02,288.87,181118,,,A*6E
$GPVTG,288.87,T,,M,
0.02,N,0.03,K,A*31
$PMTKLOG,0,1,a,31,15,0,0,1,0,0*11
$PMTK001,183,3*3A
$PMTK869,2,1*36

$GPGGA,14282
1.000,5212.0921,N,00005.9624,E,1,09,0.91,11.5,M,47.0,M,,*55
$GPGSA,A,3,06,07,05,29,09,23,30,02,13,,,,1.69,0.
91,1.42*07
$GPGSV,3,1,10,07,65,116,44,30,47,176,41,05,43,297,34,02,41,246,37*77
$GPGSV,3,2,10,09,41,076
,43,06,22,197,35,23,15,078,38,13,12,253,32*79
$GPGSV,3,3,10,29,09,312,27,46,,,*4D
$GPRMC,142821.000,A,5212.0921,N,
00005.9624,E,0.01,358.97,181118,,,A*61
$GPVTG,358.97,T,,M,0.01,N,0.02,K,A*3E
$PMTKLOG,0,1,a,31,15,0,0,1
,0,0*11
$PMTK001,183,3*3A
$PMTK869,2,1*36

$GPGGA,142822.000,5212.0921,N,00005.9624,E,1,09,0.9
1,11.5,M,47.0,M,,*56
$GPGSA,A,3,06,07,05,29,09,23,30,02,13,,,,1.69,0.91,1.42*07
$GPRMC,142822.000,A
,5212.0921,N,00005.9624,E,0.01,144.12,181118,,,A*60
$GPVTG,144.12,T,,M,0.01,N,0.01,K,A*3F
$PMTKLOG,0,1,
a,31,15,0,0,1,0,0*11
$PMTK001,183,3*3A
$PMTK869,2,1*36

$GPGGA,142823.000,5212.0921,N,00005.9624,E,1,09,0.91,11.5,M,47.
0,M,,*57
$GPGSA,A,3,06,07,05,29,09,23,30,02,13,,,,1.69,0.91,1.42*07
$GPRMC,142823.000,A,5212.09
21,N,00005.9624,E,0.01,302.73,181118,,,A*66
$GPVTG,302.73,T,,M,0.01,N,0.01,K,A*38
$PMTKLOG,0,1,a,31
,15,0,0,1,0,0*11
$PMTK001,183,3*3A
$PMTK869,2,1*36

$GPGGA,142824.000,5212.0921,N,00005.9624,E,1,09,0.91,11.5,M,47.0,M,,*50
$GPGSA,A,3
,06,07,05,29,09,23,30,02,13,,,,1.69,0.91,1.42*07
$GPRMC,142824.000,A,5212.0921,N,00005.9624,E,0.01,1
86.94,181118,,,A*66
$GPVTG,186.94,T,,M,0.01,N,0.02,K,A*3C
$PMTKLOG,0,1,a,31,15,0,0,1,0,0*11
$PMTK001,1
83,3*3A
$PMTK869,2,1*36

$GPGGA,142825.000,5212.0921,N,00005.9624,E,1,09,0.91,1
1.5,M,47.0,M,,*51
$GPGSA,A,3,06,07,05,29,09,23,30,02,13,,,,1.69,0.91,1.42*07
$GPRMC,142825.000,A,521
2.0921,N,00005.9624,E,0.01,21.92,181118,,,A*5D
$GPVTG,21.92,T,,M,0.01,N,0.02,K,A*06
$PMTKLOG,0,1,a,31,15,0
,0,1,0,0*11
$PMTK001,183,3*3A
$PMTK869,2,1*36

$GPGGA,142826.000,5212.0920,N,00005.9624,E,1,09,0.91,11.5,M,47.0
,M,,*53
$GPGSA,A,3,06,07,05,29,09,23,30,02,13,,,,1.69,0.91,1.42*07
$GPGSV,3,1,10,07,65,116,44,30,48,176,
41,05,43,297,34,02,41,246,37*78
$GPGSV,3,2,10,09,41,076,43,06,22,197,35,23,15,078,38,13,12,253,32*79

$GPGSV,3,3,10,29,09,312,29,46,,,*43
$GPRMC,142826.000,A,5212.0920,N,00005.9624,E,0.01,271.13,181118,,,A*61
$G
PVTG,271.13,T,,M,0.01,N,0.01,K,A*3B
$PMTKLOG,0,1,a,31,15,0,0,1,0,0*11
$PMTK001,183,3*3A
$PMTK869,2
,1*36

$GPGGA,142827.000,5212.0920,N,00005.9624,E,1,09,
0.91,11.5,M,47.0,M,,*52
$GPGSA,A,3,06,07,05,29,09,23,30,02,13,,,,1.69,0.91,1.42*07
$GPRMC,142827.000,A,5212
.0920,N,00005.9624,E,0.00,1.21,181118,,,A*65
$GPVTG,1.21,T,,M,0.00,N,0.00,K,A*3F
$PMTKLOG,0,1,a,31,
15,0,0,1,0,0*11
$PMTK001,183,3*3A
$PMTK869,2,1*36

$GPGGA,142828.000,5212
.0920,N,00005.9625,E,1,09,0.91,11.5,M,47.0,M,,*5C
$GPGSA,A,3,06,07,05,29,09,23,30,02,13,,,,1
.69,0.91,1.42*07
$GPRMC,142828.000,A,5212.0920,N,00005.9625,E,0.01,48.22,181118,,,A*54
$GPVTG,48.22
,T,,M,0.01,N,0.01,K,A*01
$PMTKLOG,0,1,a,31,15,0,0,1,0,0*11
$PMTK001,183,3*3A
$PMTK869,2,1*36

$GPGGA,
142829.000,5212.0920,N,00005.9625,E,1,09,0.91,11.5,M,47.0,M,,*5D
$GPGSA,A,3,06,07,05,29,09,23,30,02,
13,,,,1.69,0.91,1.42*07
$GPRMC,142829.000,A,5212.0920,N,00005.9625,E,0.00,316.29,181118,,,A*67
$GPVTG,3
16.29,T,,M,0.00,N,0.01,K,A*33
$PMTKLOG,0,1,a,31,15,0,0,1,0,0*11
$PMTK001,183,3*3A
$PMTK869,2,1*36

$GPGGA,142830.000
,5212.0920,N,00005.9625,E,1,09,0.91,11.5,M,47.0,M,,*55
$GPGSA,A,3,06,07,05,29,09,23,30,02,13,,,,
1.69,0.91,1.42*07
$GPRMC,142830.000,A,5212.0920,N,00005.9625,E,0.01,359.09,181118,,,A*67
$GPVTG,359.09,T,,M
,0.01,N,0.01,K,A*3B
$PMTKLOG,0,1,a,31,15,0,0,1,0,0*11
$PMTK001,183,3*3A
$PMTK869,2,1*36

$GPGGA,142831.000,5212.0920,N,00005.9625,E,1,09,0.91,11.5,M,47.0,
M,,*54
$GPGSA,A,3,06,07,05,29,09,23,30,02,13,,,,1.68,0.91,1.42*06
$GPGSV,3,1,11,07,65,116,44,30,48,176,41,0
5,43,297,34,02,41,246,37*79
$GPGSV,3,2,11,09,41,076,43,06,22,197,35,23,15,078,38,13,12,253,32*78

$GPGSV,3,3,11,29,09,312,29,47,,,,16,,,37*40
$GPRMC,142831.000,A,5212.0920,N,00005.9625,E,0.01,201.94,18111
8,,,A*6E
$GPVTG,201.94,T,,M,0.01,N,0.01,K,A*33
$PMTKLOG,0,1,a,31,15,0,0,1,0,0*11
$PMTK001,183,
3*3A
$PMTK869,2,1*36

$GPGGA,142832.000,5212.0920,N,00005.9625,E,1,09,0.91,11.5,
M,47.0,M,,*57
$GPGSA,A,3,06,07,05,29,09,23,30,02,13,,,,1.68,0.91,1.42*06
$GPRMC,142832.000,A,521
2.0920,N,00005.9625,E,0.01,355.03,181118,,,A*63
$GPVTG,355.03,T,,M,0.01,N,0.02,K,A*3E
$PMTKLOG,0,1,a,3
1,15,0,0,1,0,0*11
$PMTK001,183,3*3A
$PMTK869,2,1*36

$GPGGA,142833.000,5212.0920,N,00005.9625,E,1,09,0.91,11.5,M,47.0,M,,*56

$GPGSA,A,3,06,07,05,29,09,23,30,02,13,,,,1.69,0.91,1.42*07
$GPRMC,142833.000,A,5212.0920,N,00005.9
625,E,0.01,167.31,181118,,,A*60
$GPVTG,167.31,T,,M,0.01,N,0.01,K,A*3F
$PMTKLOG,0,1,a,31,15,0,0,1,0,0*11

$PMTK001,183,3*3A
$PMTK869,2,1*36

$GPGGA,142834.000,5212.0920,N,00005.9625,E,1,09,0.91,11.5,M,47.0
,M,,*51
$GPGSA,A,3,06,07,05,29,09,23,30,02,13,,,,1.68,0.91,1.42*06
$GPRMC,142834.000,A,5212.0920,N,0000
5.9625,E,0.00,151.54,181118,,,A*60
$GPVTG,151.54,T,,M,0.00,N,0.01,K,A*38
$PMTKLOG,0,1,a,31,15,0,0,1,0,0
*11
$PMTK001,183,3*3A
$PMTK869,2,1*36

$GPGGA,142835.000,5212.0920,N,00005.9625,E,1,09,0.91,11.5,M,47.
0,M,,*50
$GPGSA,A,3,06,07,05,29,09,23,30,02,13,,,,1.68,0.91,1.42*06
$GPRMC,142835.000,A,5212.09
20,N,00005.9625,E,0.00,333.75,181118,,,A*64
$GPVTG,333.75,T,,M,0.00,N,0.01,K,A*3D
$PMTKLOG,0,1,a,31,15,
0,0,1,0,0*11
$PMTK001,183,3*3A
$PMTK869,2,1*36

$GPGGA,142836.000,5212.0920,N,00005.9625,E,1,09,0.91,11.5,
M,47.0,M,,*53
$GPGSA,A,3,06,07,05,29,09,23,30,02,13,,,,1.69,0.91,1.42*07
$GPGSV,3,1,11,07,65,115,44
,30,48,176,41,05,43,297,34,02,41,246,37*7A
$GPGSV,3,2,11,09,41,076,43,06,22,197,36,23,15,078,38,13,1
2,253,32*7B
$GPGSV,3,3,11,29,09,312,26,49,,,,16,,,37*41
$GPRMC,142836.000,A,5212.0920,N,00005.9625,E,0.01,3
41.19,181118,,,A*69
$GPVTG,341.19,T,,M,0.01,N,0.02,K,A*30
$PMTKLOG,0,1,a,31,15,0,0,1,0,0*11
$P
MTK001,183,3*3A
$PMTK869,2,1*36

$GPGGA,142837.000,5212.0920,N,00005.9625,E,1,09,0.91,11.5,M,47.0,M,,*52
$GPGSA,A,3,0
6,07,05,29,09,23,30,02,13,,,,1.68,0.91,1.42*06
$GPRMC,142837.000,A,5212.0920,N,00005.9625,E,0.01,152.32,181118,,
,A*61
$GPVTG,152.32,T,,M,0.01,N,0.01,K,A*3A
$PMTKLOG,0,1,a,31,15,0,0,1,0,0*11
$PMTK001,183,3*3A
$
PMTK869,2,1*36

$GPGGA,142838.
000,5212.0920,N,00005.9625,E,1,09,0.91,11.5,M,47.0,M,,*5D
$GPGSA,A,3,06,07,05,29,09,23,30,02,13,,,,1
.68,0.91,1.42*06
$GPRMC,142838.000,A,5212.0920,N,00005.9625,E,0.01,314.02,181118,,,A*6D
$GPVTG,314.02,T,,M,
0.01,N,0.02,K,A*3A
$PMTKLOG,0,1,a,31,15,0,0,1,0,0*11
$PMTK001,183,3*3A
$PMTK869,2,1*36

$GPGGA,142839.000,5212.0920,N,00005.9625,E,1,09,0.91,11.5,M,47.0,M,,*5C
$GPGSA,
A,3,06,07,05,29,09,23,30,02,13,,,,1.68,0.91,1.42*06
$GPRMC,142839.000,A,5212.0920,N,00005.9625,E,0.01,17
4.90,181118,,,A*63
$GPVTG,174.90,T,,M,0.01,N,0.01,K,A*36
$PMTKLOG,0,1,a,31,15,0,0,1,0,0*11
$PMTK00
1,183,3*3A
$PMTK869,2,1*36

$GPGGA,142840.000,5212.0920,N,00005.9625,E,1,09,0.91,11.5,M,
47.0,M,,*52
$GPGSA,A,3,06,07,05,29,09,23,30,02,13,,,,1.68,0.91,1.41*05
$GPRMC,142840.000,A,5212.0920,N,00005.96
25,E,0.01,51.49,181118,,,A*5F
$GPVTG,51.49,T,,M,0.01,N,0.02,K,A*07
$PMTKLOG,0,1,a,31,15,0,0,1,0
,0*11
$PMTK001,183,3*3A
$PMTK869,2,1*36

$GPGGA,142841.000,5212.0920,N,00005.9625,E,1,
09,0.91,11.5,M,47.0,M,,*53
$GPGSA,A,3,06,07,05,29,09,23,30,02,13,,,,1.68,0.91,1.42*06
$GPGS
V,3,1,11,07,65,115,44,30,48,176,41,05,43,297,34,02,41,246,37*7A
$GPGSV,3,2,11,09,41,077,43,06,22,197,36,
23,15,078,38,13,12,253,31*79
$GPGSV,3,3,11,29,09,312,23,49,,,37,16,,,37*40
$GPRMC,142841.000,A,5212.092
0,N,00005.9625,E,0.01,311.86,181118,,,A*6A
$GPVTG,311.86,T,,M,0.01,N,0.01,K,A*30
$PMTKLOG,0,1,a,31,
15,0,0,1,0,0*11
$PMTK001,183,3*3A
$PMTK869,2,1*36

$GPGGA,142842.000,5212.0920,N,00005.9625,E,1,09,0.91,11.5,M,47
.0,M,,*50
$GPGSA,A,3,06,07,05,29,09,23,30,02,13,,,,1.68,0.91,1.41*05
$GPRMC,142842.000,A,5212.0920,
N,00005.9625,E,0.00,102.56,181118,,,A*65
$GPVTG,102.56,T,,M,0.00,N,0.00,K,A*3D
$PMTKLOG,0,1,a,31,15,0,0,1,0
,0*11
$PMTK001,183,3*3A
$PMTK869,2,1*36

$GPGGA,142843.000,5212.09
20,N,00005.9625,E,1,09,0.91,11.5,M,47.0,M,,*51
$GPGSA,A,3,06,07,05,29,09,23,30,02,13,,,,1.68,0.91,1.41*05
$
GPRMC,142843.000,A,5212.0920,N,00005.9625,E,0.00,302.67,181118,,,A*64
$GPVTG,302.67,T,,M,0.00,N,0.00
,K,A*3D
$PMTKLOG,0,1,a,31,15,0,0,1,0,0*11
$PMTK001,183,3*3A
$PMTK869,2,1*36

$GPGGA,142844.000,5212.0920,N,00005.9625,E,1,09,0.91,11.5,M,47.0,M,,*56
$GPGSA,A,3,06,07,05,29,0
9,23,30,02,13,,,,1.68,0.91,1.41*05
$GPRMC,142844.000,A,5212.0920,N,00005.9625,E,0.01,320.84,181118,,,A*6F
$
GPVTG,320.84,T,,M,0.01,N,0.01,K,A*30
$PMTKLOG,0,1,a,31,15,0,0,1,0,0*11
$PMTK001,183,3*3A
$
PMTK869,2,1*36

$GPGGA,142845.000,5212.0920,N,00005.9625,E,1,09,0.91,11.5,M,47.0,M,,*57
$GPGSA,A,3,06,07,05,29,09,23,30,02,13,,
,,1.68,0.91,1.41*05
$GPRMC,142845.000,A,5212.0920,N,00005.9625,E,0.01,54.67,181118,,,A*53
$GPVT
G,54.67,T,,M,0.01,N,0.01,K,A*0D
$PMTKLOG,0,1,a,31,15,0,0,1,0,0*11
$PMTK001,183,3*3A
$PMTK869,2,1*36

$GPGGA,142846.000,5212.0920,N,00005.9625,E,1,09,0.91,11.5,M,47.0,M,,*54
$GPGSA,A,3,06,07,05,29,0
9,23,30,02,13,,,,1.68,0.91,1.41*05
$GPGSV,3,1,11,07,65,115,44,30,48,176,41,05,43,297,34,02,41,246,37*7A
$GPGSV
,3,2,11,09,41,077,43,06,22,197,36,23,15,078,38,13,12,253,31*79
$GPGSV,3,3,11,29,09,312,21,49,,,37
,16,,,37*42
$GPRMC,142846.000,A,5212.0920,N,00005.9625,E,0.01,187.20,181118,,,A*6C
$GPVTG,187.20,T,,M,0
.01,N,0.01,K,A*31
$PMTKLOG,0,1,a,31,15,0,0,1,0,0*11
$PMTK001,183,3*3A
$PMTK869,2,1*36

$GPGGA,142847.000,5212.0920,N,00005.9625,E,1,09,0.91,11.5,M,47.0,M,,*55
$GPGSA,A,3,06,07,05,29,09,23,30,02
,13,,,,1.68,0.91,1.41*05
$GPRMC,142847.000,A,5212.0920,N,00005.9625,E,0.00,322.35,181118,,,A*65
$GPVTG,322.
35,T,,M,0.00,N,0.01,K,A*39
$PMTKLOG,0,1,a,31,15,0,0,1,0,0*11
$PMTK001,183,3*3A
$PMTK869,2,1*36

$GPGGA,142848.000,5212.0920,N,00005.9625,E,1,09
,0.91,11.5,M,47.0,M,,*5A
$GPGSA,A,3,06,07,05,29,09,23,30,02,13,,,,1.68,0.91,1.41*05
$GPRMC,142848.000,A,52
12.0920,N,00005.9625,E,0.01,124.65,181118,,,A*6A
$GPVTG,124.65,T,,M,0.01,N,0.01,K,A*39
$PMTKLOG,0,1,
a,31,15,0,0,1,0,0*11
$PMTK001,183,3*3A
$PMTK869,2,1*36

$GPGGA,142849.000,5212.0920,N,00005.9625,E,1,09,0.91,11.5,M,47.0,M,,*5
B
$GPGSA,A,3,06,07,05,29,09,23,30,02,13,,,,1.68,0.91,1.41*05
$GPRMC,142849.000,A,5212.0920,N,00005.9625
,E,0.01,4.12,181118,,,A*68
$GPVTG,4.12,T,,M,0.01,N,0.02,K,A*39
$PMTKLOG,0,1,a,31,15,0,0,1,0,0*11
$
PMTK001,183,3*3A
$PMTK869,2,1*36

$GPGGA,142850.000,5212.0920,N,00005.9625,E,1,09,0.91,11.5,M,47.0,M,,*53
$GPGSA
,A,3,06,07,05,29,09,23,30,02,13,,,,1.68,0.91,1.41*05
$GPRMC,142850.000,A,5212.0920,N,00005.9625,E,0.01,217.4
3,181118,,,A*64
$GPVTG,217.43,T,,M,0.01,N,0.01,K,A*3E
$PMTKLOG,0,1,a,31,15,0,0,1,0,0*11
$PMTK0
01,183,3*3A
$PMTK869,2,1*36

$GPGGA,142851.000,5212.0920,N,00005.9625,E,1,09,0.91,11.5,M,47.0,M,,*52

$GPGSA,A,3,06,07,05,29,09,23,30,02,13,,,,1.68,0.91,1.41*05
$GPGSV,3,1,11,07,65,115,44,30,48,17
6,41,05,43,297,34,02,41,246,37*7A
$GPGSV,3,2,11,09,41,077,43,06,22,197,36,23,15,078,38,13,12,253,30*78
$GPG
SV,3,3,11,29,09,312,24,49,,,37,16,,,36*46
$GPRMC,142851.000,A,5212.0920,N,00005.9625,E,0.00,66.71,18
1118,,,A*51
$GPVTG,66.71,T,,M,0.00,N,0.01,K,A*0A
$PMTKLOG,0,1,a,31,15,0,0,1,0,0*11
$PMTK001,183,3*
3A
$PMTK869,2,1*36

$GPGGA,142852.000,5212.0920,N,00005.9625,E,1,09,0.91,11.5,M,47.0,M,,*51
$GPGSA,A,3,06,07,05,29,09,23,30,02,13,,,,1.68,0.91,1.41*05
$GPRMC,142852.000,A
,5212.0920,N,00005.9625,E,0.00,39.56,181118,,,A*5D
$GPVTG,39.56,T,,M,0.00,N,0.01,K,A*05
$PMTKLOG,0,1,a,31,
15,0,0,1,0,0*11
$PMTK001,183,3*3A
$PMTK869,2,1*36

$GPGGA,142853.000,5212.0920,N,00005.9625,E,1,09,0.91,11.5,M,47.0,M,,*50
$GPGSA,A,3,06,07,05,
29,09,23,30,02,13,,,,1.68,0.91,1.41*05
$GPRMC,142853.000,A,5212.0920,N,00005.9625,E,0.01,236.97,181118,,,A*6D
$GPVT
G,236.97,T,,M,0.01,N,0.01,K,A*34
$PMTKLOG,0,1,a,31,15,0,0,1,0,0*11
$PMTK001,183,3*3A
$PMTK8
69,2,1*36

$GPGGA,142854.000,5212.0920,N,00005.9625,E,1,09,0.91,11.5,M,47.0,M,,*57
$GPGSA,A,3,06,07,05,29,09,23,30,02,13,,,,1.68,0.91,1.41*05
$GPRMC,142854.000,A,5212.0920,N,0000
5.9625,E,0.01,119.83,181118,,,A*61
$GPVTG,119.83,T,,M,0.01,N,0.01,K,A*3F
$PMTKLOG,0,1,a,31,15,0,0,1
,0,0*11
$PMTK001,183,3*3A
$PMTK869,2,1*36

$GPGGA,142855.000,5212.0920,N,00005.9625,E,1,09,0.91,11.5,M,47.0,M,,*56
$GPGSA,A,3,06,07,05,29,09,23,30,02,13,,,,1.68,0.91,1.41*05
$GPRMC,14
2855.000,A,5212.0920,N,00005.9625,E,0.01,326.02,181118,,,A*67
$GPVTG,326.02,T,,M,0.01,N,0.02,K,A*3B

$PMTKLOG,0,1,a,31,15,0,0,1,0,0*11
$PMTK001,183,3*3A
$PMTK869,2,1*36

$GPGGA,142856.000,5212.0920,N,00005.9625,E,1,09,0.91,11.5,M,47.0,M,,*55
$GPGSA,A,3,06,07,05,29,09,23,30,02,13,,,,1.68,0.91,1.41*05
$GPGSV,3,
1,11,07,65,115,44,30,48,176,41,05,43,297,34,02,41,246,37*7A
$GPGSV,3,2,11,09,41,077,43,06,22,197,36,
23,15,078,38,13,12,253,30*78
$GPGSV,3,3,11,29,09,312,27,49,,,37,16,,,36*45
$GPRMC,142856.000,A,
5212.0920,N,00005.9625,E,0.00,0.00,181118,,,A*60
$GPVTG,0.00,T,,M,0.00,N,0.00,K,A*3D
$PMTKLOG,0,1,a,31,
15,0,0,1,0,0*11
$PMTK001,183,3*3A
$PMTK869,2,1*36

$GPGGA,142857.000,5212.0920,N,00005.9625,E,1,09,0.91,11.5,M,47.0,M,,*54
$GPGSA,A,3,06,07,05,29,09,23,30,02,13,,,,1.68,0.91,1.41*05
$GPRMC,142857.000,A,5212.0920,N,00005.9625,E,0.01,138.74,1
81118,,,A*69
$GPVTG,138.74,T,,M,0.01,N,0.01,K,A*34
$PMTKLOG,0,1,a,31,15,0,0,1,0,0*11
$PMTK001,183,
3*3A
$PMTK869,2,1*36

$GPGGA,142858.000,5212.0920,N,00005.9625,E,1,09,0.91,11.5,M,47.0,M,,*5B
$GPGSA,A,3,06,07,05,29,09,23,30,02,13,,,,1.68,0.91,1.41*05
$GPRMC,142858.000
,A,5212.0920,N,00005.9625,E,0.01,11.47,181118,,,A*5C
$GPVTG,11.47,T,,M,0.01,N,0.01,K,A*0E
$PMTK
LOG,0,1,a,31,15,0,0,1,0,0*11
$PMTK001,183,3*3A
$PMTK869,2,1*36

$GPGGA,142859.000,5212.0920,N,00005.9625,E,1,09,0.91,11.5,M,47.0,M,,*5A
$GPGSA,A,3,06,07,05,29,09,23,30,02,13
,,,,1.68,0.91,1.41*05
$GPRMC,142859.000,A,5212.0920,N,00005.9625,E,0.01,306.06,181118,,,A*6D
$GPVTG
,306.06,T,,M,0.01,N,0.02,K,A*3D
$PMTKLOG,0,1,a,31,15,0,0,1,0,0*11
$PMTK001,183,3*3A
$PMTK869,2,1*36

$GPGGA,142900.000,5212.0920,N,00005.9625,E,1
,09,0.91,11.5,M,47.0,M,,*57
$GPGSA,A,3,06,07,05,29,09,23,30,02,13,,,,1.68,0.91,1.41*05
$GPRMC,142900.000,A,5212.0920,N,00005.9625,E,0.01,121.73,18
1118,,,A*65
$GPVTG,121.73,T,,M,0.01,N,0.01,K,A*3B
$PMTKLOG,0,1,a,31,15,0,0,1,0,0*11
$PMTK001,1
83,3*3A
$PMTK869,2,1*36

$GPGGA,142901.000,5212.0920,N,00005.9625,E,1,10,0.84,11.5,M,47.0,M,,*5A
$GPGSA,A,3,06,07,05,29,09,23,30,02,13,16,,,1.61,0.84,1.37*0E

$GPGSV,3,1,11,07,65,115,44,30,48,176,41,05,43,297,34,02,41,246,37*7A
$GPGSV,3,2,11,09,41,077,43,0
6,22,197,36,23,15,078,38,16,13,029,35*76
$GPGSV,3,3,11,13,12,253,30,29,09,312,29,49,,,37*7F
$GPRMC,1429
01.000,A,5212.0920,N,00005.9625,E,0.01,304.92,181118,,,A*6E
$GPVTG,304.92,T,,M,0.01,N,0.01,K,A*31
$
PMTKLOG,0,1,a,31,15,0,0,1,0,0*11
$PMTK001,183,3*3A
$PMTK869,2,1*36

$GPGGA,142902.000,5212.0920,N,00005.9625,E,1,10
,0.84,11.5,M,47.0,M,,*59
$GPGSA,A,3,06,07,05,29,09,23,30,02,13,16,,,1.61,0.84,1.37*0E
$GPRMC,142902.000,A,52
12.0920,N,00005.9625,E,0.01,14.06,181118,,,A*52
$GPVTG,14.06,T,,M,0.01,N,0.01,K,A*0E

$PMTKLOG,0,1,a,31,15,0,0,1,0,0*11
$PMTK001,183,3*3A
$PM
TK869,2,1*36

$GPGGA,142903.000,5212.0920,N,00005.9625,E,1,10,0.84,11.5,M,47.0,M,,*58

$GPGSA,A,3,06,07,05,29,09,23,30,02,13,16,,,1.61,0.84,1.37*0E
$GPRMC,142903.000,A,5212.0920,N,00005.9625
,E,0.01,38.24,181118,,,A*5D
$GPVTG,38.24,T,,M,0.01,N,0.01,K,A*00

$PMTKLOG,0,1,a,31,15,0,0,1,0,0*11
$PMTK001,183,3*3A
$PMTK869,2,1*36

$GPGGA,142904.000,5212.0920,N,00005.9624,E,1,10,0.84,11.5,M,47.
0,M,,*5E
$GPGSA,A,3,06,07,05,29,09,23,30,02,13,16,,,1.61,0.84,1.37*0E
$GPRMC,142904.000,A,5212.0920,N
,00005.9624,E,0.00,290.09,181118,,,A*65
$GPVTG,290.09,T,,M,0.00,N,0.01,K,A*3E

$PMTKLOG,0,1,a,31,15,0,0,1,0,0*11
$PMTK001,183,3*3A
$PMTK869
,2,1*36

$GPGGA,142905.000,5212.0920,N,00005.9624,E,1,10,0.84,11.5,M,47.0,M,,*5F
$
GPGSA,A,3,06,07,05,29,09,23,30,02,13,16,,,1.61,0.84,1.37*0E
$GPRMC,142905.000,A,5212.0920,N,00005.9624,E,
0.01,324.56,181118,,,A*61
$GPVTG,324.56,T,,M,0.01,N,0.01,K,A*3B

$PMTKLOG,0,1,a,31,15,0,0,1,0,0*11
$PMTK001,183,3*3A
$PMTK869,2,1*36

$GPGGA,142906.000,5212.0920,N,00005.9624,E,1,10,0.84,11.5,M,47.0,M,,*5C

$GPGSA,A,3,06,07,05,29,09,23,30,02,13,16,,,1.61,0.84,1.37*0E
$GPGSV,3,1,11,07,65,115,44,30,48,176,41,05,43,297,3
2,02,41,246,37*7C
$GPGSV,3,2,11,09,41,077,43,06,22,197,36,23,15,078,37,16,13,029,34*78
$GPGSV,3,3,11,13,1
2,253,30,29,09,312,25,49,,,36*72
$GPRMC,142906.000,A,5212.0920,N,00005.9624,E,0.01,292.01,181118,,,A*6C
$GPVTG,292.01,T,,M,0.01,N,0.01,K,A*35
$PMTKLOG,0,1,a,31,15,0,0,1,0,0*11
$PMTK001,183,3*3A
$PMTK869,2,1*36

$GPGGA,142907.000,5212.0920,N,00005.9624,E,1,10,0.84,11.5,M,47.0,M,,*5
D
$GPGSA,A,3,06,07,05,29,09,23,30,02,13,16,,,1.61,0.84,1.37*0E
$GPRMC,142907.000,A,5212.0920,N,00005.962
4,E,0.01,1.55,181118,,,A*64
$GPVTG,1.55,T,,M,0.01,N,0.01,K,A*3C

$PMTKLOG,0,1,a,31,15,0,0,1,0,0*11
$PMTK001,183,3*3A
$PMTK869,2,1*36

$GPGGA,142908.000,
5212.0920,N,00005.9624,E,1,10,0.84,11.5,M,47.0,M,,*52
$GPGSA,A,3,06,07,05,29,09,23,30,02,13,16,,,1.61,0.8
4,1.37*0E
$GPRMC,142908.000,A,5212.0920,N,00005.9624,E,0.01,352.95,181118,,,A*62
$GPVTG,352.95,T,,M,0.01,N,0.03,
K,A*37

$PMTKLOG,0,1,a,31,15,0,0,1,0,0*11
$PMTK001,183,3*3A
$PMT
K869,2,1*36

$GPGGA,142909.000,5212.0920,N,00005.9624,E,1,10,0.84,11.5,M,47.0,M,,*53
$GPGSA,A,3,06,07,05,29,09
,23,30,02,13,16,,,1.61,0.84,1.37*0E
$GPRMC,142909.000,A,5212.0920,N,00005.9624,E,0.00,170.34,181118,,,A*6B
$
GPVTG,170.34,T,,M,0.00,N,0.00,K,A*3C

$PMTKLOG,0,1,a,31,15,0,0,1,0,0*11
$PMTK001,183,3*3A
$PMTK869,2,1*36

$GPGGA,142910.000,5212.0920,N,00005.9624,E,1,10,0.84,11.5,M,47.0,M,,*5B
$GPGSA,A,3,06,07,05
,29,09,23,30,02,13,16,,,1.61,0.84,1.37*0E
$GPRMC,142910.000,A,5212.0920,N,00005.9624,E,0.01,124.5
7,181118,,,A*66
$GPVTG,124.57,T,,M,0.01,N,0.01,K,A*38

$PMTKLOG,0,1,a,31,15,0,0,1,0,0*11
$PMTK001,183,3*3A
$PMTK869,2,1*36

$GPGGA,142911.000,5212.0920,N,00005.9624,E,1,10,0.84,11.5,M,47.0,M,,*5A
$GPGSA,A,
3,06,07,05,29,09,23,30,02,13,16,,,1.61,0.84,1.37*0E
$GPGSV,3,1,11,07,65,115,44,30,48,176,41,05,43,297,33,02,4
1,246,37*7D
$GPGSV,3,2,11,09,41,077,43,06,22,197,36,23,15,078,37,16,13,029,33*7F
$GPGSV,3,3,11,13,12,253,31,2
9,09,312,24,49,,,36*72
$GPRMC,142911.000,A,5212.0920,N,00005.9624,E,0.01,259.70,181118,,,A*6B
$GPVTG,259.70,T,,M,0.01,N,0.01,K,A*34
$PMTKLOG,0,1,a,31,15,0,0,1,0,0*11
$PMTK001,183,3*3A
$PMTK869,2,1*36

$GPGGA,142912.000,5212.0920,N,00005.9624,E,1,10,0.84,11.5,M,47.0,M,,*59
$GPGSA,A,3,06
,07,05,29,09,23,30,02,13,16,,,1.61,0.84,1.37*0E
$GPRMC,142912.000,A,5212.0920,N,00005.9624,E,0.01,50.13,18
1118,,,A*56
$GPVTG,50.13,T,,M,0.01,N,0.03,K,A*08

$PMTKLOG,0,1,a,31,15,0,0,1,0,0*11
$PMTK001,183,3*3A
$PMTK869,2,1*36

$GP
GGA,142913.000,5212.0920,N,00005.9624,E,1,10,0.84,11.5,M,47.0,M,,*58
$GPGSA,A,3,06,07,05,29,09,23,30,02,13
,16,,,1.60,0.84,1.37*0F
$GPRMC,142913.000,A,5212.0920,N,00005.9624,E,0.01,349.40,181118,,,A*6A
$GPVTG,349.40,T,,
M,0.01,N,0.02,K,A*34

$PMTKLOG,0,1,a,31,15,0,0,1,0,0*11
$PMTK001,183,3*3A
$PMTK869,2,1*36

$GPGGA,142914.000,5212.0920,N,00005.9624,E,1,10,0.84,11.5,M,47.0,M,,*5F
$GPGSA,A,3,06,07,
05,29,09,23,30,02,13,16,,,1.61,0.84,1.37*0E
$GPRMC,142914.000,A,5212.0920,N,00005.9624,E,0.01,313
.28,181118,,,A*6C
$GPVTG,313.28,T,,M,0.01,N,0.03,K,A*34

$PMTKLOG,0,1,a,31,15,0,0,1,0,0*11
$PMTK001,183,3*3A
$PMTK869,2,1
*36

$GPGGA,142915.000,5212.0920,N,00005.9624,E,1,10,0.84,11.5,M,47.0,M,,*5E
$GPGSA,A,3,06,0
7,05,29,09,23,30,02,13,16,,,1.61,0.84,1.37*0E
$GPRMC,142915.000,A,5212.0920,N,00005.9624,E,0.02,162.59,181118
,,,A*6C
$GPVTG,162.59,T,,M,0.02,N,0.03,K,A*35

$PMTKLOG,0,1,a,31,15,0,0,1,0,0*11
$PMTK001,183,3*3A
$PMTK869,2,1*36

$GPGGA,142916.000,5212.0920,N,00005.9624,E,1,10,0.84,11.5,M,47.0,M,,*5D
$GPGSA,A,3,
06,07,05,29,09,23,30,02,13,16,,,1.61,0.84,1.37*0E
$GPGSV,3,1,11,07,65,114,44,30,48,176,41,05,43,2
97,33,02,41,246,37*7C
$GPGSV,3,2,11,09,40,077,43,06,22,197,36,23,15,078,38,16,13,029,35*77
$GPGSV,3,
3,11,13,12,253,32,29,09,312,21,49,,,36*74
$GPRMC,142916.000,A,5212.0920,N,00005.9624,E,0.03,311.34,181118,,,A*63
$GPVTG,311.34,T,,M,0.03,N,0.05,K,A*3F
$PMTKLOG,0,1,a,31,15,0,0,1,0,0*11
$PMTK001,183,3*3A
$PMTK869,2,1*36

$GPGGA,142917.000,5212.0920,N,00005.9624,E,1,10,0.84,11.5,M,47.0,M,,*5C
$GPGSA,A,3,06,07,05,29,0
9,23,30,02,13,16,,,1.61,0.84,1.37*0E
$GPRMC,142917.000,A,5212.0920,N,00005.9624,E,0.01,37.11,1811
18,,,A*50
$GPVTG,37.11,T,,M,0.01,N,0.02,K,A*0A

$PMTKLOG,0,1,a,31,15,0,0,1,0,0*11
$PMTK001,183,3*3A
$PMTK869,2,1*36

$GPGGA,142918.0
00,5212.0920,N,00005.9624,E,1,10,0.84,11.5,M,47.0,M,,*53
$GPGSA,A,3,06,07,05,29,09,23,30,02,13,16,,,1.60,
0.84,1.37*0F
$GPRMC,142918.000,A,5212.0920,N,00005.9624,E,0.01,0.94,181118,,,A*66
$GPVTG,0.94,T,
,M,0.01,N,0.01,K,A*30

$PMTKLOG,0,1,a,31,15,0,0,1,0,0*11
$PMTK001,183,3*3A

$P
MTK869,2,1*36

$GPGGA,142919.000,5212.0920,N,00005.9624,E,1,10,0.84,11.5,M,47
.0,M,,*52
$GPGSA,A,3,06,07,05,29,09,23,30,02,13,16,,,1.60,0.84,1.37*0F
$GPRMC,142919.000,A,5212.0920,N,00005
.9624,E,0.00,0.00,181118,,,A*6B
$GPVTG,0.00,T,,M,0.00,N,0.00,K,A*3D

$PMTKLOG,0,1,a,31,15,0,0,1,0,0*11
$PMTK001,183,3*3A
$PMTK869,2,1*36

$GPGGA,142920.000,5212.0920,N,00005.9624,E,1,10,0.84,11.5,M,47.0,M,,*58
$GPGSA,A,3,06,07,05,
29,09,23,30,02,13,16,,,1.60,0.84,1.36*0E
$GPRMC,142920.000,A,5212.0920,N,00005.9624,E,0.01,220.04,181118,,,A*64
$GPV
TG,220.04,T,,M,0.01,N,0.02,K,A*3A

$PMTKLOG,0,1,a,31,15,0,0,1,0,0*11
$PMTK001,183,3*3A
$PMTK869,2,1*3
6

$GPGGA,142921.000,5212.0920,N,00005.9624,E,1,10,0.84,11.5,M,47.0,M,,*59
$GPGSA,A,3,06,0
7,05,29,09,23,30,02,13,16,,,1.60,0.84,1.36*0E
$GPGSV,3,1,11,07,65,114,44,30,48,176,41,05,43,297,33,02,41
,246,37*7C
$GPGSV,3,2,11,09,40,077,43,06,22,197,36,23,15,078,38,16,13,029,35*77
$GPGSV,3,3,11,13,12,253,33,29,
09,312,20,49,,,36*74
$GPRMC,142921.000,A,5212.0920,N,00005.9624,E,0.01,341.62,181118,,,A*63
$GPVTG,341.62,T,,M,0.01,N,0.01,K,A*3F
$PMTKLOG,0,1,a
,31,15,0,0,1,0,0*11
$PMTK001,183,3*3A
$PMTK869,2,1*36

$GPGGA,142922.000,5212.0920,N,00005.9624,E,1,10,0.84,11.5,M,47.0,M,,*5A
$GPGSA,A,3,06,07,05,29,09,23,30,02,13,16,,,1.60,0.84,1.36*0E
$GPRMC,142922.000,A,5212.0920,N,00005.9624,E,0.00,75.09,1
81118,,,A*58
$GPVTG,75.09,T,,M,0.00,N,0.01,K,A*07
$PMTKLOG,0,1,a,31,15,0,0,1,0,0*11
$PMTK001,183,3*3A

$PMTK869,2,1*36

$GPGGA,142923.000,5212.0920,N,00005.9624,E,1,10,0.84,11.5,M,47.0,M,,*5B
$GPGSA,A,3,06,07,05,29,09,23,30,02,13,16,,,1.60,0.84,1.36*0E
$GPRMC,142923.000,A,5212.0920,N,00
005.9624,E,0.01,172.61,181118,,,A*60
