$GPGSA,A,3,06,07,05,09,23,30,02,13,,,,,1.78,1.17,1.33*05
$GPGSV,3,1,11,07,64,092,43,30,58,171,43,05,52,294,37,02,34,237,37*72

$GPGSV,3,2,11,09,32,081,40,49,30,173,32,1
3,20,258,35,06,13,195,31*75
$GPGSV,3,3,11,16,09,022,16,23,07,082,22,29,06,304,*46
$GPRMC,145011.000,A,5212.
0904,N,00005.9613,E,0.02,149.64,181118,,,D*66
$GPVTG,149.64,T,,M,0.02,N,0.04,K,D*30
$PMTKLOG,0,1
,a,31,15,0,0,1,0,0*11
$PMTK001,183,3*3A
$PMTK869,2,1*36

$GPGGA,145012.000,5212.0904,N,00005.9613,E,2,08,1.18,9.0,M,47.0,M,0000
,0000*67
$GPGSA,A,3,06,07,05,09,23,30,02,13,,,,,1.78,1.18,1.33*0A
$GPRMC,145012.000,A,5212.0904
,N,00005.9613,E,0.00,154.71,181118,,,D*6F
$GPVTG,154.71,T,,M,0.00,N,0.01,K,D*3F

$PMTKLOG,0,1,a,31,15,0,0,1,0,0*11
$PMTK001,183,3*3A
$PMTK869,2,1*36

$GPGGA,145013.000,5212.0904,N,00005.96
13,E,2,08,1.18,9.0,M,47.0,M,0000,0000*66
$GPGSA,A,3,06,07,05,09,23,30,02,13,,,,,1.78,1.18,1.33*0A
$
GPRMC,145013.000,A,5212.0904,N,00005.9613,E,0.01,172.39,181118,,,D*67
$GPVTG,172.39,T,,M,0.01,N,0.02,K,D*35

$PMTKLOG,0,1,a,
31,15,0,0,1,0,0*11
$PMTK001,183,3*3A
$PMTK869,2,1*36

$GPGGA,145014.000,5212.0904
,N,00005.9613,E,2,08,1.17,9.0,M,47.0,M,0000,0000*6E
$GPGSA,A,3,06,07,05,09,23,30,02,13,,,,,1.78,1.17,1.33*0
5
$GPRMC,145014.000,A,5212.0904,N,00005.9613,E,0.01,341.11,181118,,,D*68
$GPVTG,341.11,T,,M,0.01,N,0.02,K,D
*3D

$PMTKLOG,0,1,a,31,15,0,0,1,0,0*11
$PMTK00
1,183,3*3A
$PMTK869,2,1*36

$GPGGA,145015.000,5212.0904,N,00005.9613
,E,2,08,1.18,9.0,M,47.0,M,0000,0000*60
$GPGSA,A,3,06,07,05,09,23,30,02,13,,,,,1.78,1.18,1.33*0A
$GPRMC,
145015.000,A,5212.0904,N,00005.9613,E,0.01,4.56,181118,,,D*68
$GPVTG,4.56,T,,M,0.01,N,0.02,K,D*3C

$PMTKLOG,0,1,a,31,
15,0,0,1,0,0*11
$PMTK001,183,3*3A
$PMTK869,2,1*36

$GPGGA,145016.000,5212.0904,N,
00005.9613,E,2,08,1.18,9.0,M,47.0,M,0000,0000*63
$GPGSA,A,3,06,07,05,09,23,30,02,13,,,,,1.78,1.1
8,1.33*0A
$GPGSV,3,1,11,07,64,092,43,30,58,171,43,05,52,294,38,02,34,237,37*7D
$GPGSV,3,2,11,09,32,081,42,49,30,17
3,33,13,20,258,34,06,13,195,31*77
$GPGSV,3,3,11,16,09,022,16,23,07,082,24,29,05,304,*43
$GPRMC,145016.000,A
,5212.0904,N,00005.9613,E,0.01,1.87,181118,,,D*62
$GPVTG,1.87,T,,M,0.01,N,0.03,K,D*34
$PMTKL
OG,0,1,a,31,15,0,0,1,0,0*11
$PMTK001,183,3*3A
$PMTK869,2,1*36

$GPGGA
,145017.000,5212.0904,N,00005.9613,E,2,08,1.18,9.0,M,47.0,M,0000,0000*62
$GPGSA,A,3,06,07,05,09,23,30,02,
13,,,,,1.78,1.18,1.33*0A
$GPRMC,145017.000,A,5212.0904,N,00005.9613,E,0.02,343.39,181118,,,D*60
$GPVTG,343.39,
T,,M,0.02,N,0.03,K,D*37

$PMTKLOG,0,1
,a,31,15,0,0,1,0,0*11
$PMTK001,183,3*3A
$PMTK869,2,1*36

$GPGGA,145018.000,5
212.0904,N,00005.9613,E,2,08,1.18,9.0,M,47.0,M,0000,0000*6D
$GPGSA,A,3,06,07,05,09,23,30,02,13,,,
,,1.78,1.18,1.33*0A
$GPRMC,145018.000,A,5212.0904,N,00005.9613,E,0.00,227.85,181118,,,D*69
$GPVTG,227.85,T,,M,0.00
,N,0.01,K,D*33

$PMTKLOG,0,1,a,31,15,0,0,1,0,0*11
$PMTK001,183,3*3A
$PMTK869,2,1*36

$GPGGA,145019.000,5212.0904,N,00005.9613,E,2,08,
1.18,9.0,M,47.0,M,0000,0000*6C
$GPGSA,A,3,06,07,05,09,23,30,02,13,,,,,1.78,1.18,1.33*0A
$GPRMC,145019.000,A
,5212.0904,N,00005.9613,E,0.00,82.30,181118,,,D*5B
$GPVTG,82.30,T,,M,0.00,N,0.00,K,D*01

$PMTKLOG,0,1,a,31,15,0,0,1,0,0*11
$PMTK001
,183,3*3A
$PMTK869,2,1*36

$GPGGA,145020.000,5212.0904,N,00005.9613,E,2,08,1.18,9.0,M,47.0,M,0000,0000*66
$GPGS
A,A,3,06,07,05,09,23,30,02,13,,,,,1.78,1.18,1.33*0A
$GPRMC,145020.000,A,5212.0904,N,00005.9613,E,
0.00,120.90,181118,,,D*62
$GPVTG,120.90,T,,M,0.00,N,0.01,K,D*33

$PMTKL
OG,0,1,a,31,15,0,0,1,0,0*11
$PMTK001,183,3*3A
$PMTK869,2,1*36

$GPGGA,145021.0
00,5212.0904,N,00005.9613,E,2,08,1.18,9.0,M,47.0,M,0000,0000*67
$GPGSA,A,3,06,07,05,09,23,30,02,13,,,,,1
.78,1.18,1.33*0A
$GPGSV,3,1,11,07,64,092,43,30,58,171,43,05,52,294,38,02,34,236,37*7C
$GPGSV,3,2,11,09,32,0
81,42,49,30,173,33,13,20,258,34,06,13,195,31*77
$GPGSV,3,3,11,16,09,022,18,23,07,082,26,29,05,304,*4F
$GPRMC,14502
1.000,A,5212.0904,N,00005.9613,E,0.00,272.42,181118,,,D*68
$GPVTG,272.42,T,,M,0.00,N,0.01,K,D*38
$PMTKLOG,0,
1,a,31,15,0,0,1,0,0*11
$PMTK001,183,3*3A
$PMTK869,2,1*36

$GPGGA,145022.000,5212.0904,N,00005.9613,E,2,08,1.18,9.0,M
,47.0,M,0000,0000*64
$GPGSA,A,3,06,07,05,09,23,30,02,13,,,,,1.78,1.18,1.33*0A
$GPRMC,145022.000,A,5212.
0904,N,00005.9613,E,0.00,0.00,181118,,,D*6A
$GPVTG,0.00,T,,M,0.00,N,0.00,K,D*38

$PMTKLOG,0,1,a,31,15,0,0,1,0,0*11
$PMTK001,183,3*3A
$PMTK869,2,1*36

$GPGGA,1450
23.000,5212.0904,N,00005.9613,E,2,08,1.18,9.0,M,47.0,M,0000,0000*65
$GPGSA,A,3,06,07,05,09,23,30,02,13,,,,,1
.78,1.18,1.33*0A
$GPRMC,145023.000,A,5212.0904,N,00005.9613,E,0.00,53.83,181118,,,D*56
$GPVTG,53.83,T,,
M,0.00,N,0.00,K,D*05

$PMTKLO
G,0,1,a,31,15,0,0,1,0,0*11
$PMTK001,183,3*3A
$PMTK869,2,1*36

$GPGGA,145024.000,5212.0904,N,00005.9613,E,2,08,1.18,9.0,M,4
7.0,M,0000,0000*62
$GPGSA,A,3,06,07,05,09,23,30,02,13,,,,,1.78,1.18,1.33*0A
$GPRMC,145024.000,A,5212
.0904,N,00005.9613,E,0.00,0.00,181118,,,D*6C
$GPVTG,0.00,T,,M,0.00,N,0.00,K,D*38

$PMTKLOG,0,1,a,31,15,0,0,1,0
,0*11
$PMTK001,183,3*3A
$PMTK869,2,1*36

$GPGGA,145025.000,5212.0904,N,00005.9613,E,2,08,1.18,9.0,M,47.0,M,0000,0000*63
$
GPGSA,A,3,06,07,05,09,23,30,02,13,,,,,1.78,1.18,1.33*0A
$GPRMC,145025.000,A,5212.0904,N,00005.961
3,E,0.00,209.09,181118,,,D*6F
$GPVTG,209.09,T,,M,0.00,N,0.01,K,D*3B

$PMT
KLOG,0,1,a,31,15,0,0,1,0,0*11
$PMTK001,183,3*3A
$PMTK869,2,1*36

$GPGGA,145026.000,5212.0904,N,00005.9613,E,2,08,1.18,9.0,M,47.0,M,0000
,0000*60
$GPGSA,A,3,06,07,05,09,23,30,02,13,,,,,1.78,1.18,1.33*0A
$GPGSV,3,1,11,07,64,092,43,30
,58,171,43,05,52,294,38,02,34,236,36*7D
$GPGSV,3,2,11,09,32,081,42,49,30,173,33,13,20,258,34,06,12,194,31*77
$GPGSV
,3,3,11,16,09,022,19,23,07,082,26,29,05,304,*4E
$GPRMC,145026.000,A,5212.0904,N,00005.9613,E
,0.00,187.13,181118,,,D*62
$GPVTG,187.13,T,,M,0.00,N,0.01,K,D*35
$PMTKLOG,0,1,a
,31,15,0,0,1,0,0*11
$PMTK001,183,3*3A
$PMTK869,2,1*36

$GPGGA,145027.000,5212.0904,N,00005.9613,E,2,08,1.18,
9.0,M,47.0,M,0000,0000*61
$GPGSA,A,3,06,07,05,09,23,30,02,13,,,,,1.78,1.18,1.33*0A
$GPRMC,145027.000,A,5212
.0904,N,00005.9613,E,0.00,329.61,181118,,,D*60
$GPVTG,329.61,T,,M,0.00,N,0.00,K,D*37

$GPGGA,145028.000,5212.0904,N,00005.961
3,E,2,08,1.18,9.0,M,47.0,M,0000,0000*6E
$GPGSA,A,3,06,07,05,09,23,30,02,13,,,,,1.78,1.18,1.33*0A
$GPRMC
,145028.000,A,5212.0904,N,00005.9613,E,0.00,348.98,181118,,,D*6E
$GPVTG,348.98,T,,M,0.00,N,0.00,K,D*36

$PMTKLOG,0,1,a,31,15,0,0,1,0,0*11
$PMTK001,183,3*3A
$PMTK869,2,1*36

$GPGGA,145029.000,5212.0904,N,00005.9613,E,2,08,1.18,9.0,M,47.0,M,0000,0000*6F
$GPGSA,A,3,06,07,05,09,23
,30,02,13,,,,,1.78,1.18,1.33*0A
$GPRMC,145029.000,A,5212.0904,N,00005.9613,E,0.00,185.88,181118,,,D*6D
$GPV
TG,185.88,T,,M,0.00,N,0.01,K,D*35
$PMTKLOG,0,1,a,31,15,0,0,1,0,0*11
$PMTK001,183,3*3A
$PMTK869,2,1*36


$GPGGA,145030.000,5212.0904,N,00005.9613,E,2,08,1.1
8,9.0,M,47.0,M,0000,0000*67
$GPGSA,A,3,06,07,05,09,23,30,02,13,,,,,1.78,1.18,1.33*0A
$GPRMC
,145030.000,A,5212.0904,N,00005.9613,E,0.00,120.21,181118,,,D*69
$GPVTG,120.21,T,,M,0.00,N,0.01,K,D*39
$PMT
KLOG,0,1,a,31,15,0,0,1,0,0*11
$PMTK001,183,3*3A
$PMTK869,2,1*36

$G
PGGA,145031.000,5212.0904,N,00005.9613,E,2,08,1.18,9.0,M,47.0,M,0000,0000*66
$GPGSA,A,3,06,07,05,
09,23,30,02,13,,,,,1.78,1.18,1.33*0A
$GPGSV,3,1,11,07,64,092,43,30,58,171,43,05,52,294,38,02,34,
236,36*7D
$GPGSV,3,2,11,09,32,081,42,49,30,173,33,13,20,258,34,06,12,194,31*77
$GPGSV,3,3,11,16,09,022,21,23,07
,082,26,29,05,304,*45
$GPRMC,145031.000,A,5212.0904,N,00005.9613,E,0.00,230.62,181118,,,D*6D
$G
PVTG,230.62,T,,M,0.00,N,0.00,K,D*3D
$PMTKLOG,0,1,a,31,15,0,0,1,0,0*11
$PMTK001,183,3*3A
$PMTK869,2,1*36

$GPGGA,145032.000,5212.0904,N,00005.9613,E,2,08,1.18,9.0,M,47.0,M,0000,0000*65
$G
PGSA,A,3,06,07,05,09,23,30,02,13,,,,,1.78,1.18,1.33*0A
$GPRMC,145032.000,A,5212.0904,N,00005.9613,E,
0.00,205.51,181118,,,D*68
$GPVTG,205.51,T,,M,0.00,N,0.00,K,D*3B
$PMTKLOG,0,1,a,31,15,0,0,1,0,0*11

$PMTK001,183,3*3A
$PMTK869,2,1*36

$GPGGA,145033.000,5212.0904,N,00005.9613,E,2,08,1.18,9.0,M,47.0,M
,0000,0000*64
$GPGSA,A,3,06,07,05,09,23,30,02,13,,,,,1.78,1.18,1.33*0A
$GPRMC,145033.000,A,5212
.0904,N,00005.9613,E,0.00,194.43,181118,,,D*61
$GPVTG,194.43,T,,M,0.00,N,0.00,K,D*33
$PMTKLOG,0,1,a,31,
15,0,0,1,0,0*11
$PMTK001,183,3*3A
$PMTK869,2,1*36

$GPGGA,145034.000,5212.0904,N,00005.9613,E,2,09,0.92,9.0,M,47.0,
M,0000,0000*61
$GPGSA,A,3,06,07,05,09,23,30,02,13,16,,,,1.50,0.92,1.18*0D
$GPRMC,145034.000,A,5212.0904,N,0000
5.9613,E,0.00,338.03,181118,,,D*66
$GPVTG,338.03,T,,M,0.00,N,0.00,K,D*33
$PMTKLOG,0,1,a,31,15,0,0,1,0,0*11
$PMTK001,18
3,3*3A
$PMTK869,2,1*36

$GPGGA,145035.000,5212.0904,N,00005.9613,E,2,08,1.18,9.0,M,4
7.0,M,0000,0000*62
$GPGSA,A,3,06,07,05,09,23,30,02,13,,,,,1.78,1.18,1.33*0A
$GPRMC,145035.000,A,5212.09
04,N,00005.9613,E,0.00,0.00,181118,,,D*6C
$GPVTG,0.00,T,,M,0.00,N,0.00,K,D*38
$PMTKLOG,0,1,a,31,15,0,0,1,0,
0*11
$PMTK001,183,3*3A
$PMTK869,2,1*36

$GPGGA
,145036.000,5212.0904,N,00005.9613,E,2,09,0.92,9.0,M,47.0,M,0000,0000*63
$GPGSA,A,3,06,07,05,29,
09,23,30,02,13,,,,1.46,0.92,1.14*0A
$GPGSV,3,1,11,07,64,092,44,30,58,171,43,05,52,294,38,02,34,23
6,36*7A
$GPGSV,3,2,11,09,32,081,42,49,30,173,34,13,20,258,34,06,12,194,31*70
$GPGSV,3,3,11,16,09,022,22,23,
07,082,26,29,05,304,14*43
$GPRMC,145036.000,A,5212.0904,N,00005.9613,E,0.00,199.78,181118,,,D*61
$G
PVTG,199.78,T,,M,0.00,N,0.01,K,D*37
$PMTKLOG,0,1,a,31,15,0,0,1,0,0*11
$PMTK001,183,3*3A
$PMTK869,2
,1*36

$GPGGA,145
037.000,5212.0904,N,00005.9613,E,2,09,0.92,9.0,M,47.0,M,0000,0000*62
$GPGSA,A,3,06,07,05,29,09,23,30
,02,13,,,,1.46,0.92,1.14*0A
$GPRMC,145037.000,A,5212.0904,N,00005.9613,E,0.00,2.70,181118,,,D*6B

$GPVTG,2.70,T,,M,0.00,N,0.00,K,D*3D
$PMTKLOG,0,1,a,31,15,0,0,1,0,0*11
$PMTK001,183,3*3A
$PMTK869,2,1*36


$GPGGA,145
038.000,5212.0904,N,00005.9613,E,2,09,0.92,9.0,M,47.0,M,0000,0000*6D
$GPGSA,A,3,06,07,05,29,09,23,30,02,13,,,,1.
46,0.92,1.14*0A
$GPRMC,145038.000,A,5212.0904,N,00005.9613,E,0.00,292.63,181118,,,D*6D
$GPVTG,292.63,T,,M,0
.00,N,0.00,K,D*34
$PMTKLOG,0,1,a,31,15,0,0,1,0,0*11
$PMTK001,183,3*3A
$PMTK869,2,1*36

$GPGGA,145039.000,52
12.0904,N,00005.9613,E,2,08,1.18,9.0,M,47.0,M,0000,0000*6E
$GPGSA,A,3,06,07,05,09,23,30,02,13,,,,,1.
78,1.18,1.33*0A
$GPRMC,145039.000,A,5212.0904,N,00005.9613,E,0.00,209.74,181118,,,D*68
$GPVTG,2
09.74,T,,M,0.00,N,0.00,K,D*30
$PMTKLOG,0,1,a,31,15,0,0,1,0,0*11
$PMTK001,183,3*3A
$PMTK869,2,1*36

$GPGGA,145040.000,5212.0904,N,00005.9613,E,2,08,1.18,9.0,M,47.0,M,0000,0000*60
$GPGSA,A,3,06,07,05,09,2
3,30,02,13,,,,,1.78,1.18,1.33*0A
$GPRMC,145040.000,A,5212.0904,N,00005.9613,E,0.00,253.44,181118,,,D*6A
$GPVTG,253.
44,T,,M,0.00,N,0.00,K,D*3C
$PMTKLOG,0,1,a,31,15,0,0,1,0,0*11
$PMTK001,183,3*3A
$PMTK869,2,1*36

$GPGGA,145041.000,5212.0904,N,00005.9613,E,2,08,1.18,9.0,M,47.0,M,0000,0000*61
$GPGSA,A,3,06
,07,05,09,23,30,02,13,,,,,1.78,1.18,1.33*0A
$GPGSV,3,1,11,07,64,092,44,30,58,171,43,05,52,294,38,02,34,236,36*7A
$G
PGSV,3,2,11,09,32,081,42,49,30,173,34,13,20,258,33,06,12,194,31*77
$GPGSV,3,3,11,16,09,022,21,23,07,082,26,29,05
,304,*45
$GPRMC,145041.000,A,5212.0904,N,00005.9613,E,0.00,152.95,181118,,,D*65
$GPVTG,152.95,T,,M,0.00,N,0.01,
K,D*33
$PMTKLOG,0,1,a,31,15,0,0,1,0,0*11
$PMTK001,183,3*3A
$PMTK869,2,1*36

$GPGGA,145042.000,5212.09
04,N,00005.9613,E,2,08,1.18,9.0,M,47.0,M,0000,0000*62
$GPGSA,A,3,06,07,05,09,23,30,02,13,,,,,1.78,1.18,1.33*0A
$GPR
MC,145042.000,A,5212.0904,N,00005.9613,E,0.00,80.74,181118,,,D*57
$GPVTG,80.74,T,,M,0.00,N,0.00,K,D*03
$PMTKLO
G,0,1,a,31,15,0,0,1,0,0*11
$PMTK001,183,3*3A
$PMTK869,2,1*36

$GPGGA,145043.000,5212.0904,N,00005.9613,E,2,09,0.92,9.0,M,4
7.0,M,0000,0000*61
$GPGSA,A,3,06,07,05,09,23,30,02,13,16,,,,1.50,0.92,1.18*0D
$GPRMC,145043.000,A,5212.0904,N,0000
5.9613,E,0.00,232.44,181118,,,D*6E
$GPVTG,232.44,T,,M,0.00,N,0.00,K,D*3B
$PMTKLOG,0,1,a,31,1
5,0,0,1,0,0*11
$PMTK001,183,3*3A
$PMTK869,2,1*36

$GPGGA,145044.000,5212.0904,N,00005.9613,E,2,09,0.92,9.0,M,47.0,M,0000,0000*66
$GPGSA,A,3,06,07,05,09,2
3,30,02,13,16,,,,1.50,0.92,1.18*0D
$GPRMC,145044.000,A,5212.0904,N,00005.9613,E,0.01,112.82,181118,,
,D*63
$GPVTG,112.82,T,,M,0.01,N,0.02,K,D*33
$PMTKLOG,0,1,a,31,15,0,0,1,0,0*11
$PMTK001,183,3*3A
$
PMTK869,2,1*36

$GPGGA,145045.000,5212.0904,N,00005.9613,E,2,09,0.92,9.0,M,47.0,M,0000,0000*67
$GPGSA,A,3,06,
07,05,09,23,30,02,13,16,,,,1.50,0.92,1.18*0D
$GPRMC,145045.000,A,5212.0904,N,00005.9613,E,0.01,15.08
,181118,,,D*56
$GPVTG,15.08,T,,M,0.01,N,0.01,K,D*04
$PMTKLOG,0,1,a,31,15,0,0,1,0,0*11
$PMTK001,183,3*3A
$PMTK869
,2,1*36

$GPGGA,145046.000,5212.0904,N,00005.9613,E,2,09,0.92,9.0,M,47.0,M
,0000,0000*64
$GPGSA,A,3,06,07,05,09,23,30,02,13,16,,,,1.50,0.92,1.18*0D
$GPGSV,3,1,11,07,64,092,44,30,
58,171,43,05,52,294,38,02,34,236,36*7A
$GPGSV,3,2,11,09,32,081,42,49,30,173,34,13,20,258,33,06,12,194
,31*77
$GPGSV,3,3,11,16,09,022,24,23,06,083,26,29,05,304,*40
$GPRMC,145046.000,A,5212.0904,N,00005.9613,E,0.00,212
.72,181118,,,D*6C
$GPVTG,212.72,T,,M,0.00,N,0.00,K,D*3C
$PMTKLOG,0,1,a,31,15,0,0,1,0,0*11
$PMTK001,183
,3*3A
$PMTK869,2,1*36

$GPGGA,145047.000,5212.0904,N,00005.9613,E,2,09,0.92,9.0,M,47.0,M,0000,0000*65
$GPGS
A,A,3,06,07,05,09,23,30,02,13,16,,,,1.50,0.92,1.18*0D
$GPRMC,145047.000,A,5212.0904,N,00005.9613,E,0.
00,244.96,181118,,,D*64
$GPVTG,244.96,T,,M,0.00,N,0.01,K,D*34
$PMTKLOG,0,1,a,31,15,0,0,1,0,0*11
$PMTK001,183,
3*3A
$PMTK869,2,1*36

$GPGGA,145048.000,5212.0904,N,00005.9613,E,2,09,0.92,9.0,M,47.0,M,0000,0000*6A
$GPGS
A,A,3,06,07,05,09,23,30,02,13,16,,,,1.50,0.92,1.18*0D
$GPRMC,145048.000,A,5212.0904,N,00005.9613,E,0.01,276.99,1
81118,,,D*64
$GPVTG,276.99,T,,M,0.01,N,0.02,K,D*38
$PMTKLOG,0,1,a,31,15,0,0,1,0,0*11
$PMTK001,183,3*3A
$P
MTK869,2,1*36

$GPGGA,145049.000,5212.0904,N,00005.9613,E,2,09,0.92,9.0,M,47.0,M,0000,0000*6B
$G
PGSA,A,3,06,07,05,09,23,30,02,13,16,,,,1.50,0.92,1.18*0D
$GPRMC,145049.000,A,5212.0904,N,00005.9613,E,0.
01,291.95,181118,,,D*60
$GPVTG,291.95,T,,M,0.01,N,0.02,K,D*3D
$PMTKLOG,0,1,a,31,15,0,0,1,0,0*11
$PMTK001,1
83,3*3A
$PMTK869,2,1*36

$
GPGGA,145050.000,5212.0904,N,00005.9613,E,2,09,0.92,9.0,M,47.0,M,0000,0000*63
$GPGSA,A,3,06,07,05,09,23,
30,02,13,16,,,,1.50,0.92,1.18*0D
$GPRMC,145050.000,A,5212.0904,N,00005.9613,E,0.00,0.00,181118,,,D*6F
$
GPVTG,0.00,T,,M,0.00,N,0.00,K,D*38
$PMTKLOG,0,1,a,31,15,0,0,1,0,0*11
$PMTK001,183,3*3A
$PMTK869,2,1*36

$GPGGA,145051.000,5212.0904,N,00005.9613,E,2,09,0.92,9.0,M,47.0,M,0000,0000*62

$GPGSA,A,3,06,07,05,09,23,30,02,13,16,,,,1.50,0.92,1.18*0D
$GPGSV,3,1,11,07,64,092,44,30,58,170,43
,05,52,294,38,02,34,236,37*7A
$GPGSV,3,2,11,09,32,081,42,49,30,173,34,13,20,258,33,06,12,194,32*74
$GPGSV,3,3,1
1,16,09,022,25,23,06,083,26,29,05,304,*41
$GPRMC,145051.000,A,5212.0904,N,00005.9613,E,0.00,332.09,181118,,,D*65

$GPVTG,332.09,T,,M,0.00,N,0.00,K,D*33
$PMTKLOG,0,1,a,31,15,0,0,1,0,0*11
$PMTK001,183,3*3A
$PMTK869,2,1*3
6

$GPGGA,145052.000,5212.0904,N,00005.9613,E,2,09,0.92,9.0,
M,47.0,M,0000,0000*61
$GPGSA,A,3,06,07,05,09,23,30,02,13,16,,,,1.50,0.92,1.18*0D
$GPRMC,145052.000,A,5212.0904,N,00005.
9613,E,0.00,14.21,181118,,,D*5B
$GPVTG,14.21,T,,M,0.00,N,0.00,K,D*0E
$PMTKLOG,0,1,a,31,15,0,0,1,0,0*11
$PMTK00
1,183,3*3A
$PMTK869,2,1*36

$GPGGA,145053.000,5212.0904,N,00005.9613,E
,2,09,0.92,9.0,M,47.0,M,0000,0000*60
$GPGSA,A,3,06,07,05,09,23,30,02,13,16,,,,1.49,0.92,1.18*05
$GPRMC,1450
53.000,A,5212.0904,N,00005.9613,E,0.01,105.09,181118,,,D*60
$GPVTG,105.09,T,,M,0.01,N,0.01,K,D*35
$PMTKLOG,0,1,
a,31,15,0,0,1,0,0*11
$PMTK001,183,3*3A
$PMTK869,2,1*36

$GPGGA,145054.000,5212.0904,N,00005.9613,E,2,09,0.9
2,9.0,M,47.0,M,0000,0000*67
$GPGSA,A,3,06,07,05,09,23,30,02,13,16,,,,1.49,0.92,1.18*05
$GPRMC,145054.000,A,
5212.0904,N,00005.9613,E,0.01,90.77,181118,,,D*53
$GPVTG,90.77,T,,M,0.01,N,0.01,K,D*01
$PMT
KLOG,0,1,a,31,15,0,0,1,0,0*11
$PMTK001,183,3*3A
$PMTK869,2,1*36

$GPGGA,145055.000,5212.0904,N,00005.9613,E,2,10,0.82,9.0,M,
47.0,M,0000,0000*6F
$GPGSA,A,3,06,07,05,29,09,23,30,02,13,16,,,1.37,0.82,1.11*0F
$GPRMC,145055.000,A,5212.0
904,N,00005.9613,E,0.01,80.84,181118,,,D*5F
$GPVTG,80.84,T,,M,0.01,N,0.01,K,D*0C
$PMTKLOG,0,1,a,31,
15,0,0,1,0,0*11
$PMTK001,183,3*3A
$PMTK869,2,1*36

$GPGGA,145056.000,5212.0904,N,00005.9613,E,2,10,0.82,9.0,M,47.0,M,0000,0000*6C
$GP
GSA,A,3,06,07,05,29,09,23,30,02,13,16,,,1.38,0.82,1.11*00
$GPGSV,3,1,11,07,64,092,44,30,58,170,43,05,52,2
94,38,02,34,236,36*7B
$GPGSV,3,2,11,09,32,081,42,49,30,173,34,13,20,258,34,06,12,194,32*73
$GPGSV,3,3,1
1,16,09,022,25,23,06,083,27,29,05,304,18*49
$GPRMC,145056.000,A,5212.0904,N,00005.9613,E,0.00,221.74,181118,,,D
*6B
$GPVTG,221.74,T,,M,0.00,N,0.00,K,D*3A
$PMTKLOG,0,1,a,31,15,0,0,1,0,0*11
$PMTK001,183,3*3A
$PMTK869,2,1*36

$GPGGA,145057.000,5212.0904,N,00005.9613,E,2,10,0.82,
9.0,M,47.0,M,0000,0000*6D
$GPGSA,A,3,06,07,05,29,09,23,30,02,13,16,,,1.37,0.82,1.11*0F
$GPRMC,145057.000,A,
5212.0904,N,00005.9613,E,0.00,32.36,181118,,,D*5C
$GPVTG,32.36,T,,M,0.00,N,0.00,K,D*0C
$PMTKLOG,0,1,a,3
1,15,0,0,1,0,0*11
$PMTK001,183,3*3A
$PMTK869,2,1*36

$GPGGA,145058.000,5212.0904,N,00005.96
13,E,2,10,0.82,9.0,M,47.0,M,0000,0000*62
$GPGSA,A,3,06,07,05,29,09,23,30,02,13,16,,,1.38,0.82,1.11*00
$GPR
MC,145058.000,A,5212.0904,N,00005.9613,E,0.00,273.89,181118,,,D*60
$GPVTG,273.89,T,,M,0.00,N,0.00,K,D*3F
$PMTKL
OG,0,1,a,31,15,0,0,1,0,0*11
$PMTK001,183,3*3A
$PMTK869,2,1*36

$GPGGA,145059.000,5212.0904,N,00005.961
3,E,2,10,0.82,9.0,M,47.0,M,0000,0000*63
$GPGSA,A,3,06,07,05,29,09,23,30,02,13,16,,,1.37,0.82,1.11*0F
$G
PRMC,145059.000,A,5212.0904,N,00005.9613,E,0.00,54.38,181118,,,D*5C
$GPVTG,54.38,T,,M,0.00,N,0.00,K,D*02
$PMTKLOG,0
,1,a,31,15,0,0,1,0,0*11
$PMTK001,183,3*3A
$PMTK869,2,1*36

$GPGGA,145100.000,5212.0904,N,00005.9613,E,2,10,0.82,9.0,M,47.0,M,0000,0000*6E
$GPGSA
,A,3,06,07,05,29,09,23,30,02,13,16,,,1.37,0.82,1.11*0F
$GPRMC,145100.000,A,5212.0904,N,00005.9613,E,0.00,
157.73,181118,,,D*6C
$GPVTG,157.73,T,,M,0.00,N,0.00,K,D*3F
$PMTKLOG,0,1,a,31,15,0,0,1,0,0*11
$PMTK
001,183,3*3A
$PMTK869,2,1*36

$GPGGA,145
101.000,5212.0904,N,00005.9613,E,2,10,0.82,9.0,M,47.0,M,0000,0000*6F
$GPGSA,A,3,06,07,05,29,09,23,30
,02,13,16,,,1.37,0.82,1.11*0F
$GPGSV,3,1,11,07,64,091,44,30,58,170,43,05,53,294,38,02,34,236,36*
79
$GPGSV,3,2,11,09,32,081,42,49,30,173,34,13,20,258,34,06,12,194,32*73
$GPGSV,3,3,11,16,09,022,25,23,0
6,083,26,29,05,304,20*43
$GPRMC,145101.000,A,5212.0904,N,00005.9613,E,0.00,0.00,181118,,,D*6A
$GPVTG,0.
00,T,,M,0.00,N,0.00,K,D*38
$PMTKLOG,0,1,a,31,15,0,0,1,0,0*11
$PMTK001,183,3*3A
$PMTK869,2,1*36

$GPGGA,145102.000,5212.0904,N,
00005.9613,E,2,10,0.82,9.0,M,47.0,M,0000,0000*6C
$GPGSA,A,3,06,07,05,29,09,23,30,02,13,16,,,1.37,0.82,1.11*0
F
$GPRMC,145102.000,A,5212.0904,N,00005.9613,E,0.00,255.44,181118,,,D*6B
$GPVTG,255.44,T,,M,0.0
0,N,0.01,K,D*3B
$PMTKLOG,0,1,a,31,15,0,0,1,0,0*11
$PMTK001,183,3*3A
$PMTK869,2,1*36

$GPGGA,145103.000,5212.0904,N,00005.9613,E,2,10,0.82,9.
0,M,47.0,M,0000,0000*6D
$GPGSA,A,3,06,07,05,29,09,23,30,02,13,16,,,1.37,0.82,1.10*0E
$GPRMC,145103.000,A,52
12.0904,N,00005.9613,E,0.00,7.67,181118,,,D*6E
$GPVTG,7.67,T,,M,0.00,N,0.01,K,D*3F
$PMTKLOG,0,1,a,31,15
,0,0,1,0,0*11
$PMTK001,183,3*3A
$PMTK869,2,1*36

$GPGGA,145104.000,5212
.0904,N,00005.9613,E,2,10,0.82,9.0,M,47.0,M,0000,0000*6A
$GPGSA,A,3,06,07,05,29,09,23,30,02,13,16,,,
1.37,0.82,1.11*0F
$GPRMC,145104.000,A,5212.0904,N,00005.9613,E,0.01,138.02,181118,,,D*66
$GPVTG
,138.02,T,,M,0.01,N,0.02,K,D*33
$PMTKLOG,0,1,a,31,15,0,0,1,0,0*11
$PMTK001,183,3*3A
$PMTK869,2,1*36

$GP
GGA,145105.000,5212.0904,N,00005.9613,E,2,10,0.82,9.0,M,47.0,M,0000,0000*6B
$GPGSA,A,3,06,07,05,29,09,23
,30,02,13,16,,,1.37,0.82,1.11*0F
$GPRMC,145105.000,A,5212.0904,N,00005.9613,E,0.01,128.68,181118
,,,D*6A
$GPVTG,128.68,T,,M,0.01,N,0.01,K,D*3D
$PMTKLOG,0,1,a,31,15,0,0,1,0,0*11
$PMTK001,183,3*3A
$PMTK869,2,
1*36

$GPGGA
,145106.000,5212.0904,N,00005.9613,E,2,10,0.82,9.0,M,47.0,M,0000,0000*68
$GPGSA,A,3,06,07,05,29,09,23,30,02,
13,16,,,1.37,0.82,1.11*0F
$GPGSV,3,1,11,07,64,091,44,30,58,170,43,05,53,294,38,02,34,236,36*79

$GPGSV,3,2,11,09,32,081,42,49,30,173,34,13,20,258,34,06,12,194,32*73
$GPGSV,3,3,11,16,09,022,26,23,06,083,26,29,05,304,1
9*4A
$GPRMC,145106.000,A,5212.0904,N,00005.9613,E,0.01,75.51,181118,,,D*5A
$GPVTG,75.51,T,,M,0.01,N,0.01,K,
D*0E
$PMTKLOG,0,1,a,31,15,0,0,1,0,0*11
$PMTK001,183,3*3A
$PMTK869,2,1*36

$GPGGA,145
107.000,5212.0904,N,00005.9613,E,2,10,0.81,9.0,M,47.0,M,0000,0000*6A
$GPGSA,A,3,06,07,05,29,09,23,30,02,13,16,,,1.37,0.8
1,1.10*0D
$GPRMC,145107.000,A,5212.0904,N,00005.9613,E,0.01,82.05,181118,,,D*52
$GPVTG,82.05,T,,M,0
.01,N,0.02,K,D*04
$PMTKLOG,0,1,a,31,15,0,0,1,0,0*11
$PMTK001,183,3*3A
$PMTK869,2,1*36

$GPGGA,1451
08.000,5212.0904,N,00005.9613,E,2,10,0.82,9.0,M,47.0,M,0000,0000*66
$GPGSA,A,3,06,07,05,29,09,23,30,02,13,16,,,
1.37,0.82,1.11*0F
$GPRMC,145108.000,A,5212.0904,N,00005.9613,E,0.01,258.54,181118,,,D*6C
$GPVTG,258.54,T,,M,0.0
1,N,0.02,K,D*35
$PMTKLOG,0,1,a,31,15,0,0,1,0,0*11
$PMTK001,183,3*3A
$PMTK869,2,1*36

$GPGGA,145109.000,5212.09
04,N,00005.9613,E,2,10,0.81,9.0,M,47.0,M,0000,0000*64
$GPGSA,A,3,06,07,05,29,09,23,30,02,13,
16,,,1.37,0.81,1.10*0D
$GPRMC,145109.000,A,5212.0904,N,00005.9613,E,0.00,238.01,181118,,,D*6A
$GPVTG,23
8.01,T,,M,0.00,N,0.01,K,D*31
$PMTKLOG,0,1,a,31,15,0,0,1,0,0*11
$PMTK001,183,3*3A
$PMTK869,2,1*36

$GPGGA,145110.000,5212.0904,N,00005.9613,E,2,10,0.81
,9.0,M,47.0,M,0000,0000*6C
$GPGSA,A,3,06,07,05,29,09,23,30,02,13,16,,,1.37,0.81,1.10*0D
$GPRMC,1451
10.000,A,5212.0904,N,00005.9613,E,0.01,286.85,181118,,,D*6A
$GPVTG,286.85,T,,M,0.01,N,0.02,K,D*3A
$PMTK
LOG,0,1,a,31,15,0,0,1,0,0*11
$PMTK001,183,3*3A
$PMTK869,2,1*36

$GPGGA,145111.000,5212.0904,N,0000
5.9613,E,2,10,0.81,9.0,M,47.0,M,0000,0000*6D
$GPGSA,A,3,06,07,05,29,09,23,30,02,13,16,,,1.37,0.81,1.10*0
D
$GPGSV,3,1,11,07,64,091,44,30,58,170,43,05,53,294,38,02,34,236,36*79
$GPGSV,3,2,11,09,32,081,
42,49,30,173,34,13,21,258,34,06,12,194,31*71
$GPGSV,3,3,11,16,09,021,26,23,06,083,26,29,05,304,19*49
$GPRMC,145
111.000,A,5212.0904,N,00005.9613,E,0.01,290.75,181118,,,D*63
$GPVTG,290.75,T,,M,0.01,N,0.01,K,D*31

$PMTKLOG,0,1,a,31,15,0,0,1,0,0*11
$PMTK001,183,3*3A
$PMTK869,2,1*36

$GPGGA,145112
.000,5212.0904,N,00005.9613,E,2,10,0.82,9.0,M,47.0,M,0000,0000*6D
$GPGSA,A,3,06,07,05,29,09,23,30,02,13,16,,,1.37,0.82,
1.10*0E
$GPRMC,145112.000,A,5212.0904,N,00005.9613,E,0.00,0.00,181118,,,D*68
$GPVTG,0.00,T,,M,0.00,
N,0.00,K,D*38
$PMTKLOG,0,1,a,31,15,0,0,1,0,0*11
$PMTK001,183,3*3A
$PMTK869,2,1*36

$GPGGA,145113
.000,5212.0904,N,00005.9613,E,2,10,0.82,9.0,M,47.0,M,0000,0000*6C
$GPGSA,A,3,06,07,05,29,09,23,3
0,02,13,16,,,1.37,0.82,1.10*0E
$GPRMC,145113.000,A,5212.0904,N,00005.9613,E,0.00,335.55,181118,,,D*6
C
$GPVTG,335.55,T,,M,0.00,N,0.00,K,D*3D
$PMTKLOG,0,1,a,31,15,0,0,1,0,0*11
$PMTK001,183,3*3A
$PMTK869,2,1*
36

$GPGGA,145114.000,5212.0904,N,00005.9613,E,2,10,0.81,9.0,M,47.0
,M,0000,0000*68
$GPGSA,A,3,06,07,05,29,09,23,30,02,13,16,,,1.37,0.81,1.10*0D
$GPRMC,145114.0
00,A,5212.0904,N,00005.9613,E,0.00,241.32,181118,,,D*68
$GPVTG,241.32,T,,M,0.00,N,0.00,K,D*3E
$PMTKLOG,0,1,a,31
,15,0,0,1,0,0*11
$PMTK001,183,3*3A
$PMTK869,2,1*36

$GPGGA,145115.000,5212.0904,N,00005.9613,E,2,10,0.81,9.0,M,47.0,M,0000,0000*69
$GPG
SA,A,3,06,07,05,29,09,23,30,02,13,16,,,1.37,0.81,1.10*0D
$GPRMC,145115.000,A,5212.0904,N,00005.9613,E,0.
00,347.77,181118,,,D*6F
$GPVTG,347.77,T,,M,0.00,N,0.00,K,D*38
$PMTKLOG,0,1,a,31,15,0,0,1,0,0*11
$PMTK0
01,183,3*3A
$PMTK869,2,1*36

$GPGGA,145116.000,5212.0904,N,000
05.9613,E,2,10,0.81,9.0,M,47.0,M,0000,0000*6A
$GPGSA,A,3,06,07,05,29,09,23,30,02,13,16,,,1.37,0.81,1.10*0D

$GPGSV,3,1,11,07,64,091,44,30,58,170,43,05,53,294,38,02,34,236,36*79
$GPGSV,3,2,11,09,32,081,42,49,30,173,34,13,
21,258,34,06,12,194,31*71
$GPGSV,3,3,11,16,09,021,26,23,06,083,27,29,05,304,18*49
$GPRMC,145116.000,A,5
212.0904,N,00005.9613,E,0.01,30.25,181118,,,D*59
$GPVTG,30.25,T,,M,0.01,N,0.02,K,D*0F
$PMTKLOG,0,1,a,31,15,0,0,1,0,
0*11
$PMTK001,183,3*3A
$PMTK869,2,1*36

$GPGGA,145117.000,5212.0904,N,00005.9613,E,2,10,0.81,9.0,M,47.0,M,0000,0000*6B
$
GPGSA,A,3,06,07,05,29,09,23,30,02,13,16,,,1.37,0.81,1.10*0D
$GPRMC,145117.000,A,5212.0904,N,0000
5.9613,E,0.01,46.89,181118,,,D*5F
$GPVTG,46.89,T,,M,0.01,N,0.01,K,D*0B
$PMTKLOG,0,1,a,31,15,0,0,
1,0,0*11
$PMTK001,183,3*3A
$PMTK869,2,1*36

$GPGGA,145118.000,5212.0904,N,00005.9613,E,2,10,0.81,9.0,M,
47.0,M,0000,0000*64
$GPGSA,A,3,06,07,05,29,09,23,30,02,13,16,,,1.37,0.81,1.10*0D
$GPRMC,145
118.000,A,5212.0904,N,00005.9613,E,0.01,34.86,181118,,,D*5A
$GPVTG,34.86,T,,M,0.01,N,0.01,K,D*01
$PMTKLOG,0,1,a,31,15,0
,0,1,0,0*11
$PMTK001,183,3*3A
$PMTK869,2,1*36

$GPGGA,145119.000,521
2.0904,N,00005.9613,E,2,10,0.81,9.0,M,47.0,M,0000,0000*65
$GPGSA,A,3,06,07,05,29,09,23,30,02,13,
16,,,1.37,0.81,1.10*0D
$GPRMC,145119.000,A,5212.0904,N,00005.9613,E,0.01,20.62,181118,,,D*54
$GPVTG,20.6
2,T,,M,0.01,N,0.02,K,D*0D
$PMTKLOG,0,1,a,31,15,0,0,1,0,0*11
$PMTK001,183,3*3A
$PMTK869,2,1*36


$GPGGA,145120.000
,5212.0904,N,00005.9613,E,2,10,0.81,9.0,M,47.0,M,0000,0000*6F
$GPGSA,A,3,06,07,05,29,09,23,30,02,13,16,,,1.37,0.
81,1.10*0D
$GPRMC,145120.000,A,5212.0904,N,00005.9613,E,0.00,51.64,181118,,,D*5F
$GPVTG,51.64,T,,M,0.00,N,0.00
,K,D*0E
$PMTKLOG,0,1,a,31,15,0,0,1,0,0*11
$PMTK001,183,3*3A
$PMTK869,2,1*36

$GPGGA,145121.000,5212.0904,N,00005.9613,E,2,10,0.81,9.0,M
,47.0,M,0000,0000*6E
$GPGSA,A,3,06,07,05,29,09,23,30,02,13,16,,,1.37,0.81,1.10*0D
$GPGSV,3,1,11,07,
64,091,44,30,58,170,43,05,53,294,38,02,34,236,36*79
$GPGSV,3,2,11,09,32,081,42,49,30,173,34,13,2
1,258,34,06,12,194,31*71
$GPGSV,3,3,11,16,09,021,27,23,06,083,27,29,05,304,17*47
$GPRMC,145121.000,A,5212.0
904,N,00005.9613,E,0.00,331.77,181118,,,D*69
$GPVTG,331.77,T,,M,0.00,N,0.00,K,D*39
$PMTKLOG,0,1,a,31,15,0,0,1,0
,0*11
$PMTK001,183,3*3A
$PMTK869,2,1*36

$GPGGA,145122.000,5212.0904,N,00005.9613,E,2,10,0.82,9.0,M,47.0,M,0000,0000*6E
$GPGSA,A,3,06,07,0
5,29,09,23,30,02,13,16,,,1.37,0.82,1.10*0E
$GPRMC,145122.000,A,5212.0904,N,00005.9613,E,0.00,172.05,181118,,
,D*6A
$GPVTG,172.05,T,,M,0.00,N,0.01,K,D*38
$PMTKLOG,0,1,a,31,15,0,0,1,0,0*11
$PMTK001,183,3*3A
$PMTK
869,2,1*36

$GPGGA,145123.000,521
2.0904,N,00005.9613,E,2,10,0.82,9.0,M,47.0,M,0000,0000*6F
$GPGSA,A,3,06,07,05,29,09,23,30,02,13,16,,,1.37
,0.82,1.10*0E
$GPRMC,145123.000,A,5212.0904,N,00005.9613,E,0.00,3.56,181118,,,D*6A
$GPVTG,3.56,T,,M,0.0
0,N,0.01,K,D*39
$PMTKLOG,0,1,a,31,15,0,0,1,0,0*11
$PMTK001,183,3*3A
$PMTK869,2,1*36

$GPGGA,145124.000,5212.0904,N,00005.9613,E,2,10,0.82,9.0,M,47.0,M,0000,0000*68
$GPGSA,A,3
,06,07,05,29,09,23,30,02,13,16,,,1.37,0.82,1.10*0E
$GPRMC,145124.000,A,5212.0904,N,00005.9613,E,0
.00,267.57,181118,,,D*6C
$GPVTG,267.57,T,,M,0.00,N,0.01,K,D*38
$PMTKLOG,0,1,a,31,15,0,0,1,0,0*11
$PMTK001,183,3*3
A
$PMTK869,2,1*36

$GPGGA,145125.000,5212.0904,N,00005.9613
,E,2,10,0.81,9.0,M,47.0,M,0000,0000*6A
$GPGSA,A,3,06,07,05,29,09,23,30,02,13,16,,,1.37,0
.81,1.10*0D
$GPRMC,145125.000,A,5212.0904,N,00005.9613,E,0.00,345.01,181118,,,D*6F
$GPVTG,345.01,T,,M,0
.00,N,0.00,K,D*3B
$PMTKLOG,0,1,a,31,15,0,0,1,0,0*11
$PMTK001,183,3*3A
$PMTK869,2,1*36

$GPGGA,145126.000,5212.0904,N,00005.9613,E,2,10,0.81,9.0,M,47.0,M,
0000,0000*69
$GPGSA,A,3,06,07,05,29,09,23,30,02,13,16,,,1.37,0.81,1.10*0D
$GPGSV,3,1,11,07,64,091,44,30
,58,170,43,05,53,294,38,02,34,236,36*79
$GPGSV,3,2,11,09,32,081,42,49,30,173,34,13,21,258,34,06,12,194,31*71

$GPGSV,3,3,11,16,09,021,27,23,06,083,26,29,05,304,17*46
$GPRMC,145126.000,A,5212.0904,N,00005.9613,E,0.00,0.00
,181118,,,D*6F
$GPVTG,0.00,T,,M,0.00,N,0.00,K,D*38
$PMTKLOG,0,1,a,31,15,0,0,1,0,0*11
$PMTK001,183,3*3A
$PMTK869,
2,1*36

$GPGGA,145127.000,5212.0904,N,00005.9613,E,2,
10,0.81,9.0,M,47.0,M,0000,0000*68
$GPGSA,A,3,06,07,05,29,09,23,30,02,13,16,,,1.37,0.81,1.10*0D
$GPRMC,14512
7.000,A,5212.0904,N,00005.9613,E,0.00,164.35,181118,,,D*6B
$GPVTG,164.35,T,,M,0.00,N,0.00,K,D*3D
$P
MTKLOG,0,1,a,31,15,0,0,1,0,0*11
$PMTK001,183,3*3A
$PMTK869,2,1*36

$GPGGA,145128.000,5212.0904,N,000
05.9613,E,2,10,0.81,9.0,M,47.0,M,0000,0000*67
$GPGSA,A,3,06,07,05,29,09,23,30,02,13,16,,,1.37,0.81,1
.10*0D
$GPRMC,145128.000,A,5212.0904,N,00005.9613,E,0.00,270.02,181118,,,D*66
$GPVTG,270.02,T,,M,0.00,N
,0.00,K,D*3F
$PMTKLOG,0,1,a,31,15,0,0,1,0,0*11
$PMTK001,183,3*3A
$PMTK869,2,1*36

$GPGGA,145129.0
00,5212.0904,N,00005.9613,E,2,10,0.81,9.0,M,47.0,M,0000,0000*66
$GPGSA,A,3,06,07,05,29,09,23,30,02,13,16,,,1.37,0.8
1,1.10*0D
$GPRMC,145129.000,A,5212.0904,N,00005.9613,E,0.00,350.33,181118,,,D*66
$GPVTG,350.33,
T,,M,0.00,N,0.00,K,D*3E
$PMTKLOG,0,1,a,31,15,0,0,1,0,0*11
$PMTK001,183,3*3A
$PMTK869,2,1*36

$GPGGA,145130.000,5212.0904,N,00005.9613,E,2,10,0.81
,9.0,M,47.0,M,0000,0000*6E
$GPGSA,A,3,06,07,05,29,09,23,30,02,13,16,,,1.37,0.81,1.10*0D
$GPRMC,145130.0
00,A,5212.0904,N,00005.9613,E,0.00,27.08,181118,,,D*55
$GPVTG,27.08,T,,M,0.00,N,0.01,K,D*04
$PM
TKLOG,0,1,a,31,15,0,0,1,0,0*11
$PMTK001,183,3*3A
$PMTK869,2,1*36

$GPGGA,145131.000,5212.0904,N,00005.9613,E,2,10,0.81,9.0,M,47.0,M,0000,0000*6F
$GPGSA,A,3,06,
07,05,29,09,23,30,02,13,16,,,1.37,0.81,1.10*0D
$GPGSV,3,1,11,07,64,091,44,30,58,170,43,05,53,294,38,02,3
4,236,36*79
$GPGSV,3,2,11,09,32,081,42,49,30,173,34,13,21,258,34,06,12,194,31*71
$GPGSV,3,3,11,16,09,021,28,23,
06,083,26,29,05,304,17*49
$GPRMC,145131.000,A,5212.0904,N,00005.9613,E,0.00,312.57,181118,,,D*6B
$GPVTG
,312.57,T,,M,0.00,N,0.00,K,D*3A
$PMTKLOG,0,1,a,31,15,0,0,1,0,0*11
$PMTK001,183,3*3A
$PMTK869,2,1*36

$GPGGA,145132.00
0,5212.0904,N,00005.9613,E,2,10,0.81,9.0,M,47.0,M,0000,0000*6C
$GPGSA,A,3,06,07,05,29,09,23,30,02,13,16,
,,1.37,0.81,1.10*0D
$GPRMC,145132.000,A,5212.0904,N,00005.9613,E,0.00,246.88,181118,,,D*6A
$GPVTG,246.8
8,T,,M,0.00,N,0.01,K,D*39
$PMTKLOG,0,1,a,31,15,0,0,1,0,0*11
$PMTK001,183,3*3A
$PMTK869,2,1*36

$GPGGA,145133.000,5212.0904,N,00005.9613,E,2,10,0.81,9.0,M,47.0,M,0000,0000*6D
$GPGSA,A,3,06
,07,05,29,09,23,30,02,13,16,,,1.37,0.81,1.10*0D
$GPRMC,145133.000,A,5212.0904,N,00005.9613,E,0.01,311.52
,181118,,,D*6E
$GPVTG,311.52,T,,M,0.01,N,0.01,K,D*3C
$PMTKLOG,0,1,a,31,15,0,0,1,0,0*11
$PMTK001
,183,3*3A
$PMTK869,2,1*36

$GPGGA,145134.000,5212.09
04,N,00005.9613,E,2,10,0.81,9.0,M,47.0,M,0000,0000*6A
$GPGSA,A,3,06,07,05,29,09,23,30,02,13,16,,,1.37,0.81,1.10
*0D
$GPRMC,145134.000,A,5212.0904,N,00005.9613,E,0.00,37.71,181118,,,D*5E
$GPVTG,37.71,T,,M,0.00,N,0.01
,K,D*0B
$PMTKLOG,0,1,a,31,15,0,0,1,0,0*11
$PMTK001,183,3*3A
$PMTK869,2,1*36

$GPGGA,145135.000,5212.0904,N,00005.9613,E,2,10,0.81,9.0,M,47.0,M,0000,0000*6B
$GPG
SA,A,3,06,07,05,29,09,23,30,02,13,16,,,1.37,0.81,1.10*0D
$GPRMC,145135.000,A,5212.0904,N,00005.9613,E,0.
00,354.73,181118,,,D*6B
$GPVTG,354.73,T,,M,0.00,N,0.01,K,D*3F
$PMTKLOG,0,1,a,31,15,0,0,1,0,0*11
$PMTK001,1
83,3*3A
$PMTK869,2,1*36

$GPGGA,145136.000,5212.0904,N,00005.9613,E,2,10,0.81,9.0,M,47.0,M,000
0,0000*68
$GPGSA,A,3,06,07,05,29,09,23,30,02,13,16,,,1.37,0.81,1.10*0D
$GPGSV,3,1,11,07,64,090,4
4,30,58,170,43,05,53,294,38,02,34,236,36*78
$GPGSV,3,2,11,09,32,081,42,49,30,173,34,13,21,258,34,06,12,194,31*71
$GPGS
V,3,3,11,16,09,021,28,23,06,083,27,29,05,304,17*48
$GPRMC,145136.000,A,5212.0904,N,00005.9613,E,0.00,147
.06,181118,,,D*6A
$GPVTG,147.06,T,,M,0.00,N,0.00,K,D*3C
$PMTKLOG,0,1,a,31,15,0,0,1,0,0*11
$PMTK001,183,3*3A
$
PMTK869,2,1*36

$GPGGA,145137.000,5212.0904,N,00005.9613,E,2,10,0.81,9.0,M,47.0,M,000
0,0000*69
$GPGSA,A,3,06,07,05,29,09,23,30,02,13,16,,,1.37,0.81,1.10*0D
$GPRMC,145137.000,A,5212.0904,N,
00005.9613,E,0.00,333.44,181118,,,D*6C
$GPVTG,333.44,T,,M,0.00,N,0.01,K,D*3A
$PMTKLOG,0,1,a,31,15,0,0,1,0,0
*11
$PMTK001,183,3*3A
$PMTK869,2,1*36

$GPGGA,145138.000,5212.0904,N,00005.9613,E,2,10,0.81,9.0,M,47.0,M,000
0,0000*66
$GPGSA,A,3,06,07,05,29,09,23,30,02,13,16,,,1.37,0.81,1.10*0D
$GPRMC,145138.000,A,5212.0904,N,0000
5.9613,E,0.00,262.99,181118,,,D*66
$GPVTG,262.99,T,,M,0.00,N,0.01,K,D*3F
$PMTKLOG,0,1,a,31,15,0,0,1,0,0*11

$PMTK001,183,3*3A
$PMTK869,2,1*36

$GPGGA,145139.000,5212.0904,N,00005.9613,E,2,10,0.81,9.0,M,47.0,M,0000,0000*67

$GPGSA,A,3,06,07,05,29,09,23,30,02,13,16,,,1.37,0.81,1.10*0D
$GPRMC,145139.000,A,5212.0904,N,00005.9613
,E,0.00,56.56,181118,,,D*51
$GPVTG,56.56,T,,M,0.00,N,0.01,K,D*09
$PMTKLOG,0,1,a,31,15,0,0,1,0,0*11
$PMTK001,183,3*
3A
$PMTK869,2,1*36

$GPGGA,145140.000,5212.0904,N,00005.9613,E,2,10,0.81,9.0,M,47.0,M,0000,
0000*69
$GPGSA,A,3,06,07,05,29,09,23,30,02,13,16,,,1.37,0.81,1.10*0D
$GPRMC,145140.000,A,5212.0904,N,00005.
9613,E,0.00,43.11,181118,,,D*58
$GPVTG,43.11,T,,M,0.00,N,0.00,K,D*0F
$PMTKLOG,0,1,a,31,15,0,0,1,0,0*11
$PMTK00
1,183,3*3A
$PMTK869,2,1*36

$GPGGA,145141.000,5212.0904,N,00005.9613,E,2,10,0.81,9.0,M,47.0,M,0000,0000*68
$GPGSA,A
,3,06,07,05,29,09,23,30,02,13,16,,,1.37,0.81,1.10*0D
$GPGSV,3,1,11,07,64,090,44,30,58,170,43,05,53,2
94,38,02,34,236,37*79
$GPGSV,3,2,11,09,31,081,42,49,30,173,33,13,21,258,34,06,12,194,31*75
$GPGSV,3,3,1
1,16,09,021,24,23,06,083,27,29,05,304,18*4B
$GPRMC,145141.000,A,5212.0904,N,00005.9613,E,0.00,345.47,181118,,,D*
6F
$GPVTG,345.47,T,,M,0.00,N,0.00,K,D*39
$PMTKLOG,0,1,a,31,15,0,0,1,0,0*11
$PMTK001,183,3*3A
$PMTK869,2,1
*36

$GPGGA,145142.000,5212.0904,N,00005.9613,E,2,10,0.81,9.0,M,47.0,M,0000,0000*6B
$GPGSA,A,3,06,07,05,29,0
9,23,30,02,13,16,,,1.37,0.81,1.10*0D
$GPRMC,145142.000,A,5212.0904,N,00005.9613,E,0.00,340.59,181118,,,D
*66
$GPVTG,340.59,T,,M,0.00,N,0.00,K,D*33
$PMTKLOG,0,1,a,31,15,0,0,1,0,0*11
$PMTK001,183,3*3A
$PMTK869,2,
1*36

$GPGGA,145143.000,5
212.0904,N,00005.9613,E,2,10,0.82,9.0,M,47.0,M,0000,0000*69
$GPGSA,A,3,06,07,05,29,09,23,30,02,13,16
,,,1.37,0.82,1.10*0E
$GPRMC,145143.000,A,5212.0904,N,00005.9613,E,0.00,267.82,181118,,,D*65
$GP
VTG,267.82,T,,M,0.00,N,0.01,K,D*30
$PMTKLOG,0,1,a,31,15,0,0,1,0,0*11
$PMTK001,183,3*3A
$PMTK869,2,1*36

$GPGGA,145144.000,5212.0904,N,00005.9613,E,2,10,0.82,9.0,M,47.0,M,0000,0000*6E
$GPGSA,A,3,
06,07,05,29,09,23,30,02,13,16,,,1.37,0.82,1.10*0E
$GPRMC,145144.000,A,5212.0904,N,00005.9613,E,0.
00,33.53,181118,,,D*5D
$GPVTG,33.53,T,,M,0.00,N,0.00,K,D*0E
$PMTKLOG,0,1,a,31,15,0,0,1,0,0*11
$PMTK001,183,3*3A
$PMT
K869,2,1*36

$GPGGA,145145.000,52
12.0904,N,00005.9613,E,2,09,0.90,9.0,M,47.0,M,0000,0000*64
$GPGSA,A,3,06,07,05,29,09,30,02,13,16,,,,1.54,0.90,1.25*0
F
$GPRMC,145145.000,A,5212.0904,N,00005.9613,E,0.01,227.14,181118,,,D*69
$GPVTG,227.14,T,,M,0.01,N,0.01,K,D
*3A
$PMTKLOG,0,1,a,31,15,0,0,1,0,0*11
$PMTK001,183,3*3A
$PMTK869,2,1*36

$GPGGA,145146.000,5212.0904,N,00005.9613,E,2
,09,0.90,9.0,M,47.0,M,0000,0000*67
$GPGSA,A,3,06,07,05,29,09,30,02,13,16,,,,1.54,0.90,1.25*0
F
$GPGSV,3,1,11,07,64,090,44,30,58,170,43,05,53,294,38,02,34,236,37*79
$GPGSV,3,2,11,09,31,081,39,49,30,173
,34,13,21,258,34,06,12,194,31*7E
$GPGSV,3,3,11,16,09,021,27,23,06,083,20,29,05,304,17*40
$GPRMC
,145146.000,A,5212.0904,N,00005.9613,E,0.01,64.31,181118,,,D*58
$GPVTG,64.31,T,,M,0.01,N,0.01,K,D*08
$PMTKL
OG,0,1,a,31,15,0,0,1,0,0*11
$PMTK001,183,3*3A
$PMTK869,2,1*36

$GPGGA,145147.000,5212.0904,N,0000
5.9613,E,2,09,0.90,9.0,M,47.0,M,0000,0000*66
$GPGSA,A,3,06,07,05,29,09,30,02,13,16,,,,1.54,0.90,1.25*
0F
$GPRMC,145147.000,A,5212.0904,N,00005.9613,E,0.00,298.75,181118,,,D*69
$GPVTG,298.75,T,,M,0.00,N,0.00,K
,D*39
$PMTKLOG,0,1,a,31,15,0,0,1,0,0*11
$PMTK001,183,3*3A
$PMTK869,2,1*36

$GPGGA,145148.000,5212.0904,N,00005.9613,E,2,10,0.82,9.0,M,47.0,M,0000
,0000*62
$GPGSA,A,3,06,07,05,29,09,23,30,02,13,16,,,1.37,0.82,1.10*0E
$GPRMC,145148.000,A,5212.0904,
N,00005.9613,E,0.01,214.01,181118,,,D*60
$GPVTG,214.01,T,,M,0.01,N,0.01,K,D*3E
$PMTKLOG,0,1,a,3
1,15,0,0,1,0,0*11
$PMTK001,183,3*3A
$PMTK869,2,1*36

$GPGGA,145149.000,5212.0904,N,00005.9613,
E,2,09,0.90,9.0,M,47.0,M,0000,0000*68
$GPGSA,A,3,06,07,05,29,09,30,02,13,16,,,,1.54,0.90,1.25*0F
$GPRMC,145
149.000,A,5212.0904,N,00005.9613,E,0.01,204.17,181118,,,D*67
$GPVTG,204.17,T,,M,0.01,N,0.02,K,D*3B
$PMT
KLOG,0,1,a,31,15,0,0,1,0,0*11
$PMTK001,183,3*3A
$PMTK869,2,1*36

$GPGGA,145150.000,5212.0904,N,00005.9613,E,2,09,0.90,9.0,M,47.0,M,0000,0
000*60
$GPGSA,A,3,06,07,05,29,09,30,02,13,16,,,,1.54,0.90,1.25*0F
$GPRMC,145150.000,A,5212.0904,N,00005
.9613,E,0.01,216.41,181118,,,D*6F
$GPVTG,216.41,T,,M,0.01,N,0.01,K,D*38
$PMTKLOG,0,1,a,31,15,0,
0,1,0,0*11
$PMTK001,183,3*3A
$PMTK869,2,1*36

$GPGGA,145151.000,5212.0904,N,00005.9613,E,2
,09,0.90,9.0,M,47.0,M,0000,0000*61
$GPGSA,A,3,06,07,05,29,09,30,02,13,16,,,,1.54,0.90,1.25*0F
$GPGSV,3,
1,11,07,64,090,44,30,58,170,43,05,53,294,39,02,34,236,37*78
$GPGSV,3,2,11,09,31,081,40,49,30,173,34,13,2
1,258,34,06,12,194,31*70
$GPGSV,3,3,11,16,09,021,27,23,06,083,21,29,05,304,16*40
$GPRMC,145151.000,A,5212.0
904,N,00005.9613,E,0.01,196.16,181118,,,D*67
$GPVTG,196.16,T,,M,0.01,N,0.01,K,D*31
$PMTKLOG,0,1,a,31,15,0,0
,1,0,0*11
$PMTK001,183,3*3A
$PMTK869,2,1*36

$GPGGA,1
45152.000,5212.0904,N,00005.9613,E,2,10,0.81,9.0,M,47.0,M,0000,0000*6A
$GPGSA,A,3,06,07,05,29,09,23,
30,02,13,16,,,1.36,0.81,1.10*0C
$GPRMC,145152.000,A,5212.0904,N,00005.9613,E,0.01,11.68,181118,,,D*53
$
GPVTG,11.68,T,,M,0.01,N,0.02,K,D*05
$PMTKLOG,0,1,a,31,15,0,0,1,0,0*11
$PMTK001,183,3*3A
$PMTK869,2,1*3
6

$GPGGA,145153.000,5212.0904,N,00005
.9613,E,2,09,0.90,9.0,M,47.0,M,0000,0000*63
$GPGSA,A,3,06,07,05,29,09,30,02,13,16,,,,1.54,0.90,1.25*0F
$GPR
MC,145153.000,A,5212.0904,N,00005.9613,E,0.01,28.11,181118,,,D*56
$GPVTG,28.11,T,,M,0.01,N,0.02,K,D*01

$PMTKLOG,0,1,a,31,15,0,0,1,0,0*11
$PMTK001,183,3*3A
$PMTK869,2,1*36

$GPGGA,145154.000,5212.0904,N,00005.9613,E,2,09,0.90,9.0,M,
47.0,M,0000,0000*64
$GPGSA,A,3,06,07,05,29,09,30,02,13,16,,,,1.54,0.90,1.25*0F
$GPRMC,145154.000,A,5212
.0904,N,00005.9613,E,0.01,18.18,181118,,,D*5B
$GPVTG,18.18,T,,M,0.01,N,0.02,K,D*0B
$PMTKLOG,0,1,a,31,15
,0,0,1,0,0*11
$PMTK001,183,3*3A
$PMTK869,2,1*36

$GPGGA,145155.000,5212.0904,N,00005.9613,E,2
,09,0.89,9.0,M,47.0,M,0000,0000*6D
$GPGSA,A,3,06,07,05,29,09,30,02,13,16,,,,1.54,0.89,1.25*07
$GPRMC,14
5155.000,A,5212.0904,N,00005.9613,E,0.01,79.45,181118,,,D*55
$GPVTG,79.45,T,,M,0.01,N,0.01,K,D*0
7
$PMTKLOG,0,1,a,31,15,0,0,1,0,0*11
$PMTK001,183,3*3A
$PMTK869,2,1*36

$GPGGA,145156.000,5212.0904,N,00005.9613,E,2,09,0.89,9.0,M,47.0,M,0000,0000*6E
$GPGSA,A,3,06,0
7,05,29,09,30,02,13,16,,,,1.54,0.89,1.25*07
$GPGSV,3,1,11,07,64,090,44,30,58,170,43,05,53,294,39,02,34,2
36,37*78
$GPGSV,3,2,11,09,31,081,40,49,30,173,33,13,21,258,34,06,12,194,31*77
$GPGSV,3,3,11,16,09,021,26,23
,06,083,21,29,05,304,14*43
$GPRMC,145156.000,A,5212.0904,N,00005.9613,E,0.01,244.96,181118,,
,D*64
$GPVTG,244.96,T,,M,0.01,N,0.01,K,D*35
$PMTKLOG,0,1,a,31,15,0,0,1,0,0*11
$PMTK001,183,3*3A
$PMTK869,2,1*
36

$GPGGA,145157.000,5212.0904,N,00005.9613,E,2,09,0.89,9.0,M,47.0,M,0000,0000*6
F
$GPGSA,A,3,06,07,05,29,09,30,02,13,16,,,,1.54,0.89,1.25*07
$GPRMC,145157.000,A,5212.0904,N,00005.9613,E,0
.01,253.90,181118,,,D*65
$GPVTG,253.90,T,,M,0.01,N,0.01,K,D*35
$PMTKLOG,0,1,a,31,15,0,0,1,0,0*11
$PMTK
001,183,3*3A
$PMTK869,2,1*36

$GPGGA,145
158.000,5212.0904,N,00005.9613,E,2,09,0.89,9.0,M,47.0,M,0000,0000*60
$GPGSA,A,3,06,07,05,29,09,30,02
,13,16,,,,1.54,0.89,1.25*07
$GPRMC,145158.000,A,5212.0904,N,00005.9613,E,0.01,256.67,181118,,,D*67
$GPV
TG,256.67,T,,M,0.01,N,0.03,K,D*3A
$PMTKLOG,0,1,a,31,15,0,0,1,0,0*11
$PMTK001,183,3*3A
$PMTK869,2,1*36

$GPGGA,145159.000,5212.0904,N,00005.9613,E,2,09,0.90,9.0,M,47.0,M,0000,0000*69
$GPGSA,A,3,06,07,
05,29,09,30,02,13,16,,,,1.54,0.90,1.25*0F
$GPRMC,145159.000,A,5212.0904,N,00005.9613,E,0.01,245.76,18111
8,,,D*64
$GPVTG,245.76,T,,M,0.01,N,0.01,K,D*3A
$PMTKLOG,0,1,a,31,15,0,0,1,0,0*11
$PMTK001,183,3*3A
$PMTK8
69,2,1*36

$GPGGA,145200.000,5212.0904,N,00
005.9613,E,2,09,0.90,9.0,M,47.0,M,0000,0000*66
$GPGSA,A,3,06,07,05,29,09,30,02,13,16,,,,1.54,0.9
0,1.25*0F
$GPRMC,145200.000,A,5212.0904,N,00005.9613,E,0.00,64.27,181118,,,D*5F
$GPVTG,64.27,T,
,M,0.00,N,0.00,K,D*0F
$PMTKLOG,0,1,a,31,15,0,0,1,0,0*11
$PMTK001,183,3*3A
$PMTK869,2,1*36

$GPGGA,145201.000,5212.0904
,N,00005.9613,E,2,09,0.89,9.0,M,47.0,M,0000,0000*6F
$GPGSA,A,3,06,07,05,29,09,30,02,13,16,,,,1.54,0.89,1
.25*07
$GPGSV,3,1,11,07,64,090,44,30,59,170,43,05,53,294,39,02,34,236,37*79
$GPGSV,3,2,11,09,31
,081,40,49,30,173,33,13,21,258,34,06,12,194,31*77
$GPGSV,3,3,11,16,09,021,26,23,06,083,21,29,05,303,15*45
$GPRM
C,145201.000,A,5212.0904,N,00005.9613,E,0.00,319.40,181118,,,D*66
$GPVTG,319.40,T,,M,0.00,N,0.01,K,D*36
$PM
TKLOG,0,1,a,31,15,0,0,1,0,0*11
$PMTK001,183,3*3A
$PMTK869,2,1*36

$GPGGA,14520
2.000,5212.0904,N,00005.9613,E,2,09,0.89,9.0,M,47.0,M,0000,0000*6C
$GPGSA,A,3,06,07,05,29,09,30,02,1
3,16,,,,1.54,0.89,1.25*07
$GPRMC,145202.000,A,5212.0904,N,00005.9613,E,0.00,48.55,181118,,,D*56
$GP
VTG,48.55,T,,M,0.00,N,0.01,K,D*05
$PMTKLOG,0,1,a,31,15,0,0,1,0,0*11
$PMTK001,183,3*3A
$PMTK869,2,1*36


$GPGGA,145203.000,5212.0904,N,00005.9613,E,2,09,0.89,9.0,M,47.0,M,0000,0000*6D
$G
PGSA,A,3,06,07,05,29,09,30,02,13,16,,,,1.54,0.89,1.25*07
$GPRMC,145203.000,A,5212.0904,N,00005.9613,E
,0.00,262.99,181118,,,D*6D
$GPVTG,262.99,T,,M,0.00,N,0.00,K,D*3E
$PMTKLOG,0,1,a,31,15,0,0,1,0,0*11
$PMTK0
01,183,3*3A
$PMTK869,2,1*36

$GPGGA,145204.000,5212.0904,N,00005.9613,E,2,09,0.89
,9.0,M,47.0,M,0000,0000*6A
$GPGSA,A,3,06,07,05,29,09,30,02,13,16,,,,1.54,0.89,1.25*07
$GPRMC,145204.000
,A,5212.0904,N,00005.9613,E,0.02,220.10,181118,,,D*6F
$GPVTG,220.10,T,,M,0.02,N,0.03,K,D*38
$PMTKLOG,0,
1,a,31,15,0,0,1,0,0*11
$PMTK001,183,3*3A
$PMTK869,2,1*36

$GPGG
A,145205.000,5212.0904,N,00005.9613,E,2,09,0.89,9.0,M,47.0,M,0000,0000*6B
$GPGSA,A,3,06,07,05,29,09,30,02,13,16,
,,,1.54,0.89,1.25*07
$GPRMC,145205.000,A,5212.0904,N,00005.9613,E,0.02,223.03,181118,,,D*6F
$GPVTG,223.03,T,,M
,0.02,N,0.03,K,D*39
$PMTKLOG,0,1,a,31,15,0,0,1,0,0*11
$PMTK001,183,3*3A
$PMTK869,2,1*36

$GPGGA,145206.000,5212.0904,N,00005.9613,E,2,09,0.90,9.0,M,47.0,M,0000,0000*60
$GPGSA,A,3
,06,07,05,29,09,30,02,13,16,,,,1.54,0.90,1.25*0F
$GPGSV,3,1,11,07,64,090,44,30,59,170,43,05,53,294,39,02
,33,236,37*7E
$GPGSV,3,2,11,09,31,081,40,49,30,173,34,13,21,258,33,06,12,194,30*76
$GPGSV,3,3,11,16
,09,021,26,23,06,083,21,29,05,303,16*46
$GPRMC,145206.000,A,5212.0904,N,00005.9613,E,0.02,211.55,181118,
,,D*6E
$GPVTG,211.55,T,,M,0.02,N,0.03,K,D*3B
$PMTKLOG,0,1,a,31,15,0,0,1,0,0*11
$PMTK001,183,3*3A
$PMTK869
,2,1*36

$GPGGA,145207.000,5212.090
4,N,00005.9613,E,2,09,0.90,9.0,M,47.0,M,0000,0000*61
$GPGSA,A,3,06,07,05,29,09,30,02,13,16,,,,1.54,0.90,
1.25*0F
$GPRMC,145207.000,A,5212.0904,N,00005.9613,E,0.01,283.18,181118,,,D*6E
$GPVTG,283.18,T,,M,0.01,
N,0.03,K,D*3A
$PMTKLOG,0,1,a,31,15,0,0,1,0,0*11
$PMTK001,183,3*3A
$PMTK869,2,1*36

$GPGGA,145208.000,5212.0904,N,00005.96
13,E,2,09,0.90,9.0,M,47.0,M,0000,0000*6E
$GPGSA,A,3,06,07,05,29,09,30,02,13,16,,,,1.54,0.90,1.25*0F
$GPRMC,
145208.000,A,5212.0904,N,00005.9613,E,0.01,95.18,181118,,,D*54
$GPVTG,95.18,T,,M,0.01,N,0.01,K,D*0D

$PMTKLOG,0,1,a,31,15,0,0,1,0,0*11
$PMTK001,183,3*3A
$PMTK869,2,1*36

$GPGGA,145209.000,5212.0904,N,00005.9613,E,2,10,0.81,9.0,M,47.0,M,0000,0000*67
$
GPGSA,A,3,06,07,05,29,09,23,30,02,13,16,,,1.36,0.81,1.09*04
$GPRMC,145209.000,A,5212.0904,N,00005.9613,E
,0.01,89.66,181118,,,D*51
$GPVTG,89.66,T,,M,0.01,N,0.02,K,D*0A
$PMTKLOG,0,1,a,31,15,0,0,1,0,0*11
$PMTK001,
183,3*3A
$PMTK869,2,1*36

$GPGGA,145210.000,5212.0904,N,00005.9613,E,
2,10,0.81,9.0,M,47.0,M,0000,0000*6F
$GPGSA,A,3,06,07,05,29,09,23,30,02,13,16,,,1.36,0.81,1.09*04
$GPRMC,145210
.000,A,5212.0904,N,00005.9613,E,0.01,109.12,181118,,,D*63
$GPVTG,109.12,T,,M,0.01,N,0.01,K,D*33

$PMTKLOG,0,1,a,31,15,0,0,1,0,0*11
$PMTK001,183,3*3A
$PMTK869,2,1*36

$GPGGA,145211.000,5212.0904,N,00005.9613,E,2,10,0.8
1,9.0,M,47.0,M,0000,0000*6E
$GPGSA,A,3,06,07,05,29,09,23,30,02,13,16,,,1.36,0.81,1.09*04
$G
PGSV,3,1,11,07,64,090,44,30,59,170,43,05,53,294,39,02,33,236,37*7E
$GPGSV,3,2,11,09,31,081,41,49,30,
173,34,13,21,258,34,06,12,194,32*72
$GPGSV,3,3,11,16,09,021,26,23,06,083,24,29,05,303,17*42
$GPRMC,1452
11.000,A,5212.0904,N,00005.9613,E,0.01,94.25,181118,,,D*53
$GPVTG,94.25,T,,M,0.01,N,0.02,K,D*01
$PMTKLO
G,0,1,a,31,15,0,0,1,0,0*11
$PMTK001,183,3*3A
$PMTK869,2,1*36

$GPGGA,145212.000,
5212.0904,N,00005.9613,E,2,10,0.81,9.0,M,47.0,M,0000,0000*6D
$GPGSA,A,3,06,07,05,29,09,23,30,02,
13,16,,,1.36,0.81,1.09*04
$GPRMC,145212.000,A,5212.0904,N,00005.9613,E,0.01,119.58,181118,,,D*6E
$GPVTG
,119.58,T,,M,0.01,N,0.02,K,D*3F
$PMTKLOG,0,1,a,31,15,0,0,1,0,0*11
$PMTK001,183,3*3A
$PMTK869,2,1*36

$GPG
GA,145213.000,5212.0904,N,00005.9613,E,2,10,0.81,9.0,M,47.0,M,0000,0000*6C
$GPGSA,A,3,06,07,05,29,09,23,
30,02,13,16,,,1.36,0.81,1.09*04
$GPRMC,145213.000,A,5212.0904,N,00005.9613,E,0.01,145.98,181118,,,D*6A

$GPVTG,145.98,T,,M,0.01,N,0.01,K,D*39
$PMTKLOG,0,1,a,31,15,0,0,1,0,0*11
$PMTK001,183,3*3A
$PMTK869,2,1*36


$GPGGA,145214.000,
5212.0904,N,00005.9613,E,2,10,0.81,9.0,M,47.0,M,0000,0000*6B
$GPGSA,A,3,06,07,05,29,09,23,30,02,13,1
6,,,1.36,0.81,1.09*04
$GPRMC,145214.000,A,5212.0904,N,00005.9613,E,0.00,245.88,181118,,,D*6E
$GPVTG,245
.88,T,,M,0.00,N,0.00,K,D*3B
$PMTKLOG,0,1,a,31,15,0,0,1,0,0*11
$PMTK001,183,3*3A
$PMTK869,2,1*36

$GPGGA,145215.000,5212.0904,N,00005.9613,E,2,10,0.81,9.0,M,47.0,M,0000,0000*6
A
$GPGSA,A,3,06,07,05,29,09,23,30,02,13,16,,,1.36,0.81,1.09*04
$GPRMC,145215.000,A,5212.0904,N,00005.9613,E,0.
00,18.26,181118,,,D*51
$GPVTG,18.26,T,,M,0.00,N,0.00,K,D*05
$PMTKLOG,0,1,a,31,15,0,0,1,0,0*11
$PMTK001,183,3*3
A
$PMTK869,2,1*36

$GPGGA,145216.000,5212.0904,N
,00005.9613,E,2,10,0.81,9.0,M,47.0,M,0000,0000*69
$GPGSA,A,3,06,07,05,29,09,23,30,02,13,16,,,1.36,0.
81,1.09*04
$GPGSV,3,1,11,07,64,090,44,30,59,170,43,05,53,294,39,02,33,236,37*7E
$GPGSV,3,2,11,09,31,081,
42,49,30,173,33,13,21,258,34,06,12,194,32*76
$GPGSV,3,3,11,16,09,021,26,23,06,083,25,29,05,303,17*43
$GPRMC,14
5216.000,A,5212.0904,N,00005.9613,E,0.00,0.00,181118,,,D*6F
$GPVTG,0.00,T,,M,0.00,N,0.00,K,D*38
$PMTKLOG,0,
1,a,31,15,0,0,1,0,0*11
$PMTK001,183,3*3A
$PMTK869,2,1*36

$GPGGA,145217.000
,5212.0904,N,00005.9613,E,2,10,0.81,9.0,M,47.0,M,0000,0000*68
$GPGSA,A,3,06,07,05,29,09,23,30,02,13,
16,,,1.36,0.81,1.09*04
$GPRMC,145217.000,A,5212.0904,N,00005.9613,E,0.00,322.03,181118,,,D*6E
$GPVT
G,322.03,T,,M,0.00,N,0.00,K,D*38
$PMTKLOG,0,1,a,31,15,0,0,1,0,0*11
$PMTK001,183,3*3A
$PMTK869,2,1*36

$GPGGA,145218.000,5212.0904,N,00005.9613,E,2,10,0.81,9.0,M,47.0,M,0000,0000*67
$GPGSA,A
,3,06,07,05,29,09,23,30,02,13,16,,,1.36,0.81,1.09*04
$GPRMC,145218.000,A,5212.0904,N,00005.9613,E,0.
00,64.33,181118,,,D*53
$GPVTG,64.33,T,,M,0.00,N,0.00,K,D*0A
$PMTKLOG,0,1,a,31,15,0,0,1,0,0*11
$PMTK001,183,3*3
A
$PMTK869,2,1*36

$GPGGA,145219.000,5212.0904,N,00005.9613,E,2,10,0.81,9.0,M,47.0,M,0000,0000
*66
$GPGSA,A,3,06,07,05,29,09,23,30,02,13,16,,,1.36,0.81,1.09*04
$GPRMC,145219.000,A,5212.0904,N,00005.9613,E,0.00,
43.76,181118,,,D*56
$GPVTG,43.76,T,,M,0.00,N,0.00,K,D*0E
$PMTKLOG,0,1,a,31,15,0,0,1,0,0*11
$PMTK001,183,3
*3A
$PMTK869,2,1*36

$GPGGA,145220.000,5212.0904,N,00005.9613,E,2,10,0.81,9.0,M,47.0,M,0000,0000*6C
$GPGSA,A,3,06,07,05,
29,09,23,30,02,13,16,,,1.36,0.81,1.09*04
$GPRMC,145220.000,A,5212.0904,N,00005.9613,E,0.00,313.5
5,181118,,,D*6B
$GPVTG,313.55,T,,M,0.00,N,0.01,K,D*38
$PMTKLOG,0,1,a,31,15,0,0,1,0,0*11
$PMTK001,183,3*3A
$PM
TK869,2,1*36

$GPGGA,145221.
000,5212.0905,N,00005.9613,E,2,10,0.81,9.0,M,47.0,M,0000,0000*6C
$GPGSA,A,3,06,07,05,29,09,23,30,02,13,16,,,
1.36,0.81,1.09*04
$GPGSV,3,1,11,07,64,090,44,30,59,170,43,05,53,294,39,02,33,236,37*7E
$GPGSV,3
,2,11,09,31,081,42,49,30,173,34,13,21,258,34,06,12,194,32*71
$GPGSV,3,3,11,16,09,021,27,23,06,083,25,29,05,303,16*43
$GPRMC
,145221.000,A,5212.0905,N,00005.9613,E,0.00,45.36,181118,,,D*5E
$GPVTG,45.36,T,,M,0.00,N,0.00,K,
D*0C
$PMTKLOG,0,1,a,31,15,0,0,1,0,0*11
$PMTK001,183,3*3A
$PMTK869,2,1*36

$GPGGA,145222.000,5212.0905,N,00005
.9613,E,2,10,0.81,9.0,M,47.0,M,0000,0000*6F
$GPGSA,A,3,06,07,05,29,09,23,30,02,13,16,,,1.36,0.81,1.0
9*04
$GPRMC,145222.000,A,5212.0905,N,00005.9613,E,0.00,328.98,181118,,,D*61
$GPVTG,328.98,T,,M,0.00
,N,0.01,K,D*31
$PMTKLOG,0,1,a,31,15,0,0,1,0,0*11
$PMTK001,183,3*3A
$PMTK869,2,1*36

$GPGGA,145223.000,5212.0905
,N,00005.9613,E,2,10,0.81,9.0,M,47.0,M,0000,0000*6E
$GPGSA,A,3,06,07,05,29,09,23,30,02,13,16,,,1
.36,0.81,1.09*04
$GPRMC,145223.000,A,5212.0905,N,00005.9613,E,0.00,351.32,181118,,,D*6E
$GPVTG,351.32,T
,,M,0.00,N,0.01,K,D*3F
$PMTKLOG,0,1,a,31,15,0,0,1,0,0*11
$PMTK001,183,3*3A
$PMTK869,2,1*36

$GPGGA,145224.000,5212.0905,N,00005.9613,E,2,10,0.81,9.0,M,47.0,M,0000,0000*69
$GP
GSA,A,3,06,07,05,29,09,23,30,02,13,16,,,1.36,0.81,1.09*04
$GPRMC,145224.000,A,5212.0905,N,00005.9613,E,0
.00,101.32,181118,,,D*6E
$GPVTG,101.32,T,,M,0.00,N,0.00,K,D*39
$PMTKLOG,0,1,a,31,15,0,0,1,0,0*11
$PMTK001,
183,3*3A
$PMTK869,2,1*36

$GPGGA,1
45225.000,5212.0905,N,00005.9613,E,2,10,0.81,9.0,M,47.0,M,0000,0000*68
$GPGSA,A,3,06,07,05,29,09,23,30,02,13,16,
,,1.36,0.81,1.09*04
$GPRMC,145225.000,A,5212.0905,N,00005.9613,E,0.01,199.28,181118,,,D*64
$GPVTG,199.28,T,
,M,0.01,N,0.02,K,D*30
$PMTKLOG,0,1,a,31,15,0,0,1,0,0*11
$PMTK001,183,3*3A
$PMTK869,2,1*36

$GPGGA,145226.000,5212.0905,N,00005.9613,E,2,10,0.81,9.0,M,47.0,M,
0000,0000*6B
$GPGSA,A,3,06,07,05,29,09,23,30,02,13,16,,,1.36,0.81,1.09*04
$GPGSV,3,1,11,07,64,090,44,30
,59,170,43,05,53,294,39,02,33,236,37*7E
$GPGSV,3,2,11,09,31,081,42,49,30,173,33,13,21,258,34,06,12,1
94,32*76
$GPGSV,3,3,11,16,09,021,27,23,06,083,25,29,05,303,16*43
$GPRMC,145226.000,A,5212.0905,N,000
05.9613,E,0.00,0.00,181118,,,D*6D
$GPVTG,0.00,T,,M,0.00,N,0.00,K,D*38
$PMTKLOG,0,1,a,31,15,0,0,1,0,0*11

$PMTK001,183,3*3A
$PMTK869,2,1*36

$GPGGA,145227.000,5212.0905,N,00005.9613,E,2,10,0.81,9.0,M,47.0,M,0000,0000*6A

$GPGSA,A,3,06,07,05,29,09,23,30,02,13,16,,,1.36,0.81,1.09*04
$GPRMC,145227.000,A,5212.0905,N,00005.9
613,E,0.00,83.49,181118,,,D*5A
$GPVTG,83.49,T,,M,0.00,N,0.00,K,D*0E
$PMTKLOG,0,1,a,31,15,0,0,1,0,0*11
$PMTK001
,183,3*3A
$PMTK869,2,1*36

$GPGGA,145228.000,5212.0905,N,00005.9613,E,2,10,0.81,9.0,M,47.0,M,0000,0000*65
$GPGSA,
A,3,06,07,05,29,09,23,30,02,13,16,,,1.36,0.81,1.09*04
$GPRMC,145228.000,A,5212.0905,N,00005.9613,E,0
.00,324.42,181118,,,D*60
$GPVTG,324.42,T,,M,0.00,N,0.01,K,D*3A
$PMTKLOG,0,1,a,31,15,0,0,1,0,0*11
$PMTK001,183,3*3A
$P
MTK869,2,1*36

$GPGGA,145229.000,5212.0905,N,00005.9613,E,2,10,0.81,9.0,M,47.0,M,0000,00
00*64
$GPGSA,A,3,06,07,05,29,09,23,30,02,13,16,,,1.36,0.81,1.09*04
$GPRMC,145229.000,A,5212.090
5,N,00005.9613,E,0.00,115.68,181118,,,D*69
$GPVTG,115.68,T,,M,0.00,N,0.00,K,D*33
$PMTKLOG,0,1,a,31,15,0
,0,1,0,0*11
$PMTK001,183,3*3A
$PMTK869,2,1*36

$GPGGA,145230
.000,5212.0905,N,00005.9613,E,2,10,0.81,9.0,M,47.0,M,0000,0000*6C
$GPGSA,A,3,06,07,05,29,09,23,30
,02,13,16,,,1.36,0.81,1.09*04
$GPRMC,145230.000,A,5212.0905,N,00005.9613,E,0.00,203.15,181118,,,D*6F
$GPVT
G,203.15,T,,M,0.00,N,0.00,K,D*3D
$PMTKLOG,0,1,a,31,15,0,0,1,0,0*11
$PMTK001,183,3*3A
$PMTK869,2,1*36

$GPGGA,145231.000,5212
.0905,N,00005.9613,E,2,10,0.81,9.0,M,47.0,M,0000,0000*6D
$GPGSA,A,3,06,07,05,29,09,23,30,02,
13,16,,,1.36,0.81,1.09*04
$GPGSV,3,1,11,07,64,090,44,30,59,170,43,05,53,294,39,02,33,236,37*7E
$GPGSV,3
,2,11,09,31,081,42,49,30,173,33,13,21,258,34,06,12,194,32*76
$GPGSV,3,3,11,16,09,021,26,23,06,083,25,29,
05,303,15*41
$GPRMC,145231.000,A,5212.0905,N,00005.9613,E,0.00,347.52,181118,,,D*6C
$GPVTG,347.52,T,,M,0.00,N,0
.01,K,D*3E
$PMTKLOG,0,1,a,31,15,0,0,1,0,0*11
$PMTK001,183,3*3A
$PMTK869,2,1*36

$GPGGA,1452
32.000,5212.0905,N,00005.9613,E,2,10,0.81,9.0,M,47.0,M,0000,0000*6E
$GPGSA,A,3,06,07,05,29,09,23,30,02,13,16
,,,1.36,0.81,1.09*04
$GPRMC,145232.000,A,5212.0905,N,00005.9613,E,0.00,307.41,181118,,,D*69
$GPVTG,307.
41,T,,M,0.00,N,0.00,K,D*39
$PMTKLOG,0,1,a,31,15,0,0,1,0,0*11
$PMTK001,183,3*3A
$PMTK869,2,1*36

$GPGGA,145233.000,5212.0905,N,0
0005.9613,E,2,10,0.81,9.0,M,47.0,M,0000,0000*6F
$GPGSA,A,3,06,07,05,29,09,23,30,02,13,16,,,1.36,0.81,1.0
9*04
$GPRMC,145233.000,A,5212.0905,N,00005.9613,E,0.00,173.51,181118,,,D*68
$GPVTG,173.51,T,,M,0.00,N,0
.01,K,D*38
$PMTKLOG,0,1,a,31,15,0,0,1,0,0*11
$PMTK001,183,3*3A
$PMTK869,2,1*36

$GPGGA,145234.000,5212.0905,N,00005.9613,E,2,10,0.81,9.0,M,47.0,M,0000,0000*68
$GPGSA,A,3,06,07,05,29,09,2
3,30,02,13,16,,,1.36,0.81,1.09*04
$GPRMC,145234.000,A,5212.0905,N,00005.9613,E,0.00,66.04,181
118,,,D*5A
$GPVTG,66.04,T,,M,0.00,N,0.00,K,D*0C
$PMTKLOG,0,1,a,31,15,0,0,1,0,0*11
$PMTK001,183,3*3A
$
PMTK869,2,1*36

$GPGGA,145235.000,5212.0905,N,00005.9613,E,2,10,0.81,9.0,M,47.0,M,0000,0000*69
$GPGSA,A,3,
06,07,05,29,09,23,30,02,13,16,,,1.36,0.81,1.09*04
$GPRMC,145235.000,A,5212.0905,N,00005.9613,E,0.00,85.45,181118
,,,D*53
$GPVTG,85.45,T,,M,0.00,N,0.01,K,D*05
$PMTKLOG,0,1,a,31,15,0,0,1,0,0*11
$PMTK001,183,3*3A
$PMT
K869,2,1*36

$GPGGA,145236.000
,5212.0905,N,00005.9613,E,2,10,0.81,9.0,M,47.0,M,0000,0000*6A
$GPGSA,A,3,06,07,05,29,09,23,30,02,13,16,,,1.36,0.
81,1.09*04
$GPGSV,3,1,11,07,64,090,44,30,59,170,43,05,53,294,39,02,33,236,36*7F
$GPGSV,3,2,11,0
9,31,081,42,49,30,173,34,13,21,258,34,06,12,194,32*71
$GPGSV,3,3,11,16,09,021,26,23,06,083,26,29,05,303,
15*42
$GPRMC,145236.000,A,5212.0905,N,00005.9613,E,0.00,0.00,181118,,,D*6C
$GPVTG,0.00,T,,M,0.00,N,0.00
,K,D*38
$PMTKLOG,0,1,a,31,15,0,0,1,0,0*11
$PMTK001,183,3*3A
$PMTK869,2,1*36

$GPGGA,145237.000,5212
.0904,N,00005.9613,E,2,10,0.81,9.0,M,47.0,M,0000,0000*6A
$GPGSA,A,3,06,07,05,29,09,23,30,02,13,16,,,1
.36,0.81,1.09*04
$GPRMC,145237.000,A,5212.0904,N,00005.9613,E,0.01,225.02,181118,,,D*6A
$GPVTG,225.02,T
,,M,0.01,N,0.02,K,D*3C
$PMTKLOG,0,1,a,31,15,0,0,1,0,0*11
$PMTK001,183,3*3A
$PMTK869,2,1*36

$GPGGA,145238.000,5212.0904,N,00005.9613,E,2,10,0.
81,9.0,M,47.0,M,0000,0000*65
$GPGSA,A,3,06,07,05,29,09,23,30,02,13,16,,,1.36,0.81,1.09*04
$GPRM
C,145238.000,A,5212.0904,N,00005.9613,E,0.00,0.00,181118,,,D*63
$GPVTG,0.00,T,,M,0.00,N,0.00,K,D*38
$PM
TKLOG,0,1,a,31,15,0,0,1,0,0*11
$PMTK001,183,3*3A
$PMTK869,2,1*36

$GPGGA,145239.000,5212.0904,N,00005.9613,E,2,10,0.81,9.0,M,47.0,M,0000,0000*64
$GPGSA,
A,3,06,07,05,29,09,23,30,02,13,16,,,1.36,0.81,1.09*04
$GPRMC,145239.000,A,5212.0904,N,00005.9613,E,0.00,
123.08,181118,,,D*6A
$GPVTG,123.08,T,,M,0.00,N,0.00,K,D*30
$PMTKLOG,0,1,a,31,15,0,0,1,0,0*11
$PMTK001,183,
3*3A
$PMTK869,2,1*36

$GPGGA,145240.000,
5212.0904,N,00005.9613,E,2,10,0.81,9.0,M,47.0,M,0000,0000*6A
$GPGSA,A,3,06,07,05,29,09,23,30,02,
13,16,,,1.36,0.81,1.09*04
$GPRMC,145240.000,A,5212.0904,N,00005.9613,E,0.00,48.23,181118,,,D*51
$GPVTG,48.2
3,T,,M,0.00,N,0.00,K,D*05
$PMTKLOG,0,1,a,31,15,0,0,1,0,0*11
$PMTK001,183,3*3A
$PMTK869,2,1*
36

$GPGGA,145241.000,5212.0904,N,00005.9613,E,2,10,0.81,9.0,M,47.0,M,0
000,0000*6B
$GPGSA,A,3,06,07,05,29,09,23,30,02,13,16,,,1.36,0.81,1.09*04
$GPGSV,3,1,11,07,64,090,44
,30,59,170,43,05,53,294,39,02,33,235,36*7C
$GPGSV,3,2,11,09,31,081,43,49,30,173,34,13,21,258,34,06,1
2,194,31*73
$GPGSV,3,3,11,16,09,021,25,23,06,083,26,29,05,303,16*42
$GPRMC,145241.000,A,5212.0904,N
,00005.9613,E,0.00,224.93,181118,,,D*63
$GPVTG,224.93,T,,M,0.00,N,0.01,K,D*37
$PMTKLOG,0,1,a,31,15,0,0,1,0,0*11
$PMTK001,183,
3*3A
$PMTK869,2,1*36

$GPGGA,145242.000,5212.0904,N,0000
5.9613,E,2,10,0.81,9.0,M,47.0,M,0000,0000*68
$GPGSA,A,3,06,07,05,29,09,23,30,02,13,16,,,1.36,
0.81,1.09*04
$GPRMC,145242.000,A,5212.0904,N,00005.9613,E,0.00,65.70,181118,,,D*5A
$GPVTG,65.70,T,,M,0.00,N
,0.00,K,D*0C
$PMTKLOG,0,1,a,31,15,0,0,1,0,0*11
$PMTK001,183,3*3A
$PMTK869,2,1*36

$GPGGA,145243.000,5212.09
04,N,00005.9613,E,2,10,0.81,9.0,M,47.0,M,0000,0000*69
$GPGSA,A,3,06,07,05,29,09,23,30,02,13,16,,,1.3
6,0.81,1.09*04
$GPRMC,145243.000,A,5212.0904,N,00005.9613,E,0.00,333.77,181118,,,D*6C
$GPVTG,33
3.77,T,,M,0.00,N,0.00,K,D*3B
$PMTKLOG,0,1,a,31,15,0,0,1,0,0*11
$PMTK001,183,3*3A
$PMTK869,2,1*36

$GPGGA,145
244.000,5212.0904,N,00005.9613,E,2,10,0.81,9.0,M,47.0,M,0000,0000*6E
$GPGSA,A,3,06,07,05,29,09,23,30,02,
13,16,,,1.36,0.81,1.09*04
$GPRMC,145244.000,A,5212.0904,N,00005.9613,E,0.00,197.38,181118,,,D*6C
$GPVTG
,197.38,T,,M,0.00,N,0.01,K,D*3D
$PMTKLOG,0,1,a,31,15,0,0,1,0,0*11
$PMTK001,183,3*3A
$PMTK869,2,1*36

$GPGGA,145245.000,5212.0904,N,00005.9
613,E,2,10,0.81,9.0,M,47.0,M,0000,0000*6F
$GPGSA,A,3,06,07,05,29,09,23,30,02,13,16,,,1.36,0.81,1.09*04
$GPR
MC,145245.000,A,5212.0904,N,00005.9613,E,0.00,298.59,181118,,,D*66
$GPVTG,298.59,T,,M,0.00,N,0.01,K,D*36
$P
MTKLOG,0,1,a,31,15,0,0,1,0,0*11
$PMTK001,183,3*3A
$PMTK869,2,1*36

$GPGGA,145246.000,5212.0904,N,00005.9613,E,2,10,0.81,9.0,M,47.0,M,0000,0000*6C

$GPGSA,A,3,06,07,05,29,09,23,30,02,13,16,,,1.36,0.81,1.08*05
$GPGSV,3,1,11,07,64,089,44,30,59,170,43,05
,53,294,39,02,33,235,36*74
$GPGSV,3,2,11,09,31,081,43,49,30,173,34,13,21,258,34,06,11,194,31*70
$GPGSV,3,3,11,16,09
,021,25,23,06,083,26,29,05,303,16*42
$GPRMC,145246.000,A,5212.0904,N,00005.9613,E,0.01,269.40,181118,,,D*62
$GPVTG
,269.40,T,,M,0.01,N,0.02,K,D*32
$PMTKLOG,0,1,a,31,15,0,0,1,0,0*11
$PMTK001,183,3*3A
$PMTK86
9,2,1*36

$GPGGA,145247.000,5212.0904,N,00005.9613,E,2,10,0.81,9.0,M,47.0,M,0000,0000*6D
$GPGS
A,A,3,06,07,05,29,09,23,30,02,13,16,,,1.36,0.81,1.09*04
$GPRMC,145247.000,A,5212.0904,N,00005.9613,E,0.0
1,270.48,181118,,,D*63
$GPVTG,270.48,T,,M,0.01,N,0.01,K,D*31
$PMTKLOG,0,1,a,31,15,0,0,1,0,0*11
$PMTK001,18
3,3*3A
$PMTK869,2,1*36

$GPGGA,145248.000,5212.0904,N,00005.9613,E,2,10,0.81,9.0,M,47.0,M,0000,0000*62
$GPGSA,A,3,06,07,05,2
9,09,23,30,02,13,16,,,1.36,0.81,1.09*04
$GPRMC,145248.000,A,5212.0904,N,00005.9613,E,0.01,284.30,1811
18,,,D*68
$GPVTG,284.30,T,,M,0.01,N,0.02,K,D*36
$PMTKLOG,0,1,a,31,15,0,0,1,0,0*11
$PMTK001,183,3*3A
$PMTK869
,2,1*36

$GPGGA,145249.000,5212.0904,N,00005.9613,E,2,10,0.81,9.0
,M,47.0,M,0000,0000*63
$GPGSA,A,3,06,07,05,29,09,23,30,02,13,16,,,1.36,0.81,1.09*04
$GPRMC,145249.000,A
,5212.0904,N,00005.9613,E,0.00,187.07,181118,,,D*6C
$GPVTG,187.07,T,,M,0.00,N,0.01,K,D*30
$PMTKLOG,0,1,a,31,15,
0,0,1,0,0*11
$PMTK001,183,3*3A
$PMTK869,2,1*36

$GPGGA,145250.000,5212.0904,N,00005.
9613,E,2,10,0.81,9.0,M,47.0,M,0000,0000*6B
$GPGSA,A,3,06,07,05,29,09,23,30,02,13,16,,,1.35,0.81,1.08*06
$GPRMC,
145250.000,A,5212.0904,N,00005.9613,E,0.00,88.73,181118,,,D*59
$GPVTG,88.73,T,,M,0.00,N,0.01,K,D*0D
$PMTKLOG,0
,1,a,31,15,0,0,1,0,0*11
$PMTK001,183,3*3A
$PMTK869,2,1*36

$GPGGA,145251.000,5212.0904,N,00005.9613,E,2,10,0.81,9.0,M,47.0,M,0000,0000*6A
$GPGSA,A,3,06,07,05,29,09,23
,30,02,13,16,,,1.36,0.81,1.08*05
$GPGSV,3,1,11,07,64,089,44,30,59,170,43,05,53,294,39,02,33,235,
36*74
$GPGSV,3,2,11,09,31,081,43,49,30,173,34,13,21,258,34,06,11,194,31*70
$GPGSV,3,3,11,16,09,021,24,23,06,083
,24,29,05,303,16*41
$GPRMC,145251.000,A,5212.0904,N,00005.9613,E,0.01,104.46,181118,,,D*6A
$GPV
TG,104.46,T,,M,0.01,N,0.01,K,D*3F
$PMTKLOG,0,1,a,31,15,0,0,1,0,0*11
$PMTK001,183,3*3A
$PMTK869,2,1*36


$GPGGA
,145252.000,5212.0904,N,00005.9613,E,2,10,0.81,9.0,M,47.0,M,0000,0000*69
$GPGSA,A,3,06,07,05
,29,09,23,30,02,13,16,,,1.36,0.81,1.08*05
$GPRMC,145252.000,A,5212.0904,N,00005.9613,E,0.01,90.43,181118
,,,D*50
$GPVTG,90.43,T,,M,0.01,N,0.01,K,D*06
$PMTKLOG,0,1,a,31,15,0,0,1,0,0*11
$PMTK001,183,3*3A
$PMTK869,2,1*36


$GPGGA,145253.000,5
