243,32,11,46,151,28,17,46,294,23,14,32,053,*7D
$GPGSV,2,2,07,19,24,315,38,44,06,109,,23,,,32*72
$GPRMC,092854.000,A,5212.2419,N,00007.0341,E,0.46,249.49,
191118,,,A*66
$GPVTG,249.49,T,,M,0.46,N,0.85,K,A*3
0

$PMTKLOG,0,1,a
,31,15,0,0,1,0,0*11
$PMTK001,183,3*3A
$PMTK869,2,1*36

$GPGGA,092855.000,5212.2467,N,00007.0429,E,1,05,2.73,9.2,M,47.0,M,,*6F
$GPGSA,A,3,17,11,19,03,23,
,,,,,,,2.88,2.73,0.91*02
$GPRMC,092855.000,A,5212.2467,N,00007.0429,E,0.04,331.82,191118,,,A*68
$GPVTG,331.8
2,T,,M,0.04,N,0.07,K,A*35

$PMTKLOG,0,1,a,31,15,0,0,1,0,0*1
1
$PMTK001,183,3*3A
$PMTK869,2,1*36

$GPGGA,092856.000,5212.2480,N,00007.0454,E,1,05,2.73,9.8,M,47.0,M,,*65
$GPGSA,A,3,
17,11,19,03,23,,,,,,,,2.88,2.73,0.91*02
$GPRMC,092856.000,A,5212.2480,N,00007.0454,E,0.12,51.97,19111
8,,,A*5E
$GPVTG,51.97,T,,M,0.12,N,0.22,K,A*04

$PMTKLOG,0,1,a,31,15,0,0,1,0,0*11
$PMTK001,183,3*3A

$PMTK869,2,1*36

$GPGGA,092857.000,5212.2481,N,00007.0455,E,1,05,2.73,9.5,M,47.0,M,,*69
$GPG
SA,A,3,17,11,19,03,23,,,,,,,,2.88,2.73,0.91*02
$GPRMC,092857.000,A,5212.2481,N,00007.0455,E,0.12,13.24,191
118,,,A*51
$GPVTG,13.24,T,,M,0.12,N,0.22,K,A*0A

$PMTKLOG,0,1,a,31,
15,0,0,1,0,0*11
$PMTK001,183,3*3A
$PMTK869,2,1*36

$GPGGA,092858.000,5212.2480,N,00007.0451,E,1,05,2.87,9.1,M,47.0,M,,*6C
$GPG
SA,A,3,17,11,19,03,23,,,,,,,,3.63,2.87,2.22*07
$GPRMC,092858.000,A,5212.2480,N,00007.0451,E,0.25,343.90,1
91118,,,A*66
$GPVTG,343.90,T,,M,0.25,N,0.47,K,A*34

$PMTKLOG,0,1,a,31,15,0,0,1,0,0*11
$PMTK001,183,3*3A
$PMTK869,2,1*36

$GPGGA,092859.000,5212.2480,N,00007.0450,E,1,05,2.73,9.1,M,
47.0,M,,*67
$GPGSA,A,3,17,11,19,03,23,,,,,,,,2.88,2.73,0.91*02
$GPGSV,2,1,07,03,75,243,32,11,46,151,27,1
7,46,294,26,14,32,053,*77
$GPGSV,2,2,07,19,25,315,37,23,23,184,31,44,06,109,*43
$GPRMC,092859.000,A,
5212.2480,N,00007.0450,E,0.05,194.07,191118,,,A*62
$GPVTG,194.07,T,,M,0.05,N,0.09,K,A*3A

$PMTKLOG,0,1,a,31,15,0,0,1,0,0*11
$PMTK001,183,3*3A
$PMTK869,2,1*36


$GPGGA,092900.000,5212.2479,N,00007.0448,E,1,05,2.73,8.9,M,47.0,M,,*6C
$GP
GSA,A,3,17,11,19,03,23,,,,,,,,2.88,2.73,0.91*02
$GPRMC,092900.000,A,5212.2479,N,00007.0448,E,0.10,183.05,
191118,,,A*60
$GPVTG,183.05,T,,M,0.10,N,0.18,K,A*3A

$PMTKLOG,0,1,a,31,15,0,0,1,0
,0*11
$PMTK001,183,3*3A
$PMTK869,2,1*36

$GPGGA,092901.000,5212.2479,N,00007.0448,E,1,05,2.73,8.6,M,
47.0,M,,*62
$GPGSA,A,3,17,11,19,03,23,,,,,,,,2.88,2.73,0.91*02
$GPRMC,092901.000,A,5212.2479,N,00007.044
8,E,0.04,7.09,191118,,,A*65
$GPVTG,7.09,T,,M,0.04,N,0.08,K,A*3F

$PMTKLOG,0,1,a,31,15,
0,0,1,0,0*11
$PMTK001,183,3*3A
$PMTK869,2,1*36

$GPGGA,092902.000,5212.2479,N,00007.0448,E,1,05,2.87,8.2,M,47.0,M,,*6E
$GPGSA
,A,3,17,11,19,03,23,,,,,,,,3.63,2.87,2.23*06
$GPRMC,092902.000,A,5212.2479,N,00007.0448,E,0.11,57.67,1911
18,,,A*5F
$GPVTG,57.67,T,,M,0.11,N,0.20,K,A*0C

$PMTKLOG,0,1
,a,31,15,0,0,1,0,0*11
$PMTK001,183,3*3A
$PMTK869,2,1*36

$GPGGA,092903.000,5212.2480,N,00007.0450,E,
1,05,2.73,7.7,M,47.0,M,,*61
$GPGSA,A,3,17,11,19,03,23,,,,,,,,2.88,2.73,0.91*02
$GPRMC,092903.000,A,5212.2480
,N,00007.0450,E,0.18,27.29,191118,,,A*55
$GPVTG,27.29,T,,M,0.18,N,0.33,K,A*0A

$PMTKLO
G,0,1,a,31,15,0,0,1,0,0*11
$PMTK001,183,3*3A
$PMTK869,2,1*36

$GPGGA,092904.000,5212.2480,N,00007.0446,E,1,05,2.73,7.3,M,47.0,M
,,*65
$GPGSA,A,3,17,11,19,03,23,,,,,,,,2.88,2.73,0.91*02
$GPGSV,2,1,07,03,75,243,33,11,46,151,28,17,
46,294,30,14,32,053,*7E
$GPGSV,2,2,07,19,25,315,37,23,23,184,30,34,,,*7B
$GPRMC,092904.000,A,5212.2480,N
,00007.0446,E,0.20,353.73,191118,,,A*61
$GPVTG,353.73,T,,M,0.20,N,0.36,K,A*3B

$PMTKLOG,0
,1,a,31,15,0,0,1,0,0*11
$PMTK001,183,3*3A
$PMTK869,2,1*36

$GPGGA,092905.000,5212.2482,N,00007.0453,E,1,05,2.87,6.8,M,47.0,M
,,*63
$GPGSA,A,3,17,11,19,03,23,,,,,,,,3.63,2.87,2.23*06
$GPRMC,092905.000,A,5212.2482,N,00007.0453,
E,0.09,68.02,191118,,,A*50
$GPVTG,68.02,T,,M,0.09,N,0.17,K,A*0E

$PMTKLOG,0,1,a,31,15,0,0,
1,0,0*11
$PMTK001,183,3*3A
$PMTK869,2,1*36

$GPGGA,092906.000,5212.2485,N,00007.0461,E,1,05,2.73,6.2
,M,47.0,M,,*67
$GPGSA,A,3,17,11,19,03,23,,,,,,,,2.88,2.73,0.91*02
$GPRMC,092906.000,A,5212.2485,N,00007.
0461,E,0.26,61.96,191118,,,A*5C
$GPVTG,61.96,T,,M,0.26,N,0.49,K,A*0C

$PMTKLOG,0,1,a,31,1
5,0,0,1,0,0*11
$PMTK001,183,3*3A
$PMTK869,2,1*36

$GPGGA,092907.000,5212.2485,N,00007.0461,E,1,05,2.73,6.0,M,47.0,M,,*64
$GPG
SA,A,3,17,11,19,03,23,,,,,,,,2.88,2.73,0.91*02
$GPRMC,092907.000,A,5212.2485,N,00007.0461,E,0.17,67.81
,191118,,,A*5F
$GPVTG,67.81,T,,M,0.17,N,0.32,K,A*02

$PMTKLOG,0,1,a,31,
15,0,0,1,0,0*11
$PMTK001,183,3*3A
$PMTK869,2,1*36

$GPGGA,092908.000,5212.2486,N,00007.0465,E,1,05,2.73,5.7,M,47.0,M,,*68
$GPGSA,A,3,
17,11,19,03,23,,,,,,,,2.88,2.73,0.91*02
$GPRMC,092908.000,A,5212.2486,N,00007.0465,E,0.18,55.50,19111
8,,,A*55
$GPVTG,55.50,T,,M,0.18,N,0.34,K,A*06

$PMTKLOG,0,1,a,3
1,15,0,0,1,0,0*11
$PMTK001,183,3*3A
$PMTK869,2,1*36

$GPGGA,092909.000,5212.2487,N,00007.0465,E,1,05,2.73,5.4,M,47.0,M,,*
6B
$GPGSA,A,3,17,11,19,03,23,,,,,,,,2.88,2.73,0.91*02
$GPGSV,2,1,07,03,75,243,33,11,46,151,29,17,46,294,30,1
4,32,053,*7F
$GPGSV,2,2,07,19,25,315,36,23,23,184,28,35,,,*72
$GPRMC,092909.000,A,5212.2487,N,00007.
0465,E,0.19,44.65,191118,,,A*52
$GPVTG,44.65,T,,M,0.19,N,0.36,K,A*03

$PMTKLOG,0,1,a,31,1
5,0,0,1,0,0*11
$PMTK001,183,3*3A
$PMTK869,2,1*36

$GPGGA,092910.000,5212.2487,N,00007.0470,E,1,05,2.73,5.1,M,47.0,M,,*62
$GPGSA,A,
3,17,11,19,03,23,,,,,,,,2.88,2.73,0.91*02
$GPRMC,092910.000,A,5212.2487,N,00007.0470,E,0.07,58.98,1911
18,,,A*5E
$GPVTG,58.98,T,,M,0.07,N,0.14,K,A*03

$PMTKLOG,0,1,a,31,15,0,0,1,0,0*
11
$PMTK001,183,3*3A
$PMTK869,2,1*36

$GPGGA,092911.000,5212.2487,N,00007.0470,E,1,05,2.73,5.1,M,47.0,M,,*63
$GPGSA,A,3,17
,11,19,03,23,,,,,,,,2.88,2.73,0.91*02
$GPRMC,092911.000,A,5212.2487,N,00007.0470,E,0.09,123.36,191118,,,A*68

$GPVTG,123.36,T,,M,0.09,N,0.16,K,A*36

$PMTKLOG,0,1,a,31,15,
0,0,1,0,0*11
$PMTK001,183,3*3A
$PMTK869,2,1*36

$GPGGA,092912.000,5212.2487,N,00007.0470,E,1,05,2.73,5.1,M,47.0,M,,*
60
$GPGSA,A,3,17,11,19,03,23,,,,,,,,2.88,2.73,0.91*02
$GPRMC,092912.000,A,5212.2487,N,00007.0470,E,0.11,201.82,191118,,,A*6E
$GPVTG,20
1.82,T,,M,0.11,N,0.20,K,A*36

$PMTKLOG,0,1,a
,31,15,0,0,1,0,0*11
$PMTK001,183,3*3A
$PMTK869,2,1*36

$GPGGA,092913.000,5212.2487,N,00007.0470,E,1,05,2.73,5.1,M,47.0,M,,*61
$
GPGSA,A,3,17,11,19,03,23,,,,,,,,2.88,2.73,0.91*02
$GPRMC,092913.000,A,5212.2487,N,00007.0470,E,0.15,173.
77,191118,,,A*67
$GPVTG,173.77,T,,M,0.15,N,0.28,K,A*36

$PMTKLOG,0
,1,a,31,15,0,0,1,0,0*11
$PMTK001,183,3*3A
$PMTK869,2,1*36

$GPGGA,092914.000,5212.2486,N,00007.0470,E,1,05,2.73,5.1,M,47.0,M,,*67
$GPGSA,A,3,17,11,19,03,23,,,,
,,,,2.88,2.73,0.91*02
$GPGSV,2,1,07,03,75,243,34,11,46,151,30,17,46,294,30,14,32,053,*70
$GPGSV,2,2,07,
19,25,315,36,23,23,184,27,36,,,*7E
$GPRMC,092914.000,A,5212.2486,N,00007.0470,E,0.28,196.58,191118,,
,A*69
$GPVTG,196.58,T,,M,0.28,N,0.53,K,A*32

$PMTKLOG,0,1,a,31,15
,0,0,1,0,0*11
$PMTK001,183,3*3A
$PMTK869,2,1*36

$GPGGA,092915.000,5212.2485,N,00007.0470
,E,1,05,2.73,5.1,M,47.0,M,,*65
$GPGSA,A,3,17,11,19,03,23,,,,,,,,2.88,2.73,0.91*02
$GPRMC,092915.000
,A,5212.2485,N,00007.0470,E,0.18,202.84,191118,,,A*67
$GPVTG,202.84,T,,M,0.18,N,0.34,K,A*3F

$PMTKLOG,0,1,a,31,15,0,0,
1,0,0*11
$PMTK001,183,3*3A
$PMTK869,2,1*36

$GPGGA,092916.000,5212.2485,N,00007.0470,E,1,05,2.73,5.1,M,47.0,M,,*66

$GPGSA,A,3,17,11,19,03,23,,,,,,,,2.88,2.73,0.91*02
$GPRMC,092916.000,A,5212.2485,N,00007.0470,E,0.18,152.98,
191118,,,A*6F
$GPVTG,152.98,T,,M,0.18,N,0.34,K,A*34

$PMTKLOG,0,1,a,3
1,15,0,0,1,0,0*11
$PMTK001,183,3*3A
$PMTK869,2,1*36

$GPGGA,092917.000,5212.2485,N,00007.047
0,E,1,05,2.73,5.0,M,47.0,M,,*66
$GPGSA,A,3,17,11,19,03,23,,,,,,,,2.88,2.73,0.91*02
$GPRMC,092917.000,A,
5212.2485,N,00007.0470,E,0.16,163.35,191118,,,A*65
$GPVTG,163.35,T,,M,0.16,N,0.30,K,A*3B

$PMTKLOG,0,1,a,3
1,15,0,0,1,0,0*11
$PMTK001,183,3*3A
$PMTK869,2,1*36

$GPGGA,092918.000,5212.2484,N
,00007.0471,E,1,05,2.73,5.0,M,47.0,M,,*69
$GPGSA,A,3,17,11,19,03,23,,,,,,,,2.88,2.73,0.91*02
$GPRMC,092
918.000,A,5212.2484,N,00007.0471,E,0.06,92.68,191118,,,A*5C
$GPVTG,92.68,T,,M,0.06,N,0.10,K,A*0F

$PMTKLOG,0,
1,a,31,15,0,0,1,0,0*11
$PMTK001,183,3*3A
$PMTK869,2,1*36

$GP
GGA,092919.000,5212.2484,N,00007.0471,E,1,05,2.73,5.0,M,47.0,M,,*68
$GPGSA,A,3,17,11,19,03,23,,,,,,,
,2.88,2.73,0.91*02
$GPGSV,2,1,07,03,75,243,35,11,46,151,30,17,46,294,31,14,32,053,*70
$GPGSV,2,2,07,19,
25,315,36,23,23,184,25,36,,,*7C
$GPRMC,092919.000,A,5212.2484,N,00007.0471,E,0.08,350.58,191118,,,A*6D

$GPVTG,350.58,T,,M,0.08,N,0.15,K,A*3A

$PMTKLOG,
0,1,a,31,15,0,0,1,0,0*11
$PMTK001,183,3*3A
$PMTK869,2,1*36

$GPGGA,092920.000,5212.24
84,N,00007.0471,E,1,05,2.87,5.0,M,47.0,M,,*69
$GPGSA,A,3,17,11,19,03,23,,,,,,,,3.63,2.87,2.23*06
$GPRMC
,092920.000,A,5212.2484,N,00007.0471,E,0.03,344.16,191118,,,A*63
$GPVTG,344.16,T,,M,0.03,N,0.06,K,A*3C

$PMTKLOG,0,1,a,31,15,0,0,1,0,0*1
1
$PMTK001,183,3*3A
$PMTK869,2,1*36

$GPGGA,092921.000,5212.2484,N,00007.0471,E,1,05,2.73,5.0,M,47.0,
M,,*63
$GPGSA,A,3,17,11,19,03,23,,,,,,,,2.88,2.73,0.91*02
$GPRMC,092921.000,A,5212.2484,N,00007.0471,E,
0.07,22.82,191118,,,A*58
$GPVTG,22.82,T,,M,0.07,N,0.13,K,A*02

$PMTKLOG,0,1,
a,31,15,0,0,1,0,0*11
$PMTK001,183,3*3A
$PMTK869,2,1*36

$GPGGA,092922.000,5212.248
5,N,00007.0471,E,1,05,2.73,5.0,M,47.0,M,,*61
$GPGSA,A,3,17,11,19,03,23,,,,,,,,2.88,2.73,0.91*02
$GP
RMC,092922.000,A,5212.2485,N,00007.0471,E,0.20,335.85,191118,,,A*6D
$GPVTG,335.85,T,,M,0.20,N,0.38,K,A*3C

$PMTKLOG,0,1,a,31,15
,0,0,1,0,0*11
$PMTK001,183,3*3A
$PMTK869,2,1*36

$GPGGA,092923.000,5212.2485,N,00007.0471,E,1
,05,2.73,5.0,M,47.0,M,,*60
$GPGSA,A,3,17,11,19,03,23,,,,,,,,2.88,2.73,0.91*02
$GPRMC,092923
.000,A,5212.2485,N,00007.0471,E,0.18,2.32,191118,,,A*6C
$GPVTG,2.32,T,,M,0.18,N,0.34,K,A*30

$PMTKLOG,0,1,a,31,15,0,0
,1,0,0*11
$PMTK001,183,3*3A
$PMTK869,2,1*36

$GPGGA,092924.000,5212.2486,N,00007.0471
,E,1,05,2.87,5.0,M,47.0,M,,*6F
$GPGSA,A,3,17,11,19,03,23,,,,,,,,3.64,2.87,2.24*06
$GPGSV,2,1,07,03,75,2
43,35,11,46,151,30,17,46,294,32,14,32,053,*73
$GPGSV,2,2,07,19,25,315,36,23,23,184,21,38,,,31*74
$GP
RMC,092924.000,A,5212.2486,N,00007.0471,E,0.20,37.15,191118,,,A*50
$GPVTG,37.15,T,,M,0.20,N,0.37,K,A*0B

$PMTKLOG,0,1,a,31,15,0,0,1,
0,0*11
$PMTK001,183,3*3A
$PMTK869,2,1*36

$GPGGA,092925.000,5212.2486,N,00007.0472
,E,1,05,2.73,5.0,M,47.0,M,,*66
$GPGSA,A,3,17,11,19,03,23,,,,,,,,2.88,2.73,0.91*02
$GPRMC,092925.000,A,5
212.2486,N,00007.0472,E,0.16,34.85,191118,,,A*5D
$GPVTG,34.85,T,,M,0.16,N,0.30,K,A*03

$PMTKLOG,0,1,a,31,15,0,
0,1,0,0*11
$PMTK001,183,3*3A
$PMTK869,2,1*36

$GPGGA,092926.000,5212.2487,N,00007.0472,E,1,05,2.73,5.0,M,47.0,
M,,*64
$GPGSA,A,3,17,11,19,03,23,,,,,,,,2.88,2.73,0.91*02
$GPRMC,092926.000,A,5212.2487,N,00007.047
2,E,0.14,32.02,191118,,,A*54
$GPVTG,32.02,T,,M,0.14,N,0.25,K,A*0C

$PMTKLOG,0,1,a,31
,15,0,0,1,0,0*11
$PMTK001,183,3*3A
$PMTK869,2,1*36

$GPGGA,092927.000,5212.2487,N,00007.0473,E,1
,05,2.73,5.0,M,47.0,M,,*64
$GPGSA,A,3,17,11,19,03,23,,,,,,,,2.88,2.73,0.91*02
$GPRMC,092927.000,A,5212.
2487,N,00007.0473,E,0.30,16.97,191118,,,A*58
$GPVTG,16.97,T,,M,0.30,N,0.56,K,A*04

$PMTKLOG,0,1,a,31,15,0
,0,1,0,0*11
$PMTK001,183,3*3A
$PMTK869,2,1*36

$GPGGA,092928.000,5212.2488,N,00007.0473,E,1,05
,2.73,5.0,M,47.0,M,,*64
$GPGSA,A,3,17,11,19,03,23,,,,,,,,2.88,2.73,0.91*02
$GPRMC,092928.000,A,5212
.2488,N,00007.0473,E,0.37,27.34,191118,,,A*54
$GPVTG,27.34,T,,M,0.37,N,0.69,K,A*04

$PMTKLOG,0,1,a,31,15,0,0
,1,0,0*11
$PMTK001,183,3*3A
$PMTK869,2,1*36

$GPGGA,092929.000,5212.2489,N,00007.0474,E,1,05,2.73
,4.9,M,47.0,M,,*6B
$GPGSA,A,3,17,11,19,03,23,,,,,,,,2.88,2.73,0.91*02
$GPGSV,2,1,07,03,75,243,35,11
,46,151,31,17,46,294,33,14,32,053,*73
$GPGSV,2,2,07,19,25,315,36,23,23,184,18,38,,,31*7E
$GPRMC,092
929.000,A,5212.2489,N,00007.0474,E,0.37,42.53,191118,,,A*51
$GPVTG,42.53,T,,M,0.37,N,0.69,K,A*06

$PMTKLOG,0,1,a,31,15,0,
0,1,0,0*11
$PMTK001,183,3*3A
$PMTK869,2,1*36

$GPGGA,09293
0.000,5212.2490,N,00007.0476,E,1,05,2.73,4.9,M,47.0,M,,*69
$GPGSA,A,3,17,11,19,03,23,,,,,,,,2.88,2.73,0.
91*02
$GPRMC,092930.000,A,5212.2490,N,00007.0476,E,0.56,48.48,191118,,,A*54
$GPVTG,48.48,T,,M,0.56,
N,1.03,K,A*0C

$PMTKLOG,0,1,a,31,15,0,0,1,0,0*11
$
PMTK001,183,3*3A
$PMTK869,2,1*36

$GPGGA,092931.000,5212.2491,N,00007.0478,E,1,05,2.73,4.9,M,47.0,M,,*67

$GPGSA,A,3,17,11,19,03,23,,,,,,,,2.88,2.73,0.91*02
$GPRMC,092931.000,A,5212.2491,N,00007.0478,E,0.55,50
.37,191118,,,A*58
$GPVTG,50.37,T,,M,0.55,N,1.02,K,A*0F

$PMTKLOG,0,1,a,31,15,0
,0,1,0,0*11
$PMTK001,183,3*3A
$PMTK869,2,1*36

$GPGGA,092932
.000,5212.2492,N,00007.0480,E,1,05,2.73,4.9,M,47.0,M,,*60
$GPGSA,A,3,17,11,19,03,23,,,,,,,,2.88,2.73
,0.91*02
$GPRMC,092932.000,A,5212.2492,N,00007.0480,E,0.62,48.84,191118,,,A*5A
$GPVTG,48.84,T,,M,0.62,N
,1.16,K,A*0F

$PMTKLOG,0,1,a,31,15,0,
0,1,0,0*11
$PMTK001,183,3*3A
$PMTK869,2,1*36

$GPGGA,092933.000,5212.2496,N,00007.0492,E,1,05,2.73,4.7,M,47.0,M,,*68
$GPGSA,A,3,17,11,19,03,23,,,,,,,,
2.88,2.73,0.91*02
$GPRMC,092933.000,A,5212.2496,N,00007.0492,E,0.68,52.76,191118,,,A*50
$GPVTG,52.7
6,T,,M,0.68,N,1.25,K,A*03

$PMTKLOG,0,
1,a,31,15,0,0,1,0,0*11
$PMTK001,183,3*3A
$PMTK869,2,1*36

$GPGGA,092934.000,5212.2500,N,00007.0503,E,1,05,2.73,4.6,M,47.0,M,,*69
$GPG
SA,A,3,17,11,19,03,23,,,,,,,,2.88,2.73,0.91*02
$GPGSV,2,1,07,03,75,243,35,11,46,151,31,17,46,293,34,14,3
2,053,*73
$GPGSV,2,2,07,19,25,315,35,23,23,184,17,41,,,*7E
$GPRMC,092934.000,A,5212.2500,N,00007.0503,E,0.6
8,52.46,191118,,,A*53
$GPVTG,52.46,T,,M,0.68,N,1.25,K,A*00

$PMTKLOG,0,1,a,31,15,0
,0,1,0,0*11
$PMTK001,183,3*3A
$PMTK869,2,1*36

$GPGGA,092935.000,5212.2503,N,00007.0508,E,1,05,2.73,4.3,M,47.0
,M,,*65
$GPGSA,A,3,17,11,19,03,23,,,,,,,,2.88,2.73,0.91*02
$GPRMC,092935.000,A,5212.2503,N,00007.0508,E
,0.59,35.07,191118,,,A*5C
$GPVTG,35.07,T,,M,0.59,N,1.10,K,A*00

$PMTKLOG,0,1,a,31,
15,0,0,1,0,0*11
$PMTK001,183,3*3A
$PMTK869,2,1*36

$GPGGA,092936.000,5212.2507,N,00007.0522,E,1,05,2.73,4.2,M,47.
0,M,,*6B
$GPGSA,A,3,17,11,19,03,23,,,,,,,,2.88,2.73,0.91*02
$GPRMC,092936.000,A,5212.2507,N,00007.0522,E,0.
71,49.68,191118,,,A*5B
$GPVTG,49.68,T,,M,0.71,N,1.32,K,A*08

$PMTKLOG,
0,1,a,31,15,0,0,1,0,0*11
$PMTK001,183,3*3A
$PMTK869,2,1*36

$GPGGA,092937.000,5212.2510,N,00007.0531,E,1,05,2.73,4.1,M,47.0,M,,*6D
$GPGSA,A,3,17,11,19,03,23,,,,,,
,,2.88,2.73,0.91*02
$GPRMC,092937.000,A,5212.2510,N,00007.0531,E,0.74,53.06,191118,,,A*58
$GPVTG
,53.06,T,,M,0.74,N,1.38,K,A*04

$PMTKLOG,
0,1,a,31,15,0,0,1,0,0*11
$PMTK001,183,3*3A
$PMTK869,2,1*36

$GPGGA,092938.000,5212.2514,N,00007.
0540,E,1,05,2.73,4.0,M,47.0,M,,*61
$GPGSA,A,3,17,11,19,03,23,,,,,,,,2.88,2.73,0.91*02
$GPRMC,092938
.000,A,5212.2514,N,00007.0540,E,0.79,53.45,191118,,,A*5F
$GPVTG,53.45,T,,M,0.79,N,1.47,K,A*06

$PMTKLOG,0,1,a,31,15
,0,0,1,0,0*11
$PMTK001,183,3*3A
$PMTK869,2,1*36

$GPGGA,092939.000,5212.2518,N,00007.0549,E,1,05,2.73,3.9,M,47.0,M,,
*6B
$GPGSA,A,3,17,11,19,03,23,,,,,,,,2.88,2.73,0.91*02
$GPGSV,2,1,07,03,75,243,35,11,46,151,31,17,46,29
3,34,14,32,053,*73
$GPGSV,2,2,07,19,25,315,35,23,24,184,19,41,,,*77
$GPRMC,092939.000,A,5212.251
8,N,00007.0549,E,0.78,50.61,191118,,,A*5F
$GPVTG,50.61,T,,M,0.78,N,1.44,K,A*01

$PMTKLOG,0,1,a,31,15,0,0,
1,0,0*11
$PMTK001,183,3*3A
$PMTK869,2,1*36

$GPGGA,092940.000,5212.2521,N,00007.0561,E,1,0
5,2.73,3.8,M,47.0,M,,*64
$GPGSA,A,3,17,11,19,03,23,,,,,,,,2.88,2.73,0.91*02
$GPRMC,092940.000,A,521
2.2521,N,00007.0561,E,0.78,58.67,191118,,,A*5F
$GPVTG,58.67,T,,M,0.78,N,1.44,K,A*0F

$PMTKLOG,0,1,a,31,15,0,0,1,0,0*11
$PMTK001,183,3*3A
$PMT
K869,2,1*36

$GPGGA,092941.000,5212.2522,N,00007.0566,E,1,05,2.73,3.6,M,47.0,M,,*6F
$GP
GSA,A,3,17,11,19,03,23,,,,,,,,2.88,2.73,0.91*02
$GPRMC,092941.000,A,5212.2522,N,00007.0566,E,0.68,56
.20,191118,,,A*56
$GPVTG,56.20,T,,M,0.68,N,1.27,K,A*06

$PMTKLOG,0,1,a,31,15,0,0
,1,0,0*11
$PMTK001,183,3*3A
$PMTK869,2,1*36

$GPGGA,092942.000,5212.2523,N,00007.0571,E,1,05,
2.73,3.4,M,47.0,M,,*69
$GPGSA,A,3,17,11,19,03,23,,,,,,,,2.88,2.73,0.91*02
$GPRMC,092942.000,A,5
212.2523,N,00007.0571,E,0.68,58.22,191118,,,A*5E
$GPVTG,58.22,T,,M,0.68,N,1.26,K,A*0B

$PMTKL
OG,0,1,a,31,15,0,0,1,0,0*11
$PMTK001,183,3*3A
$PMTK869,2,1*36

$GPGGA,092943.000,5212.2523,N,00007.0
574,E,1,05,2.73,3.3,M,47.0,M,,*6A
$GPGSA,A,3,17,11,19,03,23,,,,,,,,2.88,2.73,0.91*02
$GPRMC,092943.000,A,52
12.2523,N,00007.0574,E,0.59,53.00,191118,,,A*53
$GPVTG,53.00,T,,M,0.59,N,1.10,K,A*07

$PMTKLOG,0,1,a,31,
15,0,0,1,0,0*11
$PMTK001,183,3*3A
$PMTK869,2,1*36

$GPGGA,092944.000,5212.25
27,N,00007.0582,E,1,05,2.73,3.1,M,47.0,M,,*62
$GPGSA,A,3,17,11,19,03,23,,,,,,,,2.88,2.73,0.91*02
$GPGSV
,2,1,07,03,75,243,35,11,46,151,31,17,46,293,34,14,32,053,*73
$GPGSV,2,2,07,19,25,315,35,23,24,184,21,43,
,,*7E
$GPRMC,092944.000,A,5212.2527,N,00007.0582,E,0.60,50.13,191118,,,A*52
$GPVTG,50.13,T,,M,0.60,N,1.
12,K,A*0E
$PMTKLOG,0,1,a,31,15,0,0,1,0
,0*11
$PMTK001,183,3*3A
$PMTK869,2,1*36

$GPGGA,092945.000,5212.2528,N,00007
.0587,E,1,05,2.73,3.0,M,47.0,M,,*68
$GPGSA,A,3,17,11,19,03,23,,,,,,,,2.88,2.73,0.91*02
$GPRMC,092945.00
0,A,5212.2528,N,00007.0587,E,0.52,47.88,191118,,,A*5C
$GPVTG,47.88,T,,M,0.52,N,0.97,K,A*07

$PMTKLOG,0,1,a,31,15,0,0
,1,0,0*11
$PMTK001,183,3*3A
$PMTK869,2,1*36

$GPGGA,092946.000,5212.2533,N,00007.0597,E,1,05,2.73,2.9,M,4
7.0,M,,*68
$GPGSA,A,3,17,11,19,03,23,,,,,,,,2.88,2.73,0.91*02
$GPRMC,092946.000,A,5212.2533,N,00007
.0597,E,0.64,52.31,191118,,,A*57
$GPVTG,52.31,T,,M,0.64,N,1.18,K,A*02

$PMTKLOG,0,1,a,31,15,0
,0,1,0,0*11
$PMTK001,183,3*3A
$PMTK869,2,1*36

$GPGGA,092947.000,5212.2533,N,00007.0601,E,1,05,2.73,2.8,M,47
.0,M,,*64
$GPGSA,A,3,17,11,19,03,23,,,,,,,,2.88,2.73,0.91*02
$GPRMC,092947.000,A,5212.2533,N,00007.
0601,E,0.41,54.33,191118,,,A*59
$GPVTG,54.33,T,,M,0.41,N,0.77,K,A*09

$PMTKLOG,0,1,a,31,15,0,0
,1,0,0*11
$PMTK001,183,3*3A
$PMTK869,2,1*36

$GPGGA,092948.000,5212.2536,N
,00007.0610,E,1,05,2.73,2.7,M,47.0,M,,*61
$GPGSA,A,3,17,11,19,03,23,,,,,,,,2.88,2.73,0.91*02
$GPRMC,092
948.000,A,5212.2536,N,00007.0610,E,0.51,62.27,191118,,,A*52
$GPVTG,62.27,T,,M,0.51,N,0.95,K,A*04

$PMTKLOG,0,1,a,31,15,0,0
,1,0,0*11
$PMTK001,183,3*3A
$PMTK869,2,1*36

$GPGGA,092949.000,5212.2541,N,00007.
0621,E,1,05,2.73,2.6,M,47.0,M,,*63
$GPGSA,A,3,17,11,19,03,23,,,,,,,,2.88,2.73,0.91*02
$GPGSV,2,1,07,03,
75,243,35,11,46,151,31,17,46,293,35,14,32,053,*72
$GPGSV,2,2,07,19,25,315,35,23,24,184,25,45,,,*
7C
$GPRMC,092949.000,A,5212.2541,N,00007.0621,E,0.71,52.87,191118,,,A*5A
$GPVTG,52.87,T,,M,0.71,N,1.31,
K,A*00
$PMTKLOG,0,1,a,31,15,0,
0,1,0,0*11
$PMTK001,183,3*3A
$PMTK869,2,1*36

$GPGGA,092950.000,5212.2544,N,00007.0
633,E,1,05,2.74,2.5,M,47.0,M,,*69
$GPGSA,A,3,17,11,19,03,23,,,,,,,,2.88,2.74,0.91*05
$GPRMC,092950.000,
A,5212.2544,N,00007.0633,E,0.83,62.82,191118,,,A*5F
$GPVTG,62.82,T,,M,0.83,N,1.54,K,A*08

$PMTKLOG,0,1,a,31,
15,0,0,1,0,0*11
$PMTK001,183,3*3A
$PMTK869,2,1*36

$GPGGA
,092951.000,5212.2548,N,00007.0642,E,1,05,2.74,2.5,M,47.0,M,,*62
$GPGSA,A,3,17,11,19,03,23,,,,,,,,2.8
8,2.74,0.91*05
$GPRMC,092951.000,A,5212.2548,N,00007.0642,E,0.88,50.76,191118,,,A*55
$GPVTG,50.76,T,,M,0.8
8,N,1.62,K,A*0C

$PMTKLOG,
0,1,a,31,15,0,0,1,0,0*11
$PMTK001,183,3*3A
$PMTK869,2,1*36

$GPGGA,092952.000,5212.2549,N,00007.0645,E
,1,05,2.73,2.5,M,47.0,M,,*60
$GPGSA,A,3,17,11,19,03,23,,,,,,,,2.88,2.73,0.91*02
$GPRMC,092952.000,A,521
2.2549,N,00007.0645,E,0.74,44.56,191118,,,A*54
$GPVTG,44.56,T,,M,0.74,N,1.36,K,A*09

$PMTKLOG,
0,1,a,31,15,0,0,1,0,0*11
$PMTK001,183,3*3A
$PMTK869,2,1*36

$GPGGA,092953.000,5212.2548,N,00007.0648,E,1,05,2.73,2.6,M,47.0,M,,*6E
$GPGSA,A,3,17,11,19,03
,23,,,,,,,,2.88,2.73,0.91*02
$GPRMC,092953.000,A,5212.2548,N,00007.0648,E,0.53,71.24,191118,,,A*5F
$GPV
TG,71.24,T,,M,0.53,N,0.98,K,A*0A

$PMTKLO
G,0,1,a,31,15,0,0,1,0,0*11
$PMTK001,183,3*3A
$PMTK869,2,1*36

$GPGGA,092954.000,5212.2550,N,00007.0657,E,1,05,2.73,2.6,M,47.0,M,,*6E
$GPGSA,A,3,17,11,19
,03,23,,,,,,,,2.88,2.73,0.91*02
$GPGSV,2,1,07,03,75,243,35,11,46,151,31,17,46,293,35,14,32,053,*72

$GPGSV,2,2,07,19,25,315,35,23,24,184,28,46,,,*72
$GPRMC,092954.000,A,5212.2550,N,00007.0657,E,0.66,65.41,
191118,,,A*5F
$GPVTG,65.41,T,,M,0.66,N,1.23,K,A*0B

$PMTKLO
G,0,1,a,31,15,0,0,1,0,0*11
$PMTK001,183,3*3A
$PMTK869,2,1*36

$GPGGA,092955.000,5212.2552,N,00007.0663,E,1,05,2.73,2.7,M,47.0,M,,*6B
$GPGSA,A,3,17,11,19,03,23,,
,,,,,,2.88,2.73,0.91*02
$GPRMC,092955.000,A,5212.2552,N,00007.0663,E,0.55,74.66,191118,,,A*5E
$GPVT
G,74.66,T,,M,0.55,N,1.01,K,A*0E

$PMTKLOG,0,1,a,31,15,0,0,1
,0,0*11
$PMTK001,183,3*3A
$PMTK869,2,1*36

$GPGGA,092956.000,5212.2553,N,00007.0667,E,1,05,2.73,2.8
,M,47.0,M,,*62
$GPGSA,A,3,17,11,19,03,23,,,,,,,,2.88,2.73,0.91*02
$GPRMC,092956.000,A,5212.2553,N,00007.066
7,E,0.51,94.50,191118,,,A*57
$GPVTG,94.50,T,,M,0.51,N,0.94,K,A*0C

$PMTKLOG,
0,1,a,31,15,0,0,1,0,0*11
$PMTK001,183,3*3A
$PMTK869,2,1*36

$GPGGA,092957.000,5212.2553,N,00007.0670
,E,1,05,2.73,2.8,M,47.0,M,,*65
$GPGSA,A,3,17,11,19,03,23,,,,,,,,2.88,2.73,0.91*02
$GPRMC,092957.000,A,5212.
2553,N,00007.0670,E,0.41,82.07,191118,,,A*54
$GPVTG,82.07,T,,M,0.41,N,0.75,K,A*07

$PMTKLOG,0,1,a,31,15,0,0
,1,0,0*11
$PMTK001,183,3*3A
$PMTK869,2,1*36

$GPGGA,
092958.000,5212.2555,N,00007.0675,E,1,05,2.74,2.9,M,47.0,M,,*6F
$GPGSA,A,3,17,11,19,03,23,,,,,,,,2.88,2.
74,0.91*05
$GPRMC,092958.000,A,5212.2555,N,00007.0675,E,0.37,67.19,191118,,,A*5D
$GPVTG,67.19,T,,M,0.37,N,0
.69,K,A*0F

$PMTKLOG,0,1
,a,31,15,0,0,1,0,0*11
$PMTK001,183,3*3A
$PMTK869,2,1*36

$GPGGA,092959.000
,5212.2556,N,00007.0676,E,1,05,2.74,2.9,M,47.0,M,,*6E
$GPGSA,A,3,17,11,19,03,23,,,,,,,,2.88,2.74,0.91*05

$GPGSV,2,1,07,03,75,243,35,11,46,151,32,17,46,293,34,14,32,053,*70
$GPGSV,2,2,07,19,25,315,36,23,2
4,184,30,46,,,*78
$GPRMC,092959.000,A,5212.2556,N,00007.0676,E,0.32,60.63,191118,,,A*53
$GPVTG,60.63,T,
,M,0.32,N,0.60,K,A*09

$PMTKLOG,0,1,a,31,15,0,0,1,
0,0*11
$PMTK001,183,3*3A
$PMTK869,2,1*36

$GPGGA,093000.000,5212.2556,N,00007.0678,E,1,05,2.73,2.9,M,47.0,M,,*63
$
GPGSA,A,3,17,11,19,03,23,,,,,,,,2.88,2.73,0.91*02
$GPRMC,093000.000,A,5212.2556,N,00007.0678,E,0.22,51.1
7,191118,,,A*59
$GPVTG,51.17,T,,M,0.22,N,0.41,K,A*0A

$PMTKLOG,0,1,a,31,15,0,
0,1,0,0*11
$PMTK001,183,3*3A
$PMTK869,2,1*36

$GPGGA,093001.000,5212.2557,N,00007
.0679,E,1,05,2.73,2.9,M,47.0,M,,*62
$GPGSA,A,3,17,11,19,03,23,,,,,,,,2.88,2.73,0.91*02
$GPRMC,09
3001.000,A,5212.2557,N,00007.0679,E,0.35,47.04,191118,,,A*5B
$GPVTG,47.04,T,,M,0.35,N,0.64,K,A*0E

$PMTKLOG,0,1,a,31,15
,0,0,1,0,0*11
$PMTK001,183,3*3A
$PMTK869,2,1*36

$GPGGA,093002.000,5212.2557,N,00007.
0680,E,1,05,2.73,2.9,M,47.0,M,,*67
$GPGSA,A,3,17,11,19,03,23,,,,,,,,2.88,2.73,0.91*02
$GPRMC,093002.000
,A,5212.2557,N,00007.0680,E,0.32,46.57,191118,,,A*5E
$GPVTG,46.57,T,,M,0.32,N,0.58,K,A*01

$PMTKLOG,0,1,a,31,15,
0,0,1,0,0*11
$PMTK001,183,3*3A
$PMTK869,2,1*36

$GPGGA,093003.000,5212.2558,N,00007
.0681,E,1,05,2.73,2.9,M,47.0,M,,*68
$GPGSA,A,3,17,11,19,03,23,,,,,,,,2.88,2.73,0.91*02
$GPRMC,093003.000,A,
5212.2558,N,00007.0681,E,0.39,59.70,191118,,,A*51
$GPVTG,59.70,T,,M,0.39,N,0.73,K,A*08

$PMTKLOG,0
,1,a,31,15,0,0,1,0,0*11
$PMTK001,183,3*3A
$PMTK869,2,1*36

$GPGGA,093004.000,5212.2558,N,0000
7.0682,E,1,05,2.73,2.9,M,47.0,M,,*6C
$GPGSA,A,3,17,11,19,03,23,,,,,,,,2.88,2.73,0.91*02
$GPGSV,2,1,07,0
3,75,243,35,11,46,151,32,17,46,293,32,14,32,052,*77
$GPGSV,2,2,07,19,25,315,36,23,24,184,31,47,,,*78

$GPRMC,093004.000,A,5212.2558,N,00007.0682,E,0.23,59.60,191118,,,A*5F
$GPVTG,59.60,T,,M,0.23,N,0.42,K,
A*00

$PMTKLOG,
0,1,a,31,15,0,0,1,0,0*11
$PMTK001,183,3*3A
$PMTK869,2,1*36

$GPGGA,093005.000,5
212.2559,N,00007.0683,E,1,05,2.74,2.9,M,47.0,M,,*6A
$GPGSA,A,3,17,11,19,03,23,,,,,,,,2.89,2.74,0.91*04

$GPRMC,093005.000,A,5212.2559,N,00007.0683,E,0.19,63.84,191118,,,A*54
$GPVTG,63.84,T,,M,0.19,N,0.34,K,A*
0B

$PMTKLOG,0,1,a,31,15,0,0
,1,0,0*11
$PMTK001,183,3*3A
$PMTK869,2,1*36

$GPGGA,093006.000,5212.2559,N,00007.06
84,E,1,05,2.74,2.9,M,47.0,M,,*6E
$GPGSA,A,3,17,11,19,03,23,,,,,,,,2.88,2.74,0.91*05
$GPRMC,093006.000,A
,5212.2559,N,00007.0684,E,0.22,61.87,191118,,,A*59
$GPVTG,61.87,T,,M,0.22,N,0.40,K,A*01

$PMTKLOG
,0,1,a,31,15,0,0,1,0,0*11
$PMTK001,183,3*3A
$PMTK869,2,1*36

$GPGGA,093007.000,5212
.2559,N,00007.0685,E,1,05,2.73,2.9,M,47.0,M,,*69
$GPGSA,A,3,17,11,19,03,23,,,,,,,,2.88,2.73,0.91*02
$GP
RMC,093007.000,A,5212.2559,N,00007.0685,E,0.41,59.87,191118,,,A*57
$GPVTG,59.87,T,,M,0.41,N,0.76,K,A*0A


$PMTKLOG,0,1,
a,31,15,0,0,1,0,0*11
$PMTK001,183,3*3A
$PMTK869,2,1*36

$GPGGA,093008.000,5212.2560,N,00007.0687,E,1,05,2.74,2
.9,M,47.0,M,,*69
$GPGSA,A,3,17,11,19,03,23,,,,,,,,2.88,2.74,0.91*05
$GPRMC,093008.000,A,5212.2560,N,000
07.0687,E,0.44,59.44,191118,,,A*5A
$GPVTG,59.44,T,,M,0.44,N,0.81,K,A*08

$PMTKLOG,0,1,a,31,1
5,0,0,1,0,0*11
$PMTK001,183,3*3A
$PMTK869,2,1*36

$GPGGA,093009.000,5212.2561,N,00007.0688,E,1,05,2.73,2.9
,M,47.0,M,,*61
$GPGSA,A,3,17,11,19,03,23,,,,,,,,2.88,2.73,0.91*02
$GPGSV,2,1,07,03,75,243,35,17,47,293,
32,11,46,151,31,14,32,052,*75
$GPGSV,2,2,07,19,25,315,36,23,24,184,32,49,,,*75
$GPRMC,093009.00
0,A,5212.2561,N,00007.0688,E,0.39,69.12,191118,,,A*5F
$GPVTG,69.12,T,,M,0.39,N,0.73,K,A*0F

$PMTKLOG,0
,1,a,31,15,0,0,1,0,0*11
$PMTK001,183,3*3A
$PMTK869,2,1*36

$GPGGA,093010.000,5212.2561,N,00007.0690,E,1
,05,2.73,2.9,M,47.0,M,,*60
$GPGSA,A,3,17,11,19,03,23,,,,,,,,2.88,2.73,0.91*02
$GPRMC,093010.000,A,5212.
2561,N,00007.0690,E,0.40,76.31,191118,,,A*5F
$GPVTG,76.31,T,,M,0.40,N,0.75,K,A*08

$PMTKLOG,0,1,a,31,15,
0,0,1,0,0*11
$PMTK001,183,3*3A
$PMTK869,2,1*36

$GPGGA,093011.000,5212.2561,N,00007.0692,E,1,05,2.73,2.9,M
,47.0,M,,*63
$GPGSA,A,3,17,11,19,03,23,,,,,,,,2.88,2.73,0.91*02
$GPRMC,093011.000,A,5212.2561,N,000
07.0692,E,0.43,76.94,191118,,,A*50
$GPVTG,76.94,T,,M,0.43,N,0.80,K,A*0E

$PMTKLOG,0,1,a,31,15,
0,0,1,0,0*11
$PMTK001,183,3*3A
$PMTK869,2,1*36

$GPGGA,093012.000,5212.2
562,N,00007.0694,E,1,05,2.74,2.9,M,47.0,M,,*62
$GPGSA,A,3,17,11,19,03,23,,,,,,,,2.88,2.74,0.91*05
$
GPRMC,093012.000,A,5212.2562,N,00007.0694,E,0.43,75.37,191118,,,A*5C
$GPVTG,75.37,T,,M,0.43,N,0.81,K,A*05

$PMTKLOG
,0,1,a,31,15,0,0,1,0,0*11
$PMTK001,183,3*3A
$PMTK869,2,1*36

$GPGGA,093013.
000,5212.2562,N,00007.0696,E,1,05,2.74,2.9,M,47.0,M,,*61
$GPGSA,A,3,17,11,19,03,23,,,,,,,,2.88,2.74,
0.91*05
$GPRMC,093013.000,A,5212.2562,N,00007.0696,E,0.54,65.20,191118,,,A*5E
$GPVTG,65.20,T,,M,0.54,N,
1.00,K,A*0C

$PMTKLOG,0,1,a,31
,15,0,0,1,0,0*11
$PMTK001,183,3*3A
$PMTK869,2,1*36

$GPGGA,093014.000,5212.2563,N,00007.0698,E,1
,05,2.74,2.9,M,47.0,M,,*69
$GPGSA,A,3,17,11,19,03,23,,,,,,,,2.88,2.74,0.91*05
$GPGSV,2,1,07,03,75,2
43,35,17,47,293,33,11,46,151,31,14,32,052,*74
$GPGSV,2,2,07,19,25,315,36,23,24,184,32,51,,,*7C
$GPRMC,09301
4.000,A,5212.2563,N,00007.0698,E,0.41,61.41,191118,,,A*51
$GPVTG,61.41,T,,M,0.41,N,0.75,K,A*08

$PMTKLOG,0,1,a,31,15
,0,0,1,0,0*11
$PMTK001,183,3*3A
$PMTK869,2,1*36

$GPGGA,093015.000,5212.2563,N,00007.0700,E,1,05,2.74,2.9,M,47.0,M,,*68
$GPGSA,A,3,17,11,19
,03,23,,,,,,,,2.88,2.74,0.91*05
$GPRMC,093015.000,A,5212.2563,N,00007.0700,E,0.33,52.04,191118,,,A*54
$
GPVTG,52.04,T,,M,0.33,N,0.62,K,A*0A

$PMTKLOG,0,1,a,31,15,0,0,1,0,0*11
$
PMTK001,183,3*3A
$PMTK869,2,1*36

$GPGGA,093016.000,5212.2564,N,00007.0701,E,1,05,2.74,2.9,M,47.0,M,,*6D
$GPGSA,A,3,17,11,19,03,23,,,,,,,,
2.88,2.74,0.91*05
$GPRMC,093016.000,A,5212.2564,N,00007.0701,E,0.22,50.95,191118,,,A*5B
$GPVTG,50.95,T,
,M,0.22,N,0.41,K,A*01

$PMTKLOG,0,1,a,31,
15,0,0,1,0,0*11
$PMTK001,183,3*3A
$PMTK869,2,1*36

$GPGGA,
093017.000,5212.2564,N,00007.0702,E,1,05,2.74,2.9,M,47.0,M,,*6F
$GPGSA,A,3,17,11,19,03,23,,,,,,,,2.8
9,2.74,0.91*04
$GPRMC,093017.000,A,5212.2564,N,00007.0702,E,0.24,78.08,191118,,,A*51
$GPVTG,78.08,T,,M,
0.24,N,0.44,K,A*0C

$PMTKLOG,0,1,a
,31,15,0,0,1,0,0*11
$PMTK001,183,3*3A
$PMTK869,2,1*36

$GPGGA,093018.00
0,5212.2564,N,00007.0703,E,1,05,2.73,2.9,M,47.0,M,,*66
$GPGSA,A,3,17,11,19,03,23,,,,,,,,2.88,2.73,0.91*02
$
GPRMC,093018.000,A,5212.2564,N,00007.0703,E,0.23,66.74,191118,,,A*5C
$GPVTG,66.74,T,,M,0.23,N,0.42,K,A*0
9

$PMTKLOG,0,1,a,31,15,
0,0,1,0,0*11
$PMTK001,183,3*3A
$PMTK869,2,1*36

$GPGGA,093019.000,5212.2564,N,00007.0704,E,1,05,2.74,2.9,M,47.0,M,,*67
$GPGSA,A,3,17,11,19,03,2
3,,,,,,,,2.89,2.74,0.91*04
$GPGSV,2,1,07,03,75,243,35,17,47,293,33,11,46,151,30,14,32,052,*75
$GPGSV,2,
2,07,19,25,315,36,23,24,184,33,51,,,*7D
$GPRMC,093019.000,A,5212.2564,N,00007.0704,E,0.24,95.77,1911
18,,,A*52
$GPVTG,95.77,T,,M,0.24,N,0.44,K,A*07
$PMTKLOG,0,1,a,31,15,0,
0,1,0,0*11
$PMTK001,183,3*3A
$PMTK869,2,1*36

$GPGGA,093020.000,5212.2564,N,00007.0705,E,1,05,2.73,2.
9,M,47.0,M,,*6B
$GPGSA,A,3,17,11,19,03,23,,,,,,,,2.88,2.73,0.91*02
$GPRMC,093020.000,A,5212.2564,N,0000
7.0705,E,0.14,68.11,191118,,,A*58
$GPVTG,68.11,T,,M,0.14,N,0.26,K,A*02

$PMTKLOG,0,1,a,31,15,0,
0,1,0,0*11
$PMTK001,183,3*3A
$PMTK869,2,1*36

$GPGGA,093021.000,5212.2565,N,00007.0706,E,1,05,2
.73,2.9,M,47.0,M,,*68
$GPGSA,A,3,17,11,19,03,23,,,,,,,,2.88,2.73,0.91*02
$GPRMC,093021.000,A,5212.2565,
N,00007.0706,E,0.16,0.62,191118,,,A*63
$GPVTG,0.62,T,,M,0.16,N,0.30,K,A*3D

$PMTKLOG,0,
1,a,31,15,0,0,1,0,0*11
$PMTK001,183,3*3A
$PMTK869,2,1*36

$GPGGA,093022.000,5212.2565,N,00007.0706
,E,1,05,2.87,2.9,M,47.0,M,,*60
$GPGSA,A,3,17,11,19,03,23,,,,,,,,3.66,2.87,2.26*06
$GPRMC,093022.000,A,5
212.2565,N,00007.0706,E,0.28,57.77,191118,,,A*5B
$GPVTG,57.77,T,,M,0.28,N,0.52,K,A*02

$PMTKLOG,0
,1,a,31,15,0,0,1,0,0*11
$PMTK001,183,3*3A
$PMTK869,2,1*36

$GPGGA,093023.000
,5212.2565,N,00007.0707,E,1,05,2.74,2.9,M,47.0,M,,*6C
$GPGSA,A,3,17,11,19,03,23,,,,,,,,2.88,2.74,0.91*05
$G
PRMC,093023.000,A,5212.2565,N,00007.0707,E,0.24,70.31,191118,,,A*50
$GPVTG,70.31,T,,M,0.24,N,0.44
,K,A*0E

$PMTKLOG,0,1,
a,31,15,0,0,1,0,0*11
$PMTK001,183,3*3A
$PMTK869,2,1*36

$GPGGA,093024.000,5212.2566,N,00007.070
8,E,1,05,2.74,2.9,M,47.0,M,,*67
$GPGSA,A,3,17,11,19,03,23,,,,,,,,2.89,2.74,0.91*04
$GPGSV,2,1,07,03
,75,243,35,17,47,293,33,11,46,151,30,14,32,052,*75
$GPGSV,2,2,07,19,25,315,36,23,24,184,33,48,,,*75

$GPRMC,093024.000,A,5212.2566,N,00007.0708,E,0.40,74.27,191118,,,A*5A
$GPVTG,74.27,T,,M,0.40,N,0.73,K,A*
0B

$PMTK
LOG,0,1,a,31,15,0,0,1,0,0*11
$PMTK001,183,3*3A
$PMTK869,2,1*36

$GPGGA,093025.000,5
212.2566,N,00007.0710,E,1,05,2.74,2.9,M,47.0,M,,*6F
$GPGSA,A,3,17,11,19,03,23,,,,,,,,2.89,2.74,0.91*0
4
$GPRMC,093025.000,A,5212.2566,N,00007.0710,E,0.43,64.06,191118,,,A*53
$GPVTG,64.06,T,,M,0.43,N,0.80,K
,A*06

$PMTKLOG,0,1,a,31,15,0,0,1,
0,0*11
$PMTK001,183,3*3A
$PMTK869,2,1*36

$GPGGA,093026.000,5212.2567,N,00007.
0712,E,1,05,2.74,2.9,M,47.0,M,,*6F
$GPGSA,A,3,17,11,19,03,23,,,,,,,,2.89,2.74,0.91*04
$GPRMC,093026
.000,A,5212.2567,N,00007.0712,E,0.36,58.57,191118,,,A*5A
$GPVTG,58.57,T,,M,0.36,N,0.66,K,A*07

$PMTKLOG,0,
1,a,31,15,0,0,1,0,0*11
$PMTK001,183,3*3A
$PMTK869,2,1*36

$GPGGA,093027.000,5212.2567,N,00007.0
713,E,1,05,2.74,2.9,M,47.0,M,,*6F
$GPGSA,A,3,17,11,19,03,23,,,,,,,,2.89,2.74,0.91*04
$GPRMC,093027.000,A,52
12.2567,N,00007.0713,E,0.24,24.24,191118,,,A*56
$GPVTG,24.24,T,,M,0.24,N,0.45,K,A*0A

$PMTKLOG,0,1,
a,31,15,0,0,1,0,0*11
$PMTK001,183,3*3A
$PMTK869,2,1*36

$GPGGA,093028.000,5212.2568,N,0
0007.0713,E,1,05,2.74,2.9,M,47.0,M,,*6F
$GPGSA,A,3,17,11,19,03,23,,,,,,,,2.88,2.74,0.91*05
$GPRMC,09302
8.000,A,5212.2568,N,00007.0713,E,0.33,34.01,191118,,,A*56
$GPVTG,34.01,T,,M,0.33,N,0.62,K,A*0F

$PMTKLO
G,0,1,a,31,15,0,0,1,0,0*11
$PMTK001,183,3*3A
$PMTK869,2,1*36

$GPGGA,093029.000,5
212.2569,N,00007.0714,E,1,05,2.74,2.9,M,47.0,M,,*68
$GPGSA,A,3,17,11,19,03,23,,,,,,,,2.89,2.74,0.91*
04
$GPGSV,2,1,07,03,75,244,35,17,47,293,31,11,46,151,30,14,32,052,*70
$GPGSV,2,2,07,19,25,315,36,23,24,184,
33,42,,,*7F
$GPRMC,093029.000,A,5212.2569,N,00007.0714,E,0.39,44.02,191118,,,A*5F
$GPVTG,44.02,T,,M,
0.39,N,0.73,K,A*01

$PMTKLOG,0,1,a,3
1,15,0,0,1,0,0*11
$PMTK001,183,3*3A
$PMTK869,2,1*36

$GPGGA,093030.000,5212.2569,N,00007.
0716,E,1,05,2.74,2.9,M,47.0,M,,*62
$GPGSA,A,3,17,11,19,03,23,,,,,,,,2.88,2.74,0.91*05
$GPRMC,093030.
000,A,5212.2569,N,00007.0716,E,0.37,37.61,191118,,,A*5A
$GPVTG,37.61,T,,M,0.37,N,0.69,K,A*05

$PMTKLOG,0,1,a,31,15,0,0,1,0
,0*11
$PMTK001,183,3*3A
$PMTK869,2,1*36

$GPGGA,093031.000,5212.2570,N,000
07.0717,E,1,05,2.74,2.9,M,47.0,M,,*6A
$GPGSA,A,3,17,11,19,03,23,,,,,,,,2.89,2.74,0.91*04
$GPRMC,093
031.000,A,5212.2570,N,00007.0717,E,0.29,30.04,191118,,,A*59
$GPVTG,30.04,T,,M,0.29,N,0.55,K,A*01

$PMTKLOG,0,1
,a,31,15,0,0,1,0,0*11
$PMTK001,183,3*3A
$PMTK869,2,1*36

$GPGGA,093032.000,5212.2571,N,00007.
0717,E,1,05,2.74,2.9,M,47.0,M,,*68
$GPGSA,A,3,17,11,19,03,23,,,,,,,,2.89,2.74,0.91*04
$GPRMC,093032.000
,A,5212.2571,N,00007.0717,E,0.24,38.48,191118,,,A*56
$GPVTG,38.48,T,,M,0.24,N,0.45,K,A*0D

$PMTKLOG,0,1,a,31,15,0,
0,1,0,0*11
$PMTK001,183,3*3A
$PMTK869,2,1*36

$GPGGA,093033.000,5212
.2571,N,00007.0718,E,1,05,2.74,2.9,M,47.0,M,,*66
$GPGSA,A,3,17,11,19,03,23,,,,,,,,2.89,2.74,0.91*04

$GPRMC,093033.000,A,5212.2571,N,00007.0718,E,0.16,38.93,191118,,,A*5F
$GPVTG,38.93,T,,M,0.16,N,0.30,
K,A*08

$PMTKLOG,0,1,a,31,15,
0,0,1,0,0*11
$PMTK001,183,3*3A
$PMTK869,2,1*36

$GPGGA,093034.000,5212.2572,N,00007.0
718,E,1,05,2.74,2.9,M,47.0,M,,*62
$GPGSA,A,3,17,11,19,03,23,,,,,,,,2.89,2.74,0.91*04
$GPGSV,2,1
,07,03,75,244,35,17,47,293,30,11,46,151,29,14,32,052,*79
$GPGSV,2,2,07,19,25,315,36,23,24,184,33,50,,,*7
C
$GPRMC,093034.000,A,5212.2572,N,00007.0718,E,0.18,81.53,191118,,,A*5B
$GPVTG,81.53,T,,M,0.18,N,0.33,K,A*0
B
$PMTKLOG,0,1
,a,31,15,0,0,1,0,0*11
$PMTK001,183,3*3A
$PMTK869,2,1*36

$GPGGA,093035.000,
5212.2572,N,00007.0719,E,1,05,2.74,2.9,M,47.0,M,,*62
$GPGSA,A,3,17,11,19,03,23,,,,,,,,2.88,2.74,0.91*05

$GPRMC,093035.000,A,5212.2572,N,00007.0719,E,0.07,73.04,191118,,,A*5A
$GPVTG,73.04,T,,M,0.07,N,0.13,K,A*08


$PMTKLOG,0,1,a,31,15,0,0,1,0,0*11

$PMTK001,183,3*3A
$PMTK869,2,1*36

$GPGGA,093036.000,5212.2572,N,00007.0719,E,1,05,2.74,2.9,M,47.0,M,,*61
$GPGSA,A,3,17,11,19,03,23,,
,,,,,,2.88,2.74,0.91*05
$GPRMC,093036.000,A,5212.2572,N,00007.0719,E,0.04,18.04,191118,,,A*57
$GPVTG,18
.04,T,,M,0.04,N,0.07,K,A*03

$PMTKLOG,0,1,
a,31,15,0,0,1,0,0*11
$PMTK001,183,3*3A
$PMTK869,2,1*36

$GPGGA,093037.000,5212.2572,N,00007.0720,E,1,05,2.74,2.8,M,47.0,M,,*6B
$GPGS
A,A,3,17,11,19,03,23,,,,,,,,2.89,2.74,0.91*04
$GPRMC,093037.000,A,5212.2572,N,00007.0720,E,0.02,272.70,1
91118,,,A*67
$GPVTG,272.70,T,,M,0.02,N,0.04,K,A*3B

$PMTKLOG,0,1,a,3
1,15,0,0,1,0,0*11
$PMTK001,183,3*3A
$PMTK869,2,1*36

$GPGGA,093038.000,5212.2572,N,00007.0719,E,1,05,2.74,2.8,M,47.0,M,,*6E
$GPGSA,A,3,17,11,19,0
3,23,,,,,,,,2.89,2.74,0.91*04
$GPRMC,093038.000,A,5212.2572,N,00007.0719,E,0.18,248.89,191118,,,A*66
$G
PVTG,248.89,T,,M,0.18,N,0.33,K,A*3B

$PMTKLOG,0,1,a,31,
15,0,0,1,0,0*11
$PMTK001,183,3*3A
$PMTK869,2,1*36

$GPGGA,093039.000,5212.2572,N,00007.0719,E,1,05,
2.74,2.8,M,47.0,M,,*6F
$GPGSA,A,3,17,11,19,03,23,,,,,,,,2.89,2.74,0.91*04
$GPGSV,2,1,07,03,75,244,34,17
,47,293,30,11,46,151,28,14,32,052,*79
$GPGSV,2,2,07,19,25,315,36,23,24,184,33,50,,,*7C
$GPRMC,093039.00
0,A,5212.2572,N,00007.0719,E,0.21,261.18,191118,,,A*6E
$GPVTG,261.18,T,,M,0.21,N,0.39,K,A*38

$PMTKLOG,0,
1,a,31,15,0,0,1,0,0*11
$PMTK001,183,3*3A
$PMTK869,2,1*36

$GPGGA,093040.000,5212.2572,N,00007.0718,E,1,05,2.74,2.8,M,47.0,M,,*60
$GPGSA,A,3,
17,11,19,03,23,,,,,,,,2.88,2.74,0.92*06
$GPRMC,093040.000,A,5212.2572,N,00007.0718,E,0.19,238.22
,191118,,,A*6F
$GPVTG,238.22,T,,M,0.19,N,0.34,K,A*3B

$PMTKLOG,0,1,a,31,15,0,
0,1,0,0*11
$PMTK001,183,3*3A
$PMTK869,2,1*36

$GPGGA,093041.000,5212.2571,N,000
07.0717,E,1,05,2.74,2.8,M,47.0,M,,*6D
$GPGSA,A,3,17,11,19,03,23,,,,,,,,2.89,2.74,0.92*07
$GPRMC,093041.
000,A,5212.2571,N,00007.0717,E,0.24,196.18,191118,,,A*62
$GPVTG,196.18,T,,M,0.24,N,0.44,K,A*3C

$PMTKL
OG,0,1,a,31,15,0,0,1,0,0*11
$PMTK001,183,3*3A
$PMTK869,2,1*36

$GPGGA,093042.000,5212.2571,N,00007.0717,
E,1,05,2.74,2.8,M,47.0,M,,*6E
$GPGSA,A,3,17,11,19,03,23,,,,,,,,2.89,2.74,0.92*07
$GPRMC,093042.000,
A,5212.2571,N,00007.0717,E,0.22,215.70,191118,,,A*61
$GPVTG,215.70,T,,M,0.22,N,0.41,K,A*39

$PMTKLOG,0,1,a,3
1,15,0,0,1,0,0*11
$PMTK001,183,3*3A
$PMTK869,2,1*36

$GPGGA,093043.000,5212.2570,N,000
07.0716,E,1,05,2.74,2.8,M,47.0,M,,*6F
$GPGSA,A,3,17,11,19,03,23,,,,,,,,2.89,2.74,0.92*07
$GPRMC,093043.000,
A,5212.2570,N,00007.0716,E,0.23,232.67,191118,,,A*62
$GPVTG,232.67,T,,M,0.23,N,0.43,K,A*39

$PMTKLOG,0,1,a,31,
15,0,0,1,0,0*11
$PMTK001,183,3*3A
$PMTK869,2,1*36

$GPGGA,093044.000,5212.2570,N,00007.0715,E
,1,05,2.74,2.8,M,47.0,M,,*6B
$GPGSA,A,3,17,11,19,03,23,,,,,,,,2.89,2.74,0.92*07
$GPGSV,2,1,08,22,79,082
,,03,75,244,33,17,47,293,30,11,46,151,27*79
$GPGSV,2,2,08,14,32,052,,33,28,199,,19,25,315,36,23,24,1
84,33*7E
$GPRMC,093044.000,A,5212.2570,N,00007.0715,E,0.17,232.76,191118,,,A*61
$GPVTG,232.76,T,,M,0.17
,N,0.32,K,A*38
$PMTKLOG,0,1,a,31,15
,0,0,1,0,0*11
$PMTK001,183,3*3A
$PMTK869,2,1*36

$GPGGA,093045.000,5212.2569,N,00007.0714,E,1,05,2.74
,2.8,M,47.0,M,,*63
$GPGSA,A,3,17,11,19,03,23,,,,,,,,2.89,2.74,0.92*07
$GPRMC,093045.000,A,5212.2569
,N,00007.0714,E,0.11,286.59,191118,,,A*6D
$GPVTG,286.59,T,,M,0.11,N,0.20,K,A*3F

$PMTKLOG,0,1,a,31,15,0,0,1,
0,0*11
$PMTK001,183,3*3A
$PMTK869,2,1*36

$GPGGA,093046.000,5212.2569,N,00007.0714,E,1,0
5,2.73,2.8,M,47.0,M,,*67
$GPGSA,A,3,17,11,19,03,23,,,,,,,,2.88,2.73,0.92*01
$GPRMC,093046.000,A,5212.25
69,N,00007.0714,E,0.16,266.48,191118,,,A*67
$GPVTG,266.48,T,,M,0.16,N,0.30,K,A*37

$PMTKLOG,0,1,a,31,15,0,0,1,
0,0*11
$PMTK001,183,3*3A
$PMTK869,2,1*36

$GPGGA,093047.000,5212.2569,N,00007.0713,E,1,05,2.7
4,2.8,M,47.0,M,,*66
$GPGSA,A,3,17,11,19,03,23,,,,,,,,2.89,2.74,0.92*07
$GPRMC,093047.000,A,5212.2569
,N,00007.0713,E,0.18,270.98,191118,,,A*65
$GPVTG,270.98,T,,M,0.18,N,0.34,K,A*37

$PMTKLOG,0,1,a,31,15,0
,0,1,0,0*11
$PMTK001,183,3*3A
$PMTK869,2,1*36

$GPGGA,093048.000,5212.2569,N,00007.0712,E,1,05,2.
74,2.8,M,47.0,M,,*68
$GPGSA,A,3,17,11,19,03,23,,,,,,,,2.89,2.74,0.92*07
$GPRMC,093048.000,A,5212.25
69,N,00007.0712,E,0.24,275.03,191118,,,A*63
$GPVTG,275.03,T,,M,0.24,N,0.45,K,A*39

$PMTKLOG,0,1,a,31,1
5,0,0,1,0,0*11
$PMTK001,183,3*3A
$PMTK869,2,1*36

$GPGGA,093049.000,5212.2569,N,0000
7.0711,E,1,05,2.74,2.8,M,47.0,M,,*6A
$GPGSA,A,3,17,11,19,03,23,,,,,,,,2.89,2.74,0.92*07
$GPGSV,2,1,08,2
2,79,082,,03,75,244,33,17,47,293,29,11,46,151,27*71
$GPGSV,2,2,08,14,32,052,,33,28,199,,19,25,315,36,23,
24,184,33*7E
$GPRMC,093049.000,A,5212.2569,N,00007.0711,E,0.27,270.13,191118,,,A*66
$GPVTG,270.13,T
,,M,0.27,N,0.49,K,A*32
$PMTK
LOG,0,1,a,31,15,0,0,1,0,0*11
$PMTK001,183,3*3A
$PMTK869,2,1*36

$GPGGA,093050.000,5212.2569,N,00007
.0710,E,1,05,2.74,2.8,M,47.0,M,,*63
$GPGSA,A,3,17,11,19,03,23,,,,,,,,2.89,2.74,0.92*07
$GPRMC,09305
0.000,A,5212.2569,N,00007.0710,E,0.31,279.35,191118,,,A*65
$GPVTG,279.35,T,,M,0.31,N,0.58,K,A*38

$PMTKLOG,0,1,a,31,15,0,0,1,
0,0*11
$PMTK001,183,3*3A
$PMTK869,2,1*36

$GPGGA,093051.000,5212.2570,N,00007.0708,E,1,05,2.74,2.8,M,47.0,M,
,*63
$GPGSA,A,3,17,11,19,03,23,,,,,,,,2.89,2.74,0.92*07
$GPRMC,093051.000,A,5212.2570,N,00007.0708,E,0.2
7,289.60,191118,,,A*6D
$GPVTG,289.60,T,,M,0.27,N,0.50,K,A*38

$PMTK
LOG,0,1,a,31,15,0,0,1,0,0*11
$PMTK001,183,3*3A
$PMTK869,2,1*36

$GPGGA,093052.000,5212.2570,N,00007.0707
,E,1,05,2.74,2.8,M,47.0,M,,*6F
$GPGSA,A,3,17,11,19,03,23,,,,,,,,2.89,2.74,0.92*07
$GPRMC,093052
.000,A,5212.2570,N,00007.0707,E,0.24,291.15,191118,,,A*69
$GPVTG,291.15,T,,M,0.24,N,0.45,K,A*34

$PMTKLOG,0,1,a,31,15,
0,0,1,0,0*11
$PMTK001,183,3*3A
$PMTK869,2,1*36

$GPGGA,093053.000,5212.2570,N,00007.0
706,E,1,05,2.74,2.8,M,47.0,M,,*6F
$GPGSA,A,3,17,11,19,03,23,,,,,,,,2.89,2.74,0.92*07
$GPRMC,093
053.000,A,5212.2570,N,00007.0706,E,0.21,255.86,191118,,,A*6E
$GPVTG,255.86,T,,M,0.21,N,0.40,K,A*36

$PMTKLOG,0,1,a,31,15
,0,0,1,0,0*11
$PMTK001,183,3*3A
$PMTK869,2,1*36

$GPGGA,09
3054.000,5212.2570,N,00007.0705,E,1,05,2.74,2.8,M,47.0,M,,*6B
$GPGSA,A,3,17,11,19,03,23,,,,,,,,2
.89,2.74,0.92*07
$GPGSV,2,1,08,22,79,082,20,03,75,244,31,17,47,293,28,11,46,151,28*7F
$GPGSV,2,2,08,14,
32,052,,37,27,153,,19,25,315,35,23,24,184,32*71
$GPRMC,093054.000,A,5212.2570,N,00007.0705,E,0.12,210.80
,191118,,,A*6D
$GPVTG,210.80,T,,M,0.12,N,0.22,K,A*35
$PMTKLOG,0,1,a,31,15,
0,0,1,0,0*11
$PMTK001,183,3*3A
$PMTK869,2,1*36

$GPGGA,093055.000,5212.2570,N
,00007.0705,E,1,05,2.74,2.8,M,47.0,M,,*6A
$GPGSA,A,3,17,11,19,03,23,,,,,,,,2.89,2.74,0.92*07
$GPRMC,093
055.000,A,5212.2570,N,00007.0705,E,0.24,224.51,191118,,,A*62
$GPVTG,224.51,T,,M,0.24,N,0.45,K,A*3A

$PMTKLOG,0,1,a,31,15,0,0,1
,0,0*11
$PMTK001,183,3*3A
$PMTK869,2,1*36

$GPGGA,093056.000,5212.2569,N
,00007.0704,E,1,05,2.74,2.8,M,47.0,M,,*60
$GPGSA,A,3,17,11,19,03,23,,,,,,,,2.89,2.74,0.92*07
$GPRMC,093056.
000,A,5212.2569,N,00007.0704,E,0.25,239.26,191118,,,A*65
$GPVTG,239.26,T,,M,0.25,N,0.46,K,A*34

$PMTKLOG,0
,1,a,31,15,0,0,1,0,0*11
$PMTK001,183,3*3A
$PMTK869,2,1*36

$GPGGA,093057.000,5212.2569,N,00007.0703,E,1,05,2.74,2.8,M,47.0,M,,*66

$GPGSA,A,3,17,11,19,03,23,,,,,,,,2.89,2.74,0.92*07
$GPRMC,093057.000,A,5212.2569,N,00007.0703,E,0.34,233.7
1,191118,,,A*6B
$GPVTG,233.71,T,,M,0.34,N,0.62,K,A*3A

$PMTKLOG,
0,1,a,31,15,0,0,1,0,0*11
$PMTK001,183,3*3A
$PMTK869,2,1*36

$GPGGA,093058.000,5212.2568,N,00007.0702,E,1,05,2.74,2.8,M,47.0,M,,*69
$GP
GSA,A,3,17,11,19,03,23,,,,,,,,2.89,2.74,0.92*07
$GPRMC,093058.000,A,5212.2568,N,00007.0702,E,0.11,262.6
1,191118,,,A*66
$GPVTG,262.61,T,,M,0.11,N,0.21,K,A*3F

$PMTKLOG
,0,1,a,31,15,0,0,1,0,0*11
$PMTK001,183,3*3A
$PMTK869,2,1*36

$GPGGA,093059.000,5212.2568,N,00007.0701,E,1,05,2.74,2.8,M,47.0,M,,*6B
$GPGSA,A,3,17
,11,19,03,23,,,,,,,,2.89,2.74,0.92*07
$GPGSV,2,1,08,22,79,082,20,03,75,244,30,17,47,293,28,11,46,151,28*
7E
$GPGSV,2,2,08,14,32,052,,19,25,315,35,39,25,149,,23,24,184,32*76
$GPRMC,093059.000,A,5212.2568,N,000
07.0701,E,0.10,201.24,191118,,,A*61
$GPVTG,201.24,T,,M,0.10,N,0.19,K,A*31

$PMTKLO
G,0,1,a,31,15,0,0,1,0,0*11
$PMTK001,183,3*3A
$PMTK869,2,1*36

$GPGGA,093100.000,521
2.2568,N,00007.0701,E,1,05,2.74,2.8,M,47.0,M,,*66
$GPGSA,A,3,17,11,19,03,23,,,,,,,,2.89,2.74,0.92*07

$GPRMC,093100.000,A,5212.2568,N,00007.0701,E,0.13,236.85,191118,,,A*60
$GPVTG,236.85,T,,M,0.13,N,0.24,
K,A*33

$PMTKLOG,0,1,a,31,15,0,0,1,0,0*11
$PM
TK001,183,3*3A
$PMTK869,2,1*36

$GPGGA,09310
1.000,5212.2568,N,00007.0700,E,1,05,2.74,2.8,M,47.0,M,,*66
$GPGSA,A,3,17,11,19,03,23,,,,,,,,2.89,2.74,0.
92*07
$GPRMC,093101.000,A,5212.2568,N,00007.0700,E,0.33,242.60,191118,,,A*6A
$GPVTG,242.60,T,,M,0.33,N,
0.61,K,A*38

$PMTKLOG,0
,1,a,31,15,0,0,1,0,0*11
$PMTK001,183,3*3A
$PMTK869,2,1*36

$GPGGA,093102.00
0,5212.2567,N,00007.0699,E,1,05,2.74,2.8,M,47.0,M,,*6B
$GPGSA,A,3,17,11,19,03,23,,,,,,,,2.89,2.74,0.92*07
$GPRMC,09
3102.000,A,5212.2567,N,00007.0699,E,0.21,270.18,191118,,,A*6A
$GPVTG,270.18,T,,M,0.21,N,0.39,K,A*38

$PMTKLOG,0,1,a,31,15,0,0
,1,0,0*11
$PMTK001,183,3*3A
$PMTK869,2,1*36

$GPGGA,093103.000,5212.2567,N,00007
.0698,E,1,05,2.74,2.8,M,47.0,M,,*6B
$GPGSA,A,3,17,11,19,03,23,,,,,,,,2.89,2.74,0.92*07
$GPRMC,09310
3.000,A,5212.2567,N,00007.0698,E,0.07,260.84,191118,,,A*6A
$GPVTG,260.84,T,,M,0.07,N,0.14,K,A*37

$PMTKLOG,0,1,a,31,15,0,0
,1,0,0*11
$PMTK001,183,3*3A
$PMTK869,2,1*36

$GPGGA,093104.000,5212.2567,N,
00007.0698,E,1,05,2.74,2.8,M,47.0,M,,*6C
$GPGSA,A,3,17,11,19,03,23,,,,,,,,2.89,2.74,0.92*07
$GPGSV,
2,1,08,22,79,082,22,03,76,244,30,17,47,293,32,11,46,151,28*74
$GPGSV,2,2,08,14,32,052,,19,25,315,35,39,2
5,149,,23,24,184,31*75
$GPRMC,093104.000,A,5212.2567,N,00007.0698,E,0.14,260.15,191118,,,A*67
$GPVTG,26
0.15,T,,M,0.14,N,0.25,K,A*3F
$PMTKLOG,0,1,a,31,15,0,0
,1,0,0*11
$PMTK001,183,3*3A
$PMTK869,2,1*36

$GPGGA,093105.000,5212.2567,N,00
007.0697,E,1,05,2.74,2.8,M,47.0,M,,*62
$GPGSA,A,3,17,11,19,03,23,,,,,,,,2.89,2.74,0.92*07
$GPRMC,09
3105.000,A,5212.2567,N,00007.0697,E,0.08,224.36,191118,,,A*65
$GPVTG,224.36,T,,M,0.08,N,0.15,K,A*30

$PMTKLOG,0,1,a,31,15,0,0
,1,0,0*11
$PMTK001,183,3*3A
$PMTK869,2,1*36

$GPGGA,093106.000,5212.2567,N,00007.
0697,E,1,05,2.74,2.8,M,47.0,M,,*61
$GPGSA,A,3,17,11,19,03,23,,,,,,,,2.89,2.74,0.92*07
$GPRMC,093106
.000,A,5212.2567,N,00007.0697,E,0.06,186.13,191118,,,A*64
$GPVTG,186.13,T,,M,0.06,N,0.10,K,A*37

$PMTKLOG,0,1,a,31,15,0
,0,1,0,0*11
$PMTK001,183,3*3A
$PMTK869,2,1*36

$GPGGA,093107.000,5212.2567,N,00007.0697,E,1,05,
2.74,2.9,M,47.0,M,,*61
$GPGSA,A,3,17,11,19,03,23,,,,,,,,2.89,2.74,0.92*07
$GPRMC,093107.000,A,5212.2
567,N,00007.0697,E,0.07,165.61,191118,,,A*6C
$GPVTG,165.61,T,,M,0.07,N,0.14,K,A*3A

$PMTKLOG,0,1,a,31,15,
0,0,1,0,0*11
$PMTK001,183,3*3A
$PMTK869,2,1*36

$GPGGA,093108.000,5212.2567,N,00007.0697,E,1,05,
2.74,2.9,M,47.0,M,,*6E
$GPGSA,A,3,17,11,19,03,23,,,,,,,,2.89,2.74,0.92*07
$GPRMC,093108.000,A,5212.2567
,N,00007.0697,E,0.10,72.87,191118,,,A*5A
$GPVTG,72.87,T,,M,0.10,N,0.18,K,A*0F

$PMTKL
OG,0,1,a,31,15,0,0,1,0,0*11
$PMTK001,183,3*3A
$PMTK869,2,1*36

$GPGGA,0931
09.000,5212.2567,N,00007.0698,E,1,05,2.74,2.9,M,47.0,M,,*60
$GPGSA,A,3,17,11,19,03,23,,,,,,,,2.89,2.74,0
.92*07
$GPGSV,2,1,08,22,79,082,21,03,76,244,30,17,47,293,32,11,46,151,29*76
$GPGSV,2,2,08,14,32,052,,19,25,
315,35,23,24,184,31,40,07,111,*76
$GPRMC,093109.000,A,5212.2567,N,00007.0698,E,0.10,16.83,191118
,,,A*52
$GPVTG,16.83,T,,M,0.10,N,0.18,K,A*09

$PMTKLOG,0,1,a,31,15,0
,0,1,0,0*11
$PMTK001,183,3*3A
$PMTK869,2,1*36

$GPGGA,093110.000,5212.2567,N,0
0007.0698,E,1,05,2.74,2.9,M,47.0,M,,*68
$GPGSA,A,3,17,11,19,03,23,,,,,,,,2.89,2.74,0.92*07
$GPRMC,093110.00
0,A,5212.2567,N,00007.0698,E,0.02,348.64,191118,,,A*68
$GPVTG,348.64,T,,M,0.02,N,0.05,K,A*37

$PMTKLOG,0,1,a,31,15,0,0,1,0,0*11
$PMTK0
01,183,3*3A
$PMTK869,2,1*36

$GPGGA,093111.000,5212.2567,N,00007.0698,E,1,05
,2.88,2.9,M,47.0,M,,*6A
$GPGSA,A,3,17,11,19,03,23,,,,,,,,3.67,2.88,2.28*06
$GPRMC,093111.000,A,5212.2567,N,
00007.0698,E,0.15,8.31,191118,,,A*68
$GPVTG,8.31,T,,M,0.15,N,0.28,K,A*39

$PMTKLOG,0,1,a,31,15,0,0,
1,0,0*11
$PMTK001,183,3*3A
$PMTK869,2,1*36

$GPGGA,093112.000,5212.2568,N,000
07.0698,E,1,05,2.88,2.9,M,47.0,M,,*66
$GPGSA,A,3,17,11,19,03,23,,,,,,,,3.67,2.88,2.28*06
$GPRMC,093112.
000,A,5212.2568,N,00007.0698,E,0.32,41.65,191118,,,A*5D
$GPVTG,41.65,T,,M,0.32,N,0.60,K,A*0C

$PMTKLOG,0,1,a,31,15,0,0,1,
0,0*11
$PMTK001,183,3*3A
$PMTK869,2,1*36

$GPGGA,093113.000,5212.25
68,N,00007.0699,E,1,05,2.74,2.9,M,47.0,M,,*65
$GPGSA,A,3,17,11,19,03,23,,,,,,,,2.89,2.74,0.92*07
$GPRMC,093
113.000,A,5212.2568,N,00007.0699,E,0.32,59.03,191118,,,A*54
$GPVTG,59.03,T,,M,0.32,N,0.59,K,A*0F

$PMTKLOG,0,1,a,31,15,
0,0,1,0,0*11
$PMTK001,183,3*3A
$PMTK869,2,1*36

$GPGGA,093114.000,5212.2569,
N,00007.0700,E,1,05,2.74,2.9,M,47.0,M,,*62
$GPGSA,A,3,17,11,19,03,23,,,,,,,,2.89,2.74,0.92*07
$GPGSV,2,
1,08,22,79,082,21,03,76,244,29,17,47,293,33,11,45,151,29*7C
$GPGSV,2,2,08,14,32,052,,19,25,315,35,23
,24,184,30,40,07,111,*77
$GPRMC,093114.000,A,5212.2569,N,00007.0700,E,0.32,43.82,191118,,,A*51
$GPVTG,4
3.82,T,,M,0.32,N,0.60,K,A*07
$PMTKLOG,0,1,a
,31,15,0,0,1,0,0*11
$PMTK001,183,3*3A
$PMTK869,2,1*36

$GPGGA,093115.000,5212.2569
,N,00007.0702,E,1,05,2.74,2.9,M,47.0,M,,*61
$GPGSA,A,3,17,11,19,03,23,,,,,,,,2.89,2.74,0.92*07
$GPRMC,0
93115.000,A,5212.2569,N,00007.0702,E,0.32,54.05,191118,,,A*5B
$GPVTG,54.05,T,,M,0.32,N,0.60,K,A*0E

$PMTKLOG,0,1,a,31,15,0,0,1,0
,0*11
$PMTK001,183,3*3A
$PMTK869,2,1*36

$GPGGA,09311
6.000,5212.2570,N,00007.0703,E,1,05,2.74,2.9,M,47.0,M,,*6B
$GPGSA,A,3,17,11,19,03,23,,,,,,,,2.89,2.74,0
.92*07
$GPRMC,093116.000,A,5212.2570,N,00007.0703,E,0.34,60.25,191118,,,A*52
$GPVTG,60.25,T,,M,0.34,N,0.
63,K,A*0E

$PMTK
LOG,0,1,a,31,15,0,0,1,0,0*11
$PMTK001,183,3*3A
$PMTK869,2,1*36

$GPGGA,093117.000
,5212.2570,N,00007.0704,E,1,05,2.74,2.9,M,47.0,M,,*6D
$GPGSA,A,3,17,11,19,03,23,,,,,,,,2.89,2.74,0.9
2*07
$GPRMC,093117.000,A,5212.2570,N,00007.0704,E,0.37,67.60,191118,,,A*51
$GPVTG,67.60,T,,M,0.37,N,0.6
9,K,A*01

$PMTKLOG,0,1,a,31,15,0,0
,1,0,0*11
$PMTK001,183,3*3A
$PMTK869,2,1*36

$GPGGA,093118.000,5212.2571,N,00007.0706,E,1,05,2.74,2.9,M,47.0,M,,*61
$GPGSA,A,3,17,1
1,19,03,23,,,,,,,,2.89,2.74,0.92*07
$GPRMC,093118.000,A,5212.2571,N,00007.0706,E,0.30,65.45,191118,,
,A*5F
$GPVTG,65.45,T,,M,0.30,N,0.56,K,A*0F

$PMTKLOG
,0,1,a,31,15,0,0,1,0,0*11
$PMTK001,183,3*3A
$PMTK869,2,1*36

$GPGGA,093119.000,5212.2571,N,00007.0707,E,1,05,2.74,2.9,M,47.0,M
,,*61
$GPGSA,A,3,17,11,19,03,23,,,,,,,,2.89,2.74,0.92*07
$GPGSV,2,1,08,22,79,082,22,03,76,244,28,17,47,
292,33,11,45,151,26*70
$GPGSV,2,2,08,14,32,052,,19,25,315,34,23,24,184,29,44,06,109,*72
$GPRMC,093119.0
00,A,5212.2571,N,00007.0707,E,0.22,48.40,191118,,,A*56
$GPVTG,48.40,T,,M,0.22,N,0.41,K,A*00

$PMTKLOG,0,1,a,31
,15,0,0,1,0,0*11
$PMTK001,183,3*3A
$PMTK869,2,1*36

$GPG
GA,093120.000,5212.2572,N,00007.0708,E,1,05,2.74,2.9,M,47.0,M,,*67
$GPGSA,A,3,17,11,19,03,23,,,,
,,,,2.89,2.74,0.92*07
$GPRMC,093120.000,A,5212.2572,N,00007.0708,E,0.25,50.28,191118,,,A*50
$GPVTG,50.28,T,
,M,0.25,N,0.46,K,A*07

$PMTKLOG,0,1,a,31,15,0,0,1,
0,0*11
$PMTK001,183,3*3A
$PMTK869,2,1*36

$GPGGA,093121.000,5212.2572,N,000
07.0708,E,1,05,2.74,2.9,M,47.0,M,,*66
$GPGSA,A,3,17,11,19,03,23,,,,,,,,2.89,2.74,0.92*07
$GPRMC,093
121.000,A,5212.2572,N,00007.0708,E,0.14,38.70,191118,,,A*50
$GPVTG,38.70,T,,M,0.14,N,0.26,K,A*00

$PMTKLOG,0,1,a,31,15,0,0,1
,0,0*11
$PMTK001,183,3*3A
$PMTK869,2,1*36

$GPGGA,093122.000,5212.2572,N,00007.0709,E,1,05,2.74,2.9,M,47.0,M,,*64
$GPGSA,A,3,1
7,11,19,03,23,,,,,,,,2.89,2.74,0.92*07
$GPRMC,093122.000,A,5212.2572,N,00007.0709,E,0.15,8.07,191118
,,,A*60
$GPVTG,8.07,T,,M,0.15,N,0.28,K,A*3C

$PMTKLOG,0,1,a,31,
15,0,0,1,0,0*11
$PMTK001,183,3*3A
$PMTK869,2,1*36

$GPGGA,093123.000,5212.2573,N,
00007.0709,E,1,05,2.88,2.9,M,47.0,M,,*67
$GPGSA,A,3,17,11,19,03,23,,,,,,,,3.67,2.88,2.29*07
$GPRMC,0931
23.000,A,5212.2573,N,00007.0709,E,0.13,4.85,191118,,,A*60
$GPVTG,4.85,T,,M,0.13,N,0.23,K,A*37

$PMTKLOG,0,1,a,31,15,
0,0,1,0,0*11
$PMTK001,183,3*3A
$PMTK869,2,1*36

$GPGGA,093124.000,5212.2573
,N,00007.0709,E,1,05,2.88,2.9,M,47.0,M,,*60
$GPGSA,A,3,17,11,19,03,23,,,,,,,,3.67,2.88,2.29*07
$GPGSV,2,1,0
8,22,79,082,18,03,76,244,29,17,47,292,33,11,45,151,28*76
$GPGSV,2,2,08,14,32,052,,19,25,315,35,23,24
,184,27,44,06,109,*7D
$GPRMC,093124.000,A,5212.2573,N,00007.0709,E,0.08,337.83,191118,,,A*68
$GPVTG,337
.83,T,,M,0.08,N,0.16,K,A*3E
$PMTKLOG,
0,1,a,31,15,0,0,1,0,0*11
$PMTK001,183,3*3A
$PMTK869,2,1*36

$GPGGA,093125.
000,5212.2573,N,00007.0709,E,1,05,2.74,2.9,M,47.0,M,,*62
$GPGSA,A,3,17,11,19,03,23,,,,,,,,2.89,2.74,0.92
*07
$GPRMC,093125.000,A,5212.2573,N,00007.0709,E,0.15,316.82,191118,,,A*67
$GPVTG,316.82,T,,M,0.15,N
,0.28,K,A*3D

$PMTKLOG,0,1,a,31,15,0,0,1,0,0*1
1
$PMTK001,183,3*3A
$PMTK869,2,1*36

$GPGGA,093126.000,5212.2574,N,00007.0708,E,1,
05,2.74,2.9,M,47.0,M,,*67
$GPGSA,A,3,17,11,19,03,23,,,,,,,,2.89,2.74,0.92*07
$GPRMC,093126.000,A,5212.2574,
N,00007.0708,E,0.09,329.66,191118,,,A*69
$GPVTG,329.66,T,,M,0.09,N,0.18,K,A*35

$PMTKLOG,0,1,a,31,15,
0,0,1,0,0*11
$PMTK001,183,3*3A
$PMTK869,2,1*36

$GPGGA,093127.000,5212.2574,N,00007.0708,E,1,05,
2.74,2.9,M,47.0,M,,*66
$GPGSA,A,3,17,11,19,03,23,,,,,,,,2.89,2.74,0.92*07
$GPRMC,093127.000,A,5212.257
4,N,00007.0708,E,0.12,300.93,191118,,,A*63
$GPVTG,300.93,T,,M,0.12,N,0.22,K,A*37

$PMTKLOG,0,1,a,31,15,0,0,
1,0,0*11
$PMTK001,183,3*3A
$PMTK869,2,1*36

$GPGGA,093128.000,5212.2574,N,
00007.0707,E,1,05,2.74,2.9,M,47.0,M,,*66
$GPGSA,A,3,17,11,19,03,23,,,,,,,,2.89,2.74,0.92*07
$GPRMC,0931
28.000,A,5212.2574,N,00007.0707,E,0.17,308.12,191118,,,A*67
$GPVTG,308.12,T,,M,0.17,N,0.31,K,A*31

$PMTKL
OG,0,1,a,31,15,0,0,1,0,0*11
$PMTK001,183,3*3A
$PMTK869,2,1*36

$GPGGA,093129.000
,5212.2574,N,00007.0707,E,1,05,2.74,2.9,M,47.0,M,,*67
$GPGSA,A,3,17,11,19,03,23,,,,,,,,2.89,2.74,0.9
2*07
$GPGSV,2,1,08,22,79,082,17,03,76,244,30,17,47,292,34,11,45,151,28*76
$GPGSV,2,2,08,14,32,052,,
33,28,199,,19,25,315,35,23,24,184,26*79
$GPRMC,093129.000,A,5212.2574,N,00007.0707,E,0.10,297.56,191118,
,,A*66
$GPVTG,297.56,T,,M,0.10,N,0.18,K,A*3A

$PMTKLOG,0,1,a,
31,15,0,0,1,0,0*11
$PMTK001,183,3*3A
$PMTK869,2,1*36

$GPGGA,093130.000,5212.2574,N,00007.0706,E,1,05,2.74,
2.9,M,47.0,M,,*6E
$GPGSA,A,3,17,11,19,03,23,,,,,,,,2.89,2.74,0.92*07
$GPRMC,093130.000,A,5212.2574,
N,00007.0706,E,0.06,293.71,191118,,,A*69
$GPVTG,293.71,T,,M,0.06,N,0.11,K,A*35

$PMTKLOG,0,1,a,31,15,0,0,1,0,
0*11
$PMTK001,183,3*3A
$PMTK869,2,1*36

$GPGGA,093131.000,5212.2574
,N,00007.0706,E,1,05,2.74,2.9,M,47.0,M,,*6F
$GPGSA,A,3,17,11,19,03,23,,,,,,,,2.89,2.74,0.92*07
$GPRMC,09313
1.000,A,5212.2574,N,00007.0706,E,0.07,264.30,191118,,,A*64
$GPVTG,264.30,T,,M,0.07,N,0.12,K,A*3A

$PMTKLOG,
0,1,a,31,15,0,0,1,0,0*11
$PMTK001,183,3*3A
$PMTK869,2,1*36

$GPGGA,093132.000,
5212.2574,N,00007.0706,E,1,05,2.74,2.9,M,47.0,M,,*6C
$GPGSA,A,3,17,11,19,03,23,,,,,,,,2.89,2.74,0.92*07

$GPRMC,093132.000,A,5212.2574,N,00007.0706,E,0.09,348.02,191118,,,A*67
$GPVTG,348.02,T,,M,0.09,N,0.
16,K,A*3E

$PMTKLOG,0,
1,a,31,15,0,0,1,0,0*11
$PMTK001,183,3*3A
$PMTK869,2,1*36

$GPGGA,093133.000,
5212.2575,N,00007.0706,E,1,05,2.88,2.9,M,47.0,M,,*6F
$GPGSA,A,3,17,11,19,03,23,,,,,,,,3.68,2.88,2.29*08

$GPRMC,093133.000,A,5212.2575,N,00007.0706,E,0.11,43.35,191118,,,A*52
$GPVTG,43.35,T,,M,0.11,N,0.21
,K,A*0F

$PMTKLO
G,0,1,a,31,15,0,0,1,0,0*11
$PMTK001,183,3*3A
$PMTK869,2,1*36

$GPGGA,093134.00
0,5212.2575,N,00007.0706,E,1,05,2.74,3.0,M,47.0,M,,*63
$GPGSA,A,3,17,11,19,03,23,,,,,,,,2.89,2.74,0.92*0
7
$GPGSV,2,1,08,22,79,082,16,03,76,244,30,17,47,292,34,11,45,151,27*78
$GPGSV,2,2,08,14,32,052,,33,
28,199,,19,25,315,35,23,24,184,26*79
$GPRMC,093134.000,A,5212.2575,N,00007.0706,E,0.09,69.77,191118,,,A*
52
$GPVTG,69.77,T,,M,0.09,N,0.17,K,A*0D

$PMTKLOG,0
,1,a,31,15,0,0,1,0,0*11
$PMTK001,183,3*3A
$PMTK869,2,1*36

$GPGGA,093135.000,521
2.2575,N,00007.0707,E,1,05,2.74,3.0,M,47.0,M,,*63
$GPGSA,A,3,17,11,19,03,23,,,,,,,,2.89,2.74,0.9
2*07
$GPRMC,093135.000,A,5212.2575,N,00007.0707,E,0.09,72.75,191118,,,A*5A
$GPVTG,72.75,T,,M,0.09,N,0.17,K,
A*05

$PMTKLOG,0,1,a,31,15,0,0,1,0,0*11
$PMTK
001,183,3*3A
$PMTK869,2,1*36

$GPGGA,093136.000,5212.2575,N,00007.0707,E,1
,05,2.74,3.0,M,47.0,M,,*60
$GPGSA,A,3,17,11,19,03,23,,,,,,,,2.89,2.74,0.92*07
$GPRMC,093136.000,A,5
212.2575,N,00007.0707,E,0.12,319.38,191118,,,A*64
$GPVTG,319.38,T,,M,0.12,N,0.22,K,A*3E

$PMTKLOG,0,1,a,31,1
5,0,0,1,0,0*11
$PMTK001,183,3*3A
$PMTK869,2,1*36

$GPGGA,093137.000,5212.2575,N,00007.0706,E,1,05,2.74,3.0,M,47.0,M,,*60
$GPGSA,A,3,17,11,19,03,23,,
,,,,,,2.89,2.74,0.92*07
$GPRMC,093137.000,A,5212.2575,N,00007.0706,E,0.18,292.37,191118,,,A*63
$GPVTG,2
92.37,T,,M,0.18,N,0.33,K,A*39

$PMTKLOG,0,1
,a,31,15,0,0,1,0,0*11
$PMTK001,183,3*3A
$PMTK869,2,1*36

$GPGGA,09313
8.000,5212.2575,N,00007.0706,E,1,05,2.74,3.0,M,47.0,M,,*6F
$GPGSA,A,3,17,11,19,03,23,,,,,,,,2.89,2.74,0.
92*07
$GPRMC,093138.000,A,5212.2575,N,00007.0706,E,0.11,297.90,191118,,,A*6D
$GPVTG,297.90,T,,M,0.11,N,
0.20,K,A*3A

$PMTKLOG,0,1,a,31
,15,0,0,1,0,0*11
$PMTK001,183,3*3A
$PMTK869,2,1*36

$GPGGA,093139.000,5212.2575,N,00007.0705,E,1,05,2.74,3.0,M,47.0,M,,*6D
$GPGSA,A,3,17,11,19,03,23,,,
,,,,,2.89,2.74,0.92*07
$GPGSV,2,1,08,22,79,082,16,03,76,244,31,17,47,292,34,11,45,151,27*79
$GPGSV,2,2,08,1
4,32,052,,37,27,153,,19,25,315,35,23,24,184,26*74
$GPRMC,093139.000,A,5212.2575,N,00007.0705,E,0.16,
299.00,191118,,,A*6F
$GPVTG,299.00,T,,M,0.16,N,0.29,K,A*33
$PMTKLOG,0,1,a,31,15
,0,0,1,0,0*11
$PMTK001,183,3*3A
$PMTK869,2,1*36

$GPGGA,093140.000,5212.2576,N,00007.0705,E,1,05,2.74,3.0,M,47.0,M,,*60
$GPGSA,A,3,17,1
1,19,03,23,,,,,,,,2.89,2.74,0.92*07
$GPRMC,093140.000,A,5212.2576,N,00007.0705,E,0.16,338.50,191118,,,A*
6D
$GPVTG,338.50,T,,M,0.16,N,0.30,K,A*34

$PMTKLOG,0,1,a,31,15,0,
0,1,0,0*11
$PMTK001,183,3*3A
$PMTK869,2,1*36

$
GPGGA,093141.000,5212.2576,N,00007.0704,E,1,05,2.74,3.0,M,47.0,M,,*60
$GPGSA,A,3,17,11,19,03,23,,,,,,,,2.
89,2.74,0.92*07
$GPRMC,093141.000,A,5212.2576,N,00007.0704,E,0.15,351.21,191118,,,A*67
$GPVTG,351.2
1,T,,M,0.15,N,0.27,K,A*38

$PMTKLO
G,0,1,a,31,15,0,0,1,0,0*11
$PMTK001,183,3*3A
$PMTK869,2,1*36

$GPGGA,093142.000
,5212.2576,N,00007.0704,E,1,05,2.88,3.0,M,47.0,M,,*60
$GPGSA,A,3,17,11,19,03,23,,,,,,,,3.68,2.88,2.29*08

$GPRMC,093142.000,A,5212.2576,N,00007.0704,E,0.16,292.01,191118,,,A*6B
$GPVTG,292.01,T,,M,0.16,N,0
.30,K,A*31

$PMTKLOG,
0,1,a,31,15,0,0,1,0,0*11
$PMTK001,183,3*3A
$PMTK869,2,1*36

$GPGGA,093
143.000,5212.2577,N,00007.0703,E,1,05,2.74,3.0,M,47.0,M,,*64
$GPGSA,A,3,17,11,19,03,23,,,,,,,,2.89,2
.74,0.92*07
$GPRMC,093143.000,A,5212.2577,N,00007.0703,E,0.19,243.63,191118,,,A*6B
$GPVTG,243.63,T,,M,0.19,
N,0.36,K,A*30

$PMTKLOG
,0,1,a,31,15,0,0,1,0,0*11
$PMTK001,183,3*3A
$PMTK869,2,1*36

$GPGGA,093144.000,5212.2576,N,00007.0702,E,1,05,2.74,3.0,M,47.0,M,,*63
$GPGSA,A,3,17,11,19,03,23,,,,,,,,2
.89,2.74,0.92*07
$GPGSV,2,1,08,22,79,082,18,03,76,244,31,17,47,292,34,11,45,151,26*76
$GPGSV,2,2,08
,14,32,052,,37,27,153,,19,25,315,35,23,24,184,28*7A
$GPRMC,093144.000,A,5212.2576,N,00007.0702,E,0.20,24
0.49,191118,,,A*6D
$GPVTG,240.49,T,,M,0.20,N,0.38,K,A*3F
$PMTKLOG,0,1,a,31,15,0,0,1
,0,0*11
$PMTK001,183,3*3A
$PMTK869,2,1*36

$GPGGA,093145.000,5212.
2576,N,00007.0702,E,1,05,2.74,3.0,M,47.0,M,,*62
$GPGSA,A,3,17,11,19,03,23,,,,,,,,2.89,2.74,0.92*07
$GPR
MC,093145.000,A,5212.2576,N,00007.0702,E,0.24,235.45,191118,,,A*66
$GPVTG,235.45,T,,M,0.24,N,0.44,K,
A*3E

$PMTKLOG,0,1,a,31,15,0,0,1,0,0*11
$P
MTK001,183,3*3A
$PMTK869,2,1*36

$GPGGA,093146.000,5212.2576,N,00007.0701,E,1,05,
2.74,3.0,M,47.0,M,,*62
$GPGSA,A,3,17,11,19,03,23,,,,,,,,2.89,2.74,0.92*07
$GPRMC,093146.000,A,5212.2
576,N,00007.0701,E,0.30,229.68,191118,,,A*61
$GPVTG,229.68,T,,M,0.30,N,0.56,K,A*3A

$PMTKLOG,0,1
,a,31,15,0,0,1,0,0*11
$PMTK001,183,3*3A
$PMTK869,2,1*36

$GPGGA,093147.00
0,5212.2575,N,00007.0699,E,1,05,2.74,3.0,M,47.0,M,,*60
$GPGSA,A,3,17,11,19,03,23,,,,,,,,2.89,2.74,0.92*07
$
GPRMC,093147.000,A,5212.2575,N,00007.0699,E,0.28,251.22,191118,,,A*6B
$GPVTG,251.22,T,,M,0.28,N,
0.52,K,A*36

$PMTKLO
G,0,1,a,31,15,0,0,1,0,0*11
$PMTK001,183,3*3A
$PMTK869,2,1*36

$GPGGA,093148.000,5212.2575,N,000
07.0698,E,1,05,2.74,3.0,M,47.0,M,,*6E
$GPGSA,A,3,17,11,19,03,23,,,,,,,,2.89,2.74,0.92*07
$GPRMC,093148.000,
A,5212.2575,N,00007.0698,E,0.18,257.23,191118,,,A*61
$GPVTG,257.23,T,,M,0.18,N,0.33,K,A*35

$PMTKL
OG,0,1,a,31,15,0,0,1,0,0*11
$PMTK001,183,3*3A
$PMTK869,2,1*36

$GPGGA,0931
49.000,5212.2575,N,00007.0697,E,1,05,2.74,3.0,M,47.0,M,,*60
$GPGSA,A,3,17,11,19,03,23,,,,,,,,2.89,2.74,0
.92*07
$GPGSV,3,1,09,22,79,082,21,03,76,244,32,17,47,292,33,11,45,151,25*7B
$GPGSV,3,2,09,14,32,052
,,19,25,315,35,39,25,149,,23,24,184,28*7D
$GPGSV,3,3,09,12,01,359,*4D
$GPRMC,093149.000,A,5212.2575
,N,00007.0697,E,0.29,244.74,191118,,,A*6D
$GPVTG,244.74,T,,M,0.29,N,0.53,K,A*31

$PMTKLOG,0,1,a,
31,15,0,0,1,0,0*11
$PMTK001,183,3*3A
$PMTK869,2,1*36

$GPGGA,093150.000,5212.2574,
N,00007.0696,E,1,05,2.74,3.1,M,47.0,M,,*69
