$GPGGA,143744.000,5212.0904,N,00005.9630,E,2,10,0.83,9.9,M,47.0,M,0000,00
00*67
$GPGSA,A,3,06,07,05,29,09,23,30,02,13,16,,,1.52,0.83,1.27*08
$GPRMC,143744.000,A,5212.0904
,N,00005.9630,E,0.01,148.44,181118,,,D*66
$GPVTG,148.44,T,,M,0.01,N,0.02,K,D*36
$PMTKLOG,0,1,a,31,15,0
,0,1,0,0*11
$PMTK001,183,3*3A
$PMTK869,2,1*36

$GPGGA,143745.000,5212.0904,N,00005.9630,E,2,10,0.83,9.9,M,47.0
,M,0000,0000*66
$GPGSA,A,3,06,07,05,29,09,23,30,02,13,16,,,1.52,0.83,1.27*08
$GPRMC,143745.000,
A,5212.0904,N,00005.9630,E,0.00,29.32,181118,,,D*51
$GPVTG,29.32,T,,M,0.00,N,0.01,K,D*03
$PMTKLOG,0,1,a
,31,15,0,0,1,0,0*11
$PMTK001,183,3*3A
$PMTK869,2,1*36

$GPGGA,143746.000,5212.0904,N,00005.96
30,E,2,10,0.83,9.9,M,47.0,M,0000,0000*65
$GPGSA,A,3,06,07,05,29,09,23,30,02,13,16,,,1.52,0.83,1.27*0
8
$GPGSV,3,1,11,07,65,105,43,30,52,174,42,05,47,297,34,02,38,242,37*78
$GPGSV,3,2,11,09,37,078,36,4
9,30,173,34,06,18,196,35,13,16,255,30*70
$GPGSV,3,3,11,23,11,080,37,16,11,026,21,29,08,309,25*4A
$GPRMC,143746.
000,A,5212.0904,N,00005.9630,E,0.01,182.08,181118,,,D*6A
$GPVTG,182.08,T,,M,0.01,N,0.01,K,D*3B
$PMTKLOG
,0,1,a,31,15,0,0,1,0,0*11
$PMTK001,183,3*3A
$PMTK869,2,1*36

$GPGGA,143747.000,5212.0904,N,00005.9630,E,2,10,0.83,9.9,M,47.0,M,000
0,0000*64
$GPGSA,A,3,06,07,05,29,09,23,30,02,13,16,,,1.52,0.83,1.27*08
$GPRMC,143747.000,A,5212
.0904,N,00005.9630,E,0.02,7.20,181118,,,D*6E
$GPVTG,7.20,T,,M,0.02,N,0.03,K,D*3C
$PMTKLOG,0,1,a,31,
15,0,0,1,0,0*11
$PMTK001,183,3*3A
$PMTK869,2,1*36

$GPGGA,143748.000,5212.0904,N,00005.9630,E,2,10,0.83,9.9,M,47.0,M,0000,0000*6B

$GPGSA,A,3,06,07,05,29,09,23,30,02,13,16,,,1.52,0.83,1.27*08
$GPRMC,143748.000,A,5212.0904,N,00005.
9630,E,0.00,99.89,181118,,,D*57
$GPVTG,99.89,T,,M,0.00,N,0.00,K,D*09
$PMTKLOG,0,1,a,31,15,0,0,1
,0,0*11
$PMTK001,183,3*3A
$PMTK869,2,1*36

$GPGGA,143749.000,5212.0904,N,00005.9630,E,
2,10,0.83,9.9,M,47.0,M,0000,0000*6A
$GPGSA,A,3,06,07,05,29,09,23,30,02,13,16,,,1.51,0.83,1.27*0B
$GPRMC,143749.000,
A,5212.0904,N,00005.9630,E,0.01,312.71,181118,,,D*60
$GPVTG,312.71,T,,M,0.01,N,0.02,K,D*3D
$PMTKLOG,0,1,a,3
1,15,0,0,1,0,0*11
$PMTK001,183,3*3A
$PMTK869,2,1*36

$GPGGA,143750.000,5212.0904,N,00005.9630,E,2,10,0.83,9.9,M,47.0,M,0000,000
0*62
$GPGSA,A,3,06,07,05,29,09,23,30,02,13,16,,,1.51,0.83,1.27*0B
$GPRMC,143750.000,A,5212.0904,N,00005
.9630,E,0.03,265.51,181118,,,D*69
$GPVTG,265.51,T,,M,0.03,N,0.06,K,D*38
$PMTKLOG,0,1,a,31,15,0,0,1,0,0*
11
$PMTK001,183,3*3A
$PMTK869,2,1*36

$GPGGA,143751.000,5212.0904,N,00005.9630,E,2,10,0.83,9.9,M,47
.0,M,0000,0000*63
$GPGSA,A,3,06,07,05,29,09,23,30,02,13,16,,,1.52,0.83,1.27*08
$GPGSV,3,1,11,07,65,105,43,30,52,17
4,41,05,47,297,36,02,38,242,37*79
$GPGSV,3,2,11,09,37,078,43,49,30,173,33,06,18,196,36,13,16,255
,31*77
$GPGSV,3,3,11,23,11,080,36,16,11,026,32,29,08,309,24*48
$GPRMC,143751.000,A,5212.0904,N,00005.963
0,E,0.03,256.12,181118,,,D*6F
$GPVTG,256.12,T,,M,0.03,N,0.06,K,D*3F
$PMTKLOG,0,1,a,31,15,0,0,1,
0,0*11
$PMTK001,183,3*3A
$PMTK869,2,1*36

$GPGGA,143752.000,5212.0904,N,00005.9630,E,2,10,0.83,9.9,M,47.0,M,0000,0000*
60
$GPGSA,A,3,06,07,05,29,09,23,30,02,13,16,,,1.51,0.83,1.27*0B
$GPRMC,143752.000,A,5212.0904,N
,00005.9630,E,0.03,251.40,181118,,,D*6C
$GPVTG,251.40,T,,M,0.03,N,0.05,K,D*3C
$PMTKLOG,0,1,a,31,15,0,0,
1,0,0*11
$PMTK001,183,3*3A
$PMTK869,2,1*36

$GPGGA,143753.000,5212.0904,N,00005.9630,E,2,10,0.83,9.9,M,47.0,M,0000,0000*61
$GPGSA
,A,3,06,07,05,29,09,23,30,02,13,16,,,1.51,0.83,1.26*0A
$GPRMC,143753.000,A,5212.0904,N,00005.963
0,E,0.03,257.21,181118,,,D*6C
$GPVTG,257.21,T,,M,0.03,N,0.06,K,D*3E
$PMTKLOG,0,1,a,31,15,0,0,1,0,0*11
$PMTK001,183,3*3A
$
PMTK869,2,1*36

$GPGGA
,143754.000,5212.0904,N,00005.9630,E,2,10,0.83,9.9,M,47.0,M,0000,0000*66
$GPGSA,A,3,06,07,05,29,09,2
3,30,02,13,16,,,1.51,0.83,1.26*0A
$GPRMC,143754.000,A,5212.0904,N,00005.9630,E,0.01,80.25,181118,,,D*55
$GP
VTG,80.25,T,,M,0.01,N,0.03,K,D*05
$PMTKLOG,0,1,a,31,15,0,0,1,0,0*11
$PMTK001,183,3*3A
$PMTK869,2,1*36

$GPGGA,143755.000,5212.0904,N,00005.9630,E,2,10,0.83,9.9,M,47.0,M,0000,0000*67
$GPGSA,A,3,06,07,05,29,0
9,23,30,02,13,16,,,1.51,0.83,1.26*0A
$GPRMC,143755.000,A,5212.0904,N,00005.9630,E,0.01,58.14,181118,,,D*
53
$GPVTG,58.14,T,,M,0.01,N,0.03,K,D*02
$PMTKLOG,0,1,a,31,15,0,0,1,0,0*11
$PMTK001,183,3*3A
$PMTK869,
2,1*36

$GPGGA,143756.000,5212.0904,N,00005.
9630,E,2,10,0.83,9.9,M,47.0,M,0000,0000*64
$GPGSA,A,3,06,07,05,29,09,23,30,02,13,16,,,1.51,0.83,1.26*0A
$GP
GSV,3,1,11,07,65,105,44,30,52,174,42,05,47,297,36,02,38,242,37*7D
$GPGSV,3,2,11,09,37,078,43,49,30,173,33,06
,18,196,36,13,16,255,32*74
$GPGSV,3,3,11,23,11,080,36,16,11,026,32,29,08,309,24*48
$GPRMC,143756.000,A,521
2.0904,N,00005.9630,E,0.01,43.07,181118,,,D*58
$GPVTG,43.07,T,,M,0.01,N,0.01,K,D*08
$PMTKLOG,0,1,a,31,1
5,0,0,1,0,0*11
$PMTK001,183,3*3A
$PMTK869,2,1*36

$GPGGA,143757.000,5212.0904,N,00005.9630,E,2,10,0.83,9.9,M,47.0,M,0000,
0000*65
$GPGSA,A,3,06,07,05,29,09,23,30,02,13,16,,,1.51,0.83,1.26*0A
$GPRMC,143757.000,A,5212.0904,N,00
005.9630,E,0.00,45.02,181118,,,D*5B
$GPVTG,45.02,T,,M,0.00,N,0.00,K,D*0B
$PMTKLOG,0,1,a,31,15,0,0,1,0,0
*11
$PMTK001,183,3*3A
$PMTK869,2,1*36

$GPGGA,143758.000,5212.0904,N,00005.9630,E,2,10,0.83,9.9,M,47.0,M,0000,0000*6A
$G
PGSA,A,3,06,07,05,29,09,23,30,02,13,16,,,1.51,0.83,1.26*0A
$GPRMC,143758.000,A,5212.0904,N,00005.9630,E,0.01
,65.12,181118,,,D*56
$GPVTG,65.12,T,,M,0.01,N,0.01,K,D*08
$PMTKLOG,0,1,a,31,15,0,0,1,0,0*11
$PMTK0
01,183,3*3A
$PMTK869,2,1*36

$GPGGA,143759.000,5212.0904,N,00005.9630,E,2,10,0.83,
9.9,M,47.0,M,0000,0000*6B
$GPGSA,A,3,06,07,05,29,09,23,30,02,13,16,,,1.51,0.83,1.26*0A
$GPRMC,143759.00
0,A,5212.0904,N,00005.9630,E,0.00,31.34,181118,,,D*53
$GPVTG,31.34,T,,M,0.00,N,0.01,K,D*0C
$PMTKLOG
,0,1,a,31,15,0,0,1,0,0*11
$PMTK001,183,3*3A
$PMTK869,2,1*36

$GPGG
A,143800.000,5212.0904,N,00005.9630,E,2,10,0.83,9.9,M,47.0,M,0000,0000*68
$GPGSA,A,3,06,07,05,29,09,
23,30,02,13,16,,,1.51,0.83,1.26*0A
$GPRMC,143800.000,A,5212.0904,N,00005.9630,E,0.00,285.83,181118,,,D*61
$GPVTG,28
5.83,T,,M,0.00,N,0.01,K,D*3D
$PMTKLOG,0,1,a,31,15,0,0,1,0,0*11
$PMTK001,183,3*3A
$PMTK869,
2,1*36

$GPGGA,143801
.000,5212.0904,N,00005.9630,E,2,10,0.83,9.9,M,47.0,M,0000,0000*69
$GPGSA,A,3,06,07,05,29,09,23,30,02
,13,16,,,1.51,0.83,1.26*0A
$GPGSV,3,1,11,07,65,105,44,30,52,174,42,05,47,297,36,02,38,242,37*7D
$GPGSV,3,2,
11,09,37,078,43,49,30,173,33,06,18,196,36,13,16,255,32*74
$GPGSV,3,3,11,23,11,080,36,16,11,026,32,29,08,308,
24*49
$GPRMC,143801.000,A,5212.0904,N,00005.9630,E,0.00,355.41,181118,,,D*62
$GPVTG,355.41,T,,M,0.00,N,
0.00,K,D*3E
$PMTKLOG,0,1,a,31,15,0,0,1,0,0*11
$PMTK001,183,3*3A
$PMTK869,2,1*36

$GPGGA
,143802.000,5212.0904,N,00005.9630,E,2,10,0.83,9.9,M,47.0,M,0000,0000*6A
$GPGSA,A,3,06,07,05,29,09,23,30,02
,13,16,,,1.51,0.83,1.26*0A
$GPRMC,143802.000,A,5212.0904,N,00005.9630,E,0.00,342.89,181118,,,D*63
$G
PVTG,342.89,T,,M,0.00,N,0.01,K,D*3D
$PMTKLOG,0,1,a,31,15,0,0,1,0,0*11
$PMTK001,183,3*3A
$PMTK869,2,1*3
6

$GPGGA,143803.000,5212.0904,N,00005.9630,E,2,10,0.8
3,9.9,M,47.0,M,0000,0000*6B
$GPGSA,A,3,06,07,05,29,09,23,30,02,13,16,,,1.51,0.83,1.26*0A
$GPRMC,143803.000,A,5
212.0904,N,00005.9630,E,0.00,336.98,181118,,,D*61
$GPVTG,336.98,T,,M,0.00,N,0.01,K,D*3E
$PMTKLOG,0,1,a,31,15,0,
0,1,0,0*11
$PMTK001,183,3*3A
$PMTK869,2,1*36

$GPGGA,143804.000,5212.0904,N,
00005.9630,E,2,10,0.83,9.9,M,47.0,M,0000,0000*6C
$GPGSA,A,3,06,07,05,29,09,23,30,02,13,16,,,1.51,0.83,1.
26*0A
$GPRMC,143804.000,A,5212.0904,N,00005.9630,E,0.01,171.99,181118,,,D*67
$GPVTG,171.99,T,,M,
0.01,N,0.01,K,D*3F
$PMTKLOG,0,1,a,31,15,0,0,1,0,0*11
$PMTK001,183,3*3A
$PMTK869,2,1*36

$GPGGA,143805.000,5212.0904,N,00005.9630,E,2,10,0.83,9.9,M,47.0,M,000
0,0000*6D
$GPGSA,A,3,06,07,05,29,09,23,30,02,13,16,,,1.51,0.83,1.26*0A
$GPRMC,143805.000,A,5212.0904,N,000
05.9630,E,0.01,350.38,181118,,,D*6C
$GPVTG,350.38,T,,M,0.01,N,0.01,K,D*35
$PMTKLOG,0,1,a,31,15,0
,0,1,0,0*11
$PMTK001,183,3*3A
$PMTK869,2,1*36

$GPGGA,143806.000,5212.0904,N,00005.9630,E,2,10,
0.83,9.9,M,47.0,M,0000,0000*6E
$GPGSA,A,3,06,07,05,29,09,23,30,02,13,16,,,1.51,0.83,1.26*0A
$GPGSV,3,1,11,0
7,65,105,44,30,52,174,42,05,47,297,36,02,38,241,37*7E
$GPGSV,3,2,11,09,37,078,43,49,30,173,33,06,18,
196,36,13,16,255,32*74
$GPGSV,3,3,11,23,11,080,36,16,11,026,32,29,08,308,24*49
$GPRMC,143806.000,A,5212
.0904,N,00005.9630,E,0.00,0.00,181118,,,D*63
$GPVTG,0.00,T,,M,0.00,N,0.00,K,D*38
$PMTKLOG,0,1,a,31,
15,0,0,1,0,0*11
$PMTK001,183,3*3A
$PMTK869,2,1*36

$GPGGA,143
807.000,5212.0904,N,00005.9630,E,2,10,0.83,9.9,M,47.0,M,0000,0000*6F
$GPGSA,A,3,06,07,05,29,09,23,30,02,13,1
6,,,1.51,0.83,1.26*0A
$GPRMC,143807.000,A,5212.0904,N,00005.9630,E,0.01,289.29,181118,,,D*6B
$G
PVTG,289.29,T,,M,0.01,N,0.01,K,D*30
$PMTKLOG,0,1,a,31,15,0,0,1,0,0*11
$PMTK001,183,3*3A
$PMTK869,2,1*3
6

$GPGGA,143808.000,5212.0904,N,00005.9630,E,2,10,0.83,9.9,M,47.0,M,0000,0000*60
$GPGS
A,A,3,06,07,05,29,09,23,30,02,13,16,,,1.51,0.83,1.26*0A
$GPRMC,143808.000,A,5212.0904,N,00005.9630,E
,0.00,0.00,181118,,,D*6D
$GPVTG,0.00,T,,M,0.00,N,0.00,K,D*38
$PMTKLOG,0,1,a,31,15,0,0,1,0,0*11
$PM
TK001,183,3*3A
$PMTK869,2,1*36

$GPGGA,143809.000,
5212.0904,N,00005.9630,E,2,10,0.83,9.9,M,47.0,M,0000,0000*61
$GPGSA,A,3,06,07,05,29,09,23,30,02,13,16,,,1.51
,0.83,1.26*0A
$GPRMC,143809.000,A,5212.0904,N,00005.9630,E,0.00,118.10,181118,,,D*65
$GPVTG,118.10,
T,,M,0.00,N,0.01,K,D*30
$PMTKLOG,0,1,a,31,15,0,0,1,0,0*11
$PMTK001,183,3*3A
$PMTK869,2,1*36

$GPGGA,143810.000,5212.0904,N,00005.9630,E,2,10,0.83,9.9,M,47.0,M,0000,0000*69
$GPGSA
,A,3,06,07,05,29,09,23,30,02,13,16,,,1.51,0.83,1.26*0A
$GPRMC,143810.000,A,5212.0904,N,00005.9630,E,0.01
,281.68,181118,,,D*60
$GPVTG,281.68,T,,M,0.01,N,0.02,K,D*3E
$PMTKLOG,0,1,a,31,15,0,0,1,0,0*11
$PMT
K001,183,3*3A
$PMTK869,2,1*36

$GPGGA,143811.000,5212.0904,N,00005.9630,E,2,10,0.83,9.9,M,47.0,M,0
000,0000*68
$GPGSA,A,3,06,07,05,29,09,23,30,02,13,16,,,1.51,0.83,1.26*0A
$GPGSV,3,1,11,07,65,105,44,30,
52,174,42,05,47,296,36,02,38,241,37*7F
$GPGSV,3,2,11,09,37,078,43,49,30,173,33,06,18,196,36,13,16,255,32*74

$GPGSV,3,3,11,23,11,080,36,16,11,026,31,29,08,308,22*4C
$GPRMC,143811.000,A,5212.0904,N,00005.9630,E,0.
01,221.05,181118,,,D*60
$GPVTG,221.05,T,,M,0.01,N,0.01,K,D*3C
$PMTKLOG,0,1,a,31,15,0,0,1,0,0*11
$PMTK0
01,183,3*3A
$PMTK869,2,1*36

$GPGGA,143812.000,5212.0904,N,00005.9630,E,2,10,0.83,9.8,M,47.0,M,0000,0000*
6A
$GPGSA,A,3,06,07,05,29,09,23,30,02,13,16,,,1.51,0.83,1.26*0A
$GPRMC,143812.000,A,5212.0904,N,00005.9630,
E,0.01,279.13,181118,,,D*69
$GPVTG,279.13,T,,M,0.01,N,0.02,K,D*35
$PMTKLOG,0,1,a,31,15,0,0,1
,0,0*11
$PMTK001,183,3*3A
$PMTK869,2,1*36

$GPGGA,143813.000,5212.0904,N,00005.9630,E,2,10,0.83,9.8,M,47.0,M,0000,0000*6B
$GPGSA,A,3,06,07,
05,29,09,23,30,02,13,16,,,1.51,0.83,1.26*0A
$GPRMC,143813.000,A,5212.0904,N,00005.9630,E,0.02,310.02
,181118,,,D*65
$GPVTG,310.02,T,,M,0.02,N,0.03,K,D*39
$PMTKLOG,0,1,a,31,15,0,0,1,0,0*11
$PMTK001,183,3*3A

$PMTK869,2,1*36

$G
PGGA,143814.000,5212.0904,N,00005.9630,E,2,10,0.83,9.8,M,47.0,M,0000,0000*6C
$GPGSA,A,3,06,07,05,29,09,2
3,30,02,13,16,,,1.51,0.83,1.26*0A
$GPRMC,143814.000,A,5212.0904,N,00005.9630,E,0.01,320.40,181118,,,D*64
$G
PVTG,320.40,T,,M,0.01,N,0.01,K,D*3D
$PMTKLOG,0,1,a,31,15,0,0,1,0,0*11
$PMTK001,183,3*3A
$PMTK869,2,1*3
6

$GPGGA,143815.000,5212.0904,N,00005.9630,E,2,10,0.83,9.8,M,47.0,M,0000,0000*6D
$GPGSA,A,3,06,07
,05,29,09,23,30,02,13,16,,,1.51,0.83,1.26*0A
$GPRMC,143815.000,A,5212.0904,N,00005.9630,E,0.00,290.46,181118,,,
D*68
$GPVTG,290.46,T,,M,0.00,N,0.00,K,D*31
$PMTKLOG,0,1,a,31,15,0,0,1,0,0*11
$PMTK001,183,3*3A

$PMTK869,2,1*36

$GPGGA,143816.000,5212.0904,N,00005.9630,E,2,10,0.83,9.8,M,47.0,M,0000
,0000*6E
$GPGSA,A,3,06,07,05,29,09,23,30,02,13,16,,,1.51,0.83,1.26*0A
$GPGSV,3,1,11,07,65,105,44,30,52,174,
42,05,47,296,36,02,38,241,37*7F
$GPGSV,3,2,11,09,37,078,43,49,30,173,34,06,18,196,36,13,16,255,32*73
$G
PGSV,3,3,11,23,11,080,36,16,11,026,31,29,08,308,21*4F
$GPRMC,143816.000,A,5212.0904,N,00005.9630
,E,0.01,133.66,181118,,,D*62
$GPVTG,133.66,T,,M,0.01,N,0.01,K,D*39
$PMTKLOG,0,1,a,31,15,0,0,1,0,0*11
$PMTK001,
183,3*3A
$PMTK869,2,1*36

$GPGGA,143817.000,5212.0904,N,00005.9630,E,2,10,0.83,9.8,M,47.0,M,0000,0000*6F
$GPGSA,A,3,06,07
,05,29,09,23,30,02,13,16,,,1.51,0.83,1.26*0A
$GPRMC,143817.000,A,5212.0904,N,00005.9630,E,0.01,19
9.54,181118,,,D*62
$GPVTG,199.54,T,,M,0.01,N,0.01,K,D*38
$PMTKLOG,0,1,a,31,15,0,0,1,0,0*11
$PM
TK001,183,3*3A
$PMTK869,2,1*36

$GPGGA,143818.000,5212.0904,N,00005.9630,E,2,10,0.83,9.8,M,47.0,M,0000,0000*60
$
GPGSA,A,3,06,07,05,29,09,23,30,02,13,16,,,1.51,0.83,1.26*0A
$GPRMC,143818.000,A,5212.0904,N,00005.9630,E,
0.00,126.04,181118,,,D*6D
$GPVTG,126.04,T,,M,0.00,N,0.00,K,D*39
$PMTKLOG,0,1,a,31,15,0,0,1,0,0*11
$PMT
K001,183,3*3A
$PMTK869,2,1*36

$GPGGA,143819.000,5212.0904,N,00
005.9630,E,2,10,0.83,9.8,M,47.0,M,0000,0000*61
$GPGSA,A,3,06,07,05,29,09,23,30,02,13,16,,,1.51,0.83,1.26
*0A
$GPRMC,143819.000,A,5212.0904,N,00005.9630,E,0.00,252.34,181118,,,D*6F
$GPVTG,252.34,T,,M,0.00,
N,0.01,K,D*3B
$PMTKLOG,0,1,a,31,15,0,0,1,0,0*11
$PMTK001,183,3*3A
$PMTK869,2,1*36

$GPGGA,143820.000,5212.0904,N,00005.9630,E,2,10,0.83
,9.8,M,47.0,M,0000,0000*6B
$GPGSA,A,3,06,07,05,29,09,23,30,02,13,16,,,1.51,0.83,1.26*0A
$GPRMC,143820.000,A
,5212.0904,N,00005.9630,E,0.01,70.81,181118,,,D*58
$GPVTG,70.81,T,,M,0.01,N,0.02,K,D*05
$PMTKLOG,0,
1,a,31,15,0,0,1,0,0*11
$PMTK001,183,3*3A
$PMTK869,2,1*36

$GPGGA,143821.000,5212.0904,N,00005.9630,E,2,10,0.83
,9.8,M,47.0,M,0000,0000*6A
$GPGSA,A,3,06,07,05,29,09,23,30,02,13,16,,,1.51,0.83,1.26*0A
$GPGSV,3,1,11,07,65
,105,44,30,52,174,42,05,47,296,36,02,38,241,37*7F
$GPGSV,3,2,11,09,37,078,43,49,30,173,34,06,18,196,
36,13,16,255,32*73
$GPGSV,3,3,11,23,11,080,36,16,11,026,31,29,08,308,22*4C
$GPRMC,143821.000,A,5
212.0904,N,00005.9630,E,0.00,118.23,181118,,,D*6F
$GPVTG,118.23,T,,M,0.00,N,0.01,K,D*30
$PMTKLOG,0,1,a,
31,15,0,0,1,0,0*11
$PMTK001,183,3*3A
$PMTK869,2,1*36

$GPGGA,143822.000,5212.0904,N,00005.9630,E,2,10,
0.83,9.8,M,47.0,M,0000,0000*69
$GPGSA,A,3,06,07,05,29,09,23,30,02,13,16,,,1.51,0.83,1.26*0A
$GPRMC,1438
22.000,A,5212.0904,N,00005.9630,E,0.00,226.60,181118,,,D*65
$GPVTG,226.60,T,,M,0.00,N,0.00,K,D*38
$PMTK
LOG,0,1,a,31,15,0,0,1,0,0*11
$PMTK001,183,3*3A
$PMTK869,2,1*36

$GPGGA,
143823.000,5212.0904,N,00005.9630,E,2,10,0.83,9.8,M,47.0,M,0000,0000*68
$GPGSA,A,3,06,07,05,29,09,23,30,02,13,16
,,,1.51,0.83,1.26*0A
$GPRMC,143823.000,A,5212.0904,N,00005.9630,E,0.00,26.71,181118,,,D*56

$GPVTG,26.71,T,,M,0.00,N,0.01,K,D*0B
$PMTKLOG,0,1,a,31,15,0,0,1,0,0*11
$PMTK001,183,3*3A
$PMTK869,2,1*36

$GPGGA,143824.000,5212.0904,N,00005.9630,E,2,10,0.83,9.8,M,47.0,M,0000,0000*6F
$GPGSA,
A,3,06,07,05,29,09,23,30,02,13,16,,,1.51,0.83,1.26*0A
$GPRMC,143824.000,A,5212.0904,N,00005.9630,E,0
.00,327.32,181118,,,D*64
$GPVTG,327.32,T,,M,0.00,N,0.01,K,D*3E
$PMTKLOG,0,1,a,31,15,0,0,1,0,0*11
$PMTK001,
183,3*3A
$PMTK869,2,1*36

$GPGGA,143825.000,5212.0904,N,00005.9630,E,2,10,0.83,9.8,M,47.0,M,0000,0000*
6E
$GPGSA,A,3,06,07,05,29,09,23,30,02,13,16,,,1.51,0.83,1.26*0A
$GPRMC,143825.000,A,5212.0904,N,00005.9
630,E,0.00,241.01,181118,,,D*64
$GPVTG,241.01,T,,M,0.00,N,0.01,K,D*3F
$PMTKLOG,0,1,a,31,15,0,0,1,0,0*11
$P
MTK001,183,3*3A
$PMTK869,2,1*36

$GPGGA,143826.000,5212.0904,N,00005.9630,E,2,10
,0.83,9.8,M,47.0,M,0000,0000*6D
$GPGSA,A,3,06,07,05,29,09,23,30,02,13,16,,,1.51,0.83,1.26*0A

$GPGSV,3,1,11,07,65,105,44,30,52,174,42,05,47,296,36,02,38,241,37*7F
$GPGSV,3,2,11,09,37,078,43,49,30,173,3
4,06,18,196,36,13,16,255,32*73
$GPGSV,3,3,11,23,11,080,35,16,11,026,31,29,08,308,24*49
$GPRMC,14382
6.000,A,5212.0904,N,00005.9630,E,0.00,276.03,181118,,,D*61
$GPVTG,276.03,T,,M,0.00,N,0.00,K,D*38
$P
MTKLOG,0,1,a,31,15,0,0,1,0,0*11
$PMTK001,183,3*3A
$PMTK869,2,1*36

$GPGGA,143827.000,5212.0905,N,00005.9630,E,2
,10,0.83,9.8,M,47.0,M,0000,0000*6D
$GPGSA,A,3,06,07,05,29,09,23,30,02,13,16,,,1.51,0.83,1.26*0A
$GP
RMC,143827.000,A,5212.0905,N,00005.9630,E,0.00,0.00,181118,,,D*61
$GPVTG,0.00,T,,M,0.00,N,0.00,K,D*38
$
PMTKLOG,0,1,a,31,15,0,0,1,0,0*11
$PMTK001,183,3*3A
$PMTK869,2,1*36

$GPGGA,14
3828.000,5212.0905,N,00005.9630,E,2,10,0.83,9.8,M,47.0,M,0000,0000*62
$GPGSA,A,3,06,07,05,29,09,23,3
0,02,13,16,,,1.51,0.83,1.26*0A
$GPRMC,143828.000,A,5212.0905,N,00005.9630,E,0.00,0.00,181118,,,D*6E

$GPVTG,0.00,T,,M,0.00,N,0.00,K,D*38
$PMTKLOG,0,1,a,31,15,0,0,1,0,0*11
$PMTK001,183,3*3A
$PMTK869,2,1*3
6

$GPGGA,143829.000,5212.0905,N,00005.963
0,E,2,10,0.83,9.8,M,47.0,M,0000,0000*63
$GPGSA,A,3,06,07,05,29,09,23,30,02,13,16,,,1.51,0.83,1.26*0A
$GPRMC
,143829.000,A,5212.0905,N,00005.9630,E,0.01,310.15,181118,,,D*68
$GPVTG,310.15,T,,M,0.01,N,0.01,K,D*3E

$PMTKLOG,0,1,a,31,15,0,0,1,0,0*11
$PMTK001,183,3*3A
$PMTK869,2,1*36

$GPGGA,143830.000,5212.0905,N,00005.9630,E,2,10,0.83,9.8,M,47.0,M,0000,0000*6B
$GPGSA,A,3,06,07,
05,29,09,23,30,02,13,16,,,1.51,0.83,1.26*0A
$GPRMC,143830.000,A,5212.0905,N,00005.9630,E,0.00,354.18
,181118,,,D*6C
$GPVTG,354.18,T,,M,0.00,N,0.00,K,D*33
$PMTKLOG,0,1,a,31,15,0,0,1,0,0*11
$PMTK001,183,3*3A

$PMTK869,2,1*36

$GPGGA,143831.000,5212.0905,N,00005.9630,E,2,10
,0.83,9.8,M,47.0,M,0000,0000*6A
$GPGSA,A,3,06,07,05,29,09,23,30,02,13,16,,,1.51,0.83,1.26*0A
$GPGSV
,3,1,11,07,65,105,44,30,52,174,42,05,47,296,36,02,38,241,37*7F
$GPGSV,3,2,11,09,37,078,43,49,30,173,
34,06,18,196,36,13,16,255,32*73
$GPGSV,3,3,11,23,11,080,35,16,11,026,31,29,08,308,25*48
$GPRMC,143831.000,A
,5212.0905,N,00005.9630,E,0.00,2.58,181118,,,D*69
$GPVTG,2.58,T,,M,0.00,N,0.00,K,D*37
$PMTKLOG,
0,1,a,31,15,0,0,1,0,0*11
$PMTK001,183,3*3A
$PMTK869,2,1*36

$GPGGA,143832.000,5212.0905,N,00005.9630,E,2,10,0.83,9.8,M,47.0,M,0000,0000*69
$
GPGSA,A,3,06,07,05,29,09,23,30,02,13,16,,,1.51,0.83,1.26*0A
$GPRMC,143832.000,A,5212.0905,N,00005.96
30,E,0.00,197.96,181118,,,D*65
$GPVTG,197.96,T,,M,0.00,N,0.01,K,D*39
$PMTKLOG,0,1,a,31,15,0
,0,1,0,0*11
$PMTK001,183,3*3A
$PMTK869,2,1*36

$GPGGA,143833.000,5212.0905,N,00005.9630,E,2,10,0.83,9.8,M,47.0,M,0000,0000*68
$GPGSA,A,3,06,07,05,2
9,09,23,30,02,13,16,,,1.51,0.83,1.26*0A
$GPRMC,143833.000,A,5212.0905,N,00005.9630,E,0.01,309.13,181118,
,,D*6D
$GPVTG,309.13,T,,M,0.01,N,0.01,K,D*30
$PMTKLOG,0,1,a,31,15,0,0,1,0,0*11
$PMTK001,183,3*
3A
$PMTK869,2,1*36

$GPGGA,143834.000,5212.0905,N,00005.9630,E,2,10,0.83,9.8,M,47.0,M,0000,0000*6F

$GPGSA,A,3,06,07,05,29,09,23,30,02,13,16,,,1.51,0.83,1.26*0A
$GPRMC,143834.000,A,5212.0905,N,000
05.9630,E,0.00,278.06,181118,,,D*68
$GPVTG,278.06,T,,M,0.00,N,0.01,K,D*32
$PMTKLOG,0,1,a,31,15,0,0,
1,0,0*11
$PMTK001,183,3*3A
$PMTK869,2,1*36

$GPGGA,143835.000,5212.0905,N,00005.9629,E,2,10,0.83,9.8,M,47.0,M,0
000,0000*66
$GPGSA,A,3,06,07,05,29,09,23,30,02,13,16,,,1.51,0.83,1.26*0A
$GPRMC,143835.000,A,5212.0905,N,00005.9629
,E,0.00,326.54,181118,,,D*6C
$GPVTG,326.54,T,,M,0.00,N,0.01,K,D*3F
$PMTKLOG,0,1,a,31,15,0,0,1,0,0*11
$PMTK001,
183,3*3A
$PMTK869,2,1*36

$GPGGA,143836.000,5212.0905,N,00005.9629,E,2,10,0.83,9.8,M,47.0,M,0000,0000*6
5
$GPGSA,A,3,06,07,05,29,09,23,30,02,13,16,,,1.51,0.83,1.26*0A
$GPGSV,3,1,11,07,65,105,44,30,52,174,42,05,47,296,3
6,02,38,241,37*7F
$GPGSV,3,2,11,09,37,078,43,49,30,173,34,06,18,196,36,13,16,255,32*73
$GPGS
V,3,3,11,23,11,080,35,16,11,026,31,29,08,308,26*4B
$GPRMC,143836.000,A,5212.0905,N,00005.9629,E,0.00,238
.45,181118,,,D*61
$GPVTG,238.45,T,,M,0.00,N,0.00,K,D*30
$PMTKLOG,0,1,a,31,15,0,0,1,0,0*11
$PMT
K001,183,3*3A
$PMTK869,2,1*36

$GPGGA,143837.000,5212.0905,N,00005.9629,E,2,10,0.83,9.8,M,47.0,M,0000,0000*64
$GPGSA,A,3,06,07,05,29,09,23,30,02,
13,16,,,1.51,0.83,1.26*0A
$GPRMC,143837.000,A,5212.0905,N,00005.9629,E,0.00,31.86,181118,,,D*54

$GPVTG,31.86,T,,M,0.00,N,0.01,K,D*05
$PMTKLOG,0,1,a,31,15,0,0,1,0,0*11
$PMTK001,183,3*3A
$PMTK869,2,1*36


$GPGGA,143838.000,5212.0905,N,00005.9629,E,2,10,0.83,9.8,M,47.0,M,0000,0000*6B
$GPGSA,A,3,06,07,05,29,09,23,30,02,13,1
6,,,1.51,0.83,1.26*0A
$GPRMC,143838.000,A,5212.0905,N,00005.9629,E,0.00,181.64,181118,,,D*6D
$GPVTG,181.64,
T,,M,0.00,N,0.00,K,D*32
$PMTKLOG,0,1,a,31,15,0,0,1,0,0*11
$PMTK001,183,3*3A
$PMTK869,2,1*36

$GPGGA,143839.000,5212.0905,N,00005.9629,E,2,10,0.83,9.8,M,47.0,M,0
000,0000*6A
$GPGSA,A,3,06,07,05,29,09,23,30,02,13,16,,,1.51,0.83,1.26*0A
$GPRMC,143839.000,A,5212.0
905,N,00005.9629,E,0.00,181.99,181118,,,D*6E
$GPVTG,181.99,T,,M,0.00,N,0.00,K,D*30
$PMTKLOG,0,1,a,31,15,0,0
,1,0,0*11
$PMTK001,183,3*3A
$PMTK869,2,1*36

$GPGGA,143840.000,5212.0905,N,00005.9629,E,2,10,0.83,9.8,M,47.0,M,0000,0000*64
$GPGSA,A,3,06,07
,05,29,09,23,30,02,13,16,,,1.51,0.83,1.26*0A
$GPRMC,143840.000,A,5212.0905,N,00005.9629,E,0.00,300.63,18
1118,,,D*6E
$GPVTG,300.63,T,,M,0.00,N,0.01,K,D*3F
$PMTKLOG,0,1,a,31,15,0,0,1,0,0*11
$PMTK001,183,3*3A

$PMTK869,2,1*36

$GPGGA,143841.000,5212.0905,N,00005.9629,E,2,10,0.83,9.8,M,47.0,M,0000,0000*65
$GPGSA,A,3,06,0
7,05,29,09,23,30,02,13,16,,,1.51,0.83,1.26*0A
$GPGSV,3,1,11,07,65,105,44,30,52,174,42,05,47,296,37,0
2,38,241,37*7E
$GPGSV,3,2,11,09,37,078,43,49,30,173,34,06,18,196,36,13,16,255,32*73
$GPGSV,3,3,11,23,11,
080,35,16,11,026,31,29,08,308,24*49
$GPRMC,143841.000,A,5212.0905,N,00005.9629,E,0.00,121.86,181118,,,D*65
$GPVTG,
121.86,T,,M,0.00,N,0.01,K,D*35
$PMTKLOG,0,1,a,31,15,0,0,1,0,0*11
$PMTK001,183,3*3A
$PMTK869,2,1*36

$GPGGA,143842.000,5212.0905,N,00005.9629,E,2,10,0.83,9.8,M,47.0,M,0000,0000*66

$GPGSA,A,3,06,07,05,29,09,23,30,02,13,16,,,1.50,0.83,1.25*08
$GPRMC,143842.000,A,5212.0905,N,00005.9629
,E,0.00,353.87,181118,,,D*60
$GPVTG,353.87,T,,M,0.00,N,0.01,K,D*33
$PMTKLOG,0,1,a,31,15,0,0,1,0,0*11
$PMT
K001,183,3*3A
$PMTK869,2,1*36

$GPGGA,143843.000,5212.0905,N,00005.9629,E,2,10,0.83,9.8,M,47.0,M,0000,0000*67
$GPGSA,A,3,06,07,05,29,09,23,30,02,13,16,,,1.51,0.83,1.2
6*0A
$GPRMC,143843.000,A,5212.0905,N,00005.9629,E,0.00,289.44,181118,,,D*68
$GPVTG,289.44,T,,M,0.00,
N,0.00,K,D*3B
$PMTKLOG,0,1,a,31,15,0,0,1,0,0*11
$PMTK001,183,3*3A
$PMTK869,2,1*36

$GPGGA,143844.000,5212.0905,N,00005.9629,E,2,10,0.83,9.8,M,47.0,M,0000,0000*60
$GPGSA,A,3,06,07,05,29,09,23,30,02,13,16,,,1.50,0.83,1.25*08
$GPRMC,143844.00
0,A,5212.0905,N,00005.9629,E,0.00,304.00,181118,,,D*6B
$GPVTG,304.00,T,,M,0.00,N,0.01,K,D*3E
$PMTKLOG,0
,1,a,31,15,0,0,1,0,0*11
$PMTK001,183,3*3A
$PMTK869,2,1*36

$GPGGA,143845.000,5212.0905,N,00005.9629,E,2,10,0.83,9.8,M,47.0,M,0000,0000*61
$GPGSA,A,3,06,07,05,29,09,23,30,02,
13,16,,,1.50,0.83,1.25*08
$GPRMC,143845.000,A,5212.0905,N,00005.9629,E,0.01,68.11,181118,,,D*52
$GPVTG,68.11,T,
,M,0.01,N,0.01,K,D*06
$PMTKLOG,0,1,a,31,15,0,0,1,0,0*11
$PMTK001,183,3*3A
$PMTK869,2,1*36

$GPGGA,143846.000,5212.0905,N,00005.9629,E,2,10,0.83,9.8,M,47.0,M,0000,0000*62
$GPGSA,A,3,06,07,05,29,09,23,30,02,13,16,,
,1.50,0.83,1.25*08
$GPGSV,3,1,11,07,65,104,44,30,52,174,42,05,47,296,37,02,38,241,37*7F
$GPGSV,3,2,11,0
9,37,078,43,49,30,173,34,06,17,196,36,13,16,255,32*7C
$GPGSV,3,3,11,23,11,080,35,16,11,026,31,29,08,308,
18*46
$GPRMC,143846.000,A,5212.0905,N,00005.9629,E,0.00,210.41,181118,,,D*68
$GPVTG,210.41,T,,M,0.00,N,0.00
,K,D*3E
$PMTKLOG,0,1,a,31,15,0,0,1,0,0*11
$PMTK001,183,3*3A
$PMTK869,2,1*36

$GPGGA,143847.000,5212.0905,N,00005.9629,E,2,10,0.83,9.8,M,47.0,M,0000,0000*63
$GPGSA,A,3,06,07,05,29,09,23,30,02,13,16,,,1.50,0.83,1.25*08

$GPRMC,143847.000,A,5212.0905,N,00005.9629,E,0.00,212.57,181118,,,D*6C
$GPVTG,212.57,T,,M,0.00,N
,0.01,K,D*3A
$PMTKLOG,0,1,a,31,15,0,0,1,0,0*11
$PMTK001,183,3*3A
$PMTK869,2,1*36

$GPGGA,143848.000,5212.0905,N,00005.9629,E,2,10,0.83,9.8,M,47.0,M,0000,0000*6C
$GPGSA,A,3,06,07,05,29,09,23,30,02,13,16,,,1.50,0.83,1.25*08
$GPRMC,143848.000,A,5212.0905,N,00005.9629,E,0.01,1
2.46,181118,,,D*50
$GPVTG,12.46,T,,M,0.01,N,0.01,K,D*09
$PMTKLOG,0,1,a,31,15,0,0,1,0,0*11
$PMTK001,183,3*3
A
$PMTK869,2,1*36

$GPGGA,143849.000,5212.0905,N,00005.9629,E,2,10,0.83,9.8,M,47.0,M,0000,0000*6D
$GPGSA,A,3,06,07,05,29,09,23,30,02,13,16,,,1.50,0.83,1.25
*08
$GPRMC,143849.000,A,5212.0905,N,00005.9629,E,0.01,177.23,181118,,,D*60
$GPVTG,177.23,T,,M,0.01,
N,0.02,K,D*3B
$PMTKLOG,0,1,a,31,15,0,0,1,0,0*11
$PMTK001,183,3*3A
$PMTK869,2,1*36

$GPGGA,143850.000,5212.0905,N,00005.9629,E,2,10,0.83,9.8,M,47.0,M,0000,0000*65
$GPGSA,A,3,06,07,05,29,09,23,30,02,13,16,,,1.50,0.83,1.25*08
$GPRMC,143850.000,A,5212.0905,N,00005.9629,E,0.01,272.88,181118,,,
D*6F
$GPVTG,272.88,T,,M,0.01,N,0.02,K,D*3C

$PMTKLOG,0,1,a,31,15,0,0,1,0,0*11
$PMTK001,183,3*3A
$PMTK869,2,1*36

$GPGGA,143851.000,5212.0905,N,00005.9629,E,2,10,0.83,9.8,M,47.0,M,0000,0000*64
$GPGSA,A,3,06,07,05,29,09,23,30,02,13,16,,,1.50,0.83,1.25*08
$GPGSV,3,1,11
,07,65,104,44,30,52,174,42,05,47,296,37,02,38,241,37*7F
$GPGSV,3,2,11,09,37,079,43,49,30,173,34,06,17,19
6,36,13,16,255,32*7D
$GPGSV,3,3,11,23,11,080,35,16,11,026,31,29,08,308,14*4A
$GPRMC,143851.000,A,5212.0905,
N,00005.9629,E,0.01,304.46,181118,,,D*6C
$GPVTG,304.46,T,,M,0.01,N,0.02,K,D*3E
$PMTKLOG,0,1,a,31,15
,0,0,1,0,0*11
$PMTK001,183,3*3A
$PMTK869,2,1*36

$GPGGA,143852.000,5212.0905,N,00005.9629,E,2,10,0.83,9.8,M,47.0,M,0000,0000*67
$GPGSA,A,3,06,07,05,29,09,23,30,02,13,16,,,1.50,0.83,1.25*08
$GPRMC,143852.000,A,5212.0905,N,00005.9629,E,0.01,235.28,1811
18,,,D*64
$GPVTG,235.28,T,,M,0.01,N,0.01,K,D*36
$PMTKLOG,0,1,a,31,15,0,0,1,0,0*11
$PMTK001,183,3*3A
$
PMTK869,2,1*36

$GPGG
A,143853.000,5212.0905,N,00005.9629,E,2,10,0.83,9.8,M,47.0,M,0000,0000*66
$GPGSA,A,3,06,07,05,29,09,23,30,02,13,16,,,1.50,0.83,1.25*08
$GPRMC,143853.000,A,5212.0905,N,00005.9629,E,0.01,288.46,181118,,,D*6B
$GPVT
G,288.46,T,,M,0.01,N,0.01,K,D*38
$PMTKLOG,0,1,a,31,15,0,0,1,0,0*11
$PMTK001,183,3*3A
$PMTK869,2,1*36

$GPGGA,143854.000,5212.0905,N,00005.9629,E
,2,10,0.83,9.8,M,47.0,M,0000,0000*61
$GPGSA,A,3,06,07,05,29,09,23,30,02,13,16,,,1.50,0.83,1.25*08
$GPRMC,143854.000,A,5212.0905,N,00005.9629,E,0.00,31.50,181118,,,D*
5A
$GPVTG,31.50,T,,M,0.00,N,0.00,K,D*0F
$PMTKLOG,0,1,a,31,15,0,0,1,0,0*11
$PMTK001,183,3*3A
$PMTK869,
2,1*36

$GPGGA,143855.000,5212.0905,N,00005.9629,E,2,10,0.83,9.8,M,47.0,M,0000,0000
*60
$GPGSA,A,3,06,07,05,29,09,23,30,02,13,16,,,1.50,0.83,1.25*08
$GPRMC,143855.000,A,5212.0905,N,00005.9629,E,0.00,352.21,181118,,
,D*6B
$GPVTG,352.21,T,,M,0.00,N,0.00,K,D*3F
$PMTKLOG,0,1,a,31,15,0,0,1,0,0*11
$PMTK001,183,3*3A
$PMTK869,
2,1*36

$GPGGA,14385
6.000,5212.0905,N,00005.9629,E,2,10,0.83,9.8,M,47.0,M,0000,0000*63
$GPGSA,A,3,06,07,05,29,09,23,30,02,13,16,,,1.50,0.83,1.25*08
$GPGSV,3,1,11,07,65,104,44,30,52,174,42,05,47,296,37,02,38,241,37*7F
$GPGSV,3,2,11,
09,37,079,43,49,30,173,34,06,17,196,35,13,16,255,32*7E
$GPGSV,3,3,11,23,11,080,32,16,11,026,30,2
9,08,308,22*49
$GPRMC,143856.000,A,5212.0905,N,00005.9629,E,0.00,274.49,181118,,,D*63
$GPVTG,274.49,T,,
M,0.00,N,0.01,K,D*35
$PMTKLOG,0,1,a,31,15,0,0,1,0,0*11
$PMTK001,183,3*3A
$PMTK869,2,1*36

$GPGGA,14385
7.000,5212.0905,N,00005.9629,E,2,10,0.83,9.8,M,47.0,M,0000,0000*62
$GPGSA,A,3,06,07,05,29,09,23,30,02,13,16,,,1.50,0.83,1.25*08
$GPRMC,143857.000,A,5212.0905,N,00005.9629,E,0.00,195.59,181118,,,D*6F
$GPVTG,195.59,T,,M,
0.00,N,0.00,K,D*39
$PMTKLOG,0,1,a,31,15,0,0,1,0,0*11
$PMTK001,183,3*3A
$PMTK869,2,1*36

$GPGGA,143858.000,5
212.0905,N,00005.9629,E,2,10,0.83,9.8,M,47.0,M,0000,0000*6D
$GPGSA,A,3,06,07,05,29,09,23,30,02,13,16,,,1.50,0.83,1.25*08
$GPRMC,143858.000,A,5212.0905,N,00005.9629,E,0.00,262.38,181118,,,D*6C
$GPVTG,262.38,T,,M,0.00,N,0.01,K,D*34
$PMT
KLOG,0,1,a,31,15,0,0,1,0,0*11
$PMTK001,183,3*3A
$PMTK869,2,1*36

$GPGGA,143859.000,5212.0
905,N,00005.9629,E,2,10,0.83,9.8,M,47.0,M,0000,0000*6C
$GPGSA,A,3,06,07,05,29,09,23,30,02,13,16,,,1.50,0.83,1.25*08
$GPRMC,143859.000,A,5212.0905,N,00005.9629,E,0.00,298.04,181118,,,D*67
$GPV
TG,298.04,T,,M,0.00,N,0.00,K,D*3F
$PMTKLOG,0,1,a,31,15,0,0,1,0,0*11
$PMTK001,183,3*3A
$PMTK869,2,1
*36

$GPGGA,143900.000,5212.0905,N,00005.9629,E,2,10,0.83,9.8,M,47.0,M,0000,0000*61
$GPGSA,A,3,06,07,05,29,09,23,30,02,13,16,,,1.50,0.83,1.25*08
$GPRMC,143900.000,A,
5212.0905,N,00005.9629,E,0.00,78.30,181118,,,D*51
$GPVTG,78.30,T,,M,0.00,N,0.00,K,D*04
$PMTKLOG,
0,1,a,31,15,0,0,1,0,0*11
$PMTK001,183,3*3A
$PMTK869,2,1*36

$GPGGA,143901.000,5212.0905,N,00005.9629,E,2,10,0.83,9.8,M,47.0,M,0000,0000*60
$GPGSA,A,3,06,07,05,29,09,23,30,02,13,
16,,,1.50,0.83,1.25*08
$GPGSV,3,1,11,07,65,104,44,30,52,174,42,05,47,296,37,02,38,241,37*7F
$GPGSV,3,2,
11,09,37,079,42,49,30,173,34,06,17,196,35,13,16,255,33*7E
$GPGSV,3,3,11,23,11,080,35,16,11,026,31,29,08,
308,21*4C
$GPRMC,143901.000,A,5212.0905,N,00005.9629,E,0.01,205.98,181118,,,D*6B
$GPVTG,205.98,T,,M,0.0
1,N,0.02,K,D*3D
$PMTKLOG,0,1,a,31,15,0,0,1,0,0*11
$PMTK001,183,3*3A
$PMTK869,2,1*36

$GPGGA,143902.000,5212.090
5,N,00005.9629,E,2,10,0.83,9.8,M,47.0,M,0000,0000*63
$GPGSA,A,3,06,07,05,29,09,23,30,02,13,16,,,1.50,0.83,1.25*08
$GPRMC,143902.00
0,A,5212.0905,N,00005.9629,E,0.01,74.68,181118,,,D*53
$GPVTG,74.68,T,,M,0.01,N,0.02,K,D*06

$PMTKLOG,0,1,a,31,15,0,0,1,0,0*11
$PMTK001,183,3*3A
$PMTK869,2,1*36

$GPGGA,143903.000,5212.0905,N,00005.9629,E,2,10,0.83,9.8,M,47.0,M,0000,0000*62
$GPGSA,A,3,06,07,05,29,09,23,30,02,13,16,,,1.50,0.83,1.25*08
$GPRMC,143903.000,A,5212.0905,N,00005.9629,E,0.00,91.07
,181118,,,D*51
$GPVTG,91.07,T,,M,0.00,N,0.01,K,D*06
$PMTKLOG,0,1,a,31,15,0,0,1,0,0*11
$PMTK001,183,3*3A
$PMTK
869,2,1*36

$GPGGA,143904.000,5212.0905,N,00005.9629,E,2,10,0.83,9.8,M,47.0,M,0000,0000*65
$GPGSA,A,3,06,07,05,29,09,23,30,02,13,16,,,1.50,0.83,1.25*08
$GPRMC,143904.000,A,5212.
0905,N,00005.9629,E,0.01,42.77,181118,,,D*5E
$GPVTG,42.77,T,,M,0.01,N,0.01,K,D*0E
$PMTKLOG,0,1,a,31,15,0,0,
1,0,0*11
$PMTK001,183,3*3A
$PMTK869,2,1*36

$GPGGA,143905.000,52
12.0905,N,00005.9629,E,2,10,0.83,9.8,M,47.0,M,0000,0000*64
$GPGSA,A,3,06,07,05,29,09,23,30,02,13,16,,,1.50,0.83,1.25*08
$GPRMC,143905.000,A,5212.0905,N,00005.9629,E,0.01,25.83,181118,,,D*55
$GPVTG,25
.83,T,,M,0.01,N,0.01,K,D*04
$PMTKLOG,0,1,a,31,15,0,0,1,0,0*11
$PMTK001,183,3*3A
$PMTK869,2,1*36

$GPGGA,143906.000,5212.0905,N,00005.9629,E,2,10,0.83,9.8,M,47.0,M,0000,0000*67
$GPGSA,A,3,06,07,05,29,09,23,30,02,13,16,,,1.50,0.83,1.25*08
$GPGSV,3,1,11,0
7,65,104,44,30,52,174,42,05,47,296,37,02,38,241,37*7F
$GPGSV,3,2,11,09,37,079,42,49,30,173,34
,06,17,196,35,13,16,255,33*7E
$GPGSV,3,3,11,23,11,080,35,16,11,026,30,29,08,308,24*48
$GPRMC,143906.000,A,5
212.0905,N,00005.9629,E,0.00,59.70,181118,,,D*50
$GPVTG,59.70,T,,M,0.00,N,0.01,K,D*02
$PMTKLOG,0,1,
a,31,15,0,0,1,0,0*11
$PMTK001,183,3*3A
$PMTK869,2,1*36

$GPGGA,143907.000,5212.0905,N,00005.9629,E,2,10,0.83,9.8,M,47.0,M,0000,0000*66
$GPGSA,A,3,06,07,05,29,09,23,30,02,13,16,,,1.50,0.83,1.25*08
$GPRMC,143907
.000,A,5212.0905,N,00005.9629,E,0.00,281.84,181118,,,D*6D
$GPVTG,281.84,T,,M,0.00,N,0.01,K,D*3E
$PM
TKLOG,0,1,a,31,15,0,0,1,0,0*11
$PMTK001,183,3*3A
$PMTK869,2,1*36

$GPGGA,143908.000,5212.0905,N,00005.9629,E,2,10,0.83,9.8,M,47.0,M,0000,0000*69
$GPGSA,A,3,06,07,05,29,09,23,30,02,13,16,,,1.50,0.83,1.25*08
$GPRMC,143908.000,A,5212.0905,N,00005.9629,E,0.00,153.35,181118,,,D*64
$GPVTG,153.35,T,,M,0.00,
N,0.00,K,D*39
$PMTKLOG,0,1,a,31,15,0,0,1,
0,0*11
$PMTK001,183,3*3A
$PMTK869,2,1*36

$GPGGA,143909.000,5212.0905,N,00005.9629,E,2,10,0.83,9.8,M,47.0,M,0000,0000*68
$GPGSA,A,3,06,07,05,29,09,23,30,02,13,16,,,1.50,0.83,1.25*08
$GPRMC,143909.000,A,5212.0905
,N,00005.9629,E,0.00,352.76,181118,,,D*61
$GPVTG,352.76,T,,M,0.00,N,0.00,K,D*3D
$PMTKLOG,0,1,a,31,1
5,0,0,1,0,0*11
$PMTK001,183,3*3A
$PMTK869,2,1*36

$GPGGA,143910.000,5212.0905,N,00005.9629,E,2,10,0.83,9.8,M,47.0,M,0000,0000*60
$GPGSA,A,3,06,07,05,29,09,23,30,02,13,16,,,1.50,0.83,1.25*08
$GPRMC,143910.000,A,5212
.0905,N,00005.9629,E,0.00,5.40,181118,,,D*6D
$GPVTG,5.40,T,,M,0.00,N,0.00,K,D*39
$PMTKLOG,0,1,a
,31,15,0,0,1,0,0*11
$PMTK001,183,3*3A
$PMTK869,2,1*36

$GPGGA,143911.000,5212.0905,N,00005.9629,E,2,10,0.83,9.8,M,47.0,M,0000,0000*61
$GPGSA,A,3,06,07,05,29,09,23,30,02,13,16,,,1.50,0.83,1.25*08
$GPGSV,3,1,11,07,65,104,44,30,53,174,42,05,47,296,37,02,38,241,3
7*7E
$GPGSV,3,2,11,09,37,079,42,49,30,173,34,06,17,196,35,13,16,255,33*7E
$GPGSV,3,3,11,23,11,080,3
5,16,11,026,30,29,08,308,25*49
$GPRMC,143911.000,A,5212.0905,N,00005.9629,E,0.00,0.00,181118,,,D*6D

$GPVTG,0.00,T,,M,0.00,N,0.00,K,D*38
$PMTKLOG,0,1,a,31,15,0,0,1,0,0*11
$PMTK001,183,3*3A
$PMTK869,2,1*
36

$GPGGA,143912.000,5212.0905,N,00005.9629,E,2,10,0.83,9.8,M,47.0,M,0000,0000*62
$GPGSA,A,3,06,07,05,29,09,23,30,02,13,16,,,1.50,0.83,1.25*08
$GPRMC,143912.000,A,5212.0905,N,00005.9629,E,0.00,0.00,18111
8,,,D*6E
$GPVTG,0.00,T,,M,0.00,N,0.00,K,D*38
$PMTKLOG,0,1,a,31,15,0,0,1,0,0*11
$PMTK001,183,3*3A
$PMT
K869,2,1*36

$GPGGA,143913.000,5212.0905,N,00005.9629,E,2,10,0.83,9.8,M,47.0,M,0000,0000*63
$GPGSA,A,3,06,07,05,29,09,23,30,02,13,16,,,1.50,0.83,1.25*08
$GPRMC,143913.000,A,5212.0905,N,
00005.9629,E,0.01,340.89,181118,,,D*68
$GPVTG,340.89,T,,M,0.01,N,0.02,K,D*3D
$PMTKLOG,0,1,a,31,15,0,0,1
,0,0*11
$PMTK001,183,3*3A
$PMTK869,2,1*36

$GPGGA,143914.000,5212.0905,N,00005.9629,E,2,10,0.83,9.8,M,47.0,M,0000,0000*64
$GPGSA,A,3,06,07,05,29,09,23,30,02,13,16,,,1.50,0.83,1.25*08
$GPRMC,143914.000,A,5212.0905,N,00005.9629,E,0.00
,216.60,181118,,,D*6B
$GPVTG,216.60,T,,M,0.00,N,0.00,K,D*3B

$PMTKLOG,0,1,a,31,15,0,0,1,0,0*11
$PMTK001,183,3*3A
$PMTK869,2,1*36

$GPGGA,143915.000,5212.0905,N,00005.9629,E,2,10,0.83,9.8,M,47.0,M,0000
,0000*65
$GPGSA,A,3,06,07,05,29,09,23,30,02,13,16,,,1.50,0.83,1.25*08
$GPRMC,143915.000,A,5212.0905,N,00005.9629,E,0.00,126.67,181118,,,D*6D

$GPVTG,126.67,T,,M,0.00,N,0.01,K,D*3D
$PMTKLOG,0,1,a,31,15,0,0,1,0,0*11
$PMTK001,183,3*3A
$PMTK869,2,1*36


$GPGGA,143916.000,52
12.0905,N,00005.9629,E,2,10,0.83,9.8,M,47.0,M,0000,0000*66
$GPGSA,A,3,06,07,05,29,09,23,30,02,13,16,,,1.50,0.83,1.25*08
$GPGSV,3,1,11,07,65,104,44,30,53,174,42,05,47,296,37,02,38,24
1,37*7E
$GPGSV,3,2,11,09,37,079,42,49,30,173,34,06,17,196,35,13,16,255,33*7E
$GPGSV,3,3,11,23,11,080,35
,16,11,026,30,29,08,308,22*4E
$GPRMC,143916.000,A,5212.0905,N,00005.9629,E,0.00,166.38,181118,,,D*60
$GPVTG,166
.38,T,,M,0.00,N,0.01,K,D*33
$PMTKLOG,0,1,a,31,15,0,0,1,0,0*11
$PMTK001,183,3*3A
$PMTK869,2,1*36

$GPGGA,1
43917.000,5212.0905,N,00005.9629,E,2,10,0.83,9.8,M,47.0,M,0000,0000*67
$GPGSA,A,3,06,07,05,29,09,23,30,02,13,16,,,1.50,0.83,1.25*08
$GPRMC,143917.000,A,5212.0905,N,00005.9629,E,0.00,355.41,181118,,,D*
6D
$GPVTG,355.41,T,,M,0.00,N,0.01,K,D*3F
$PMTKLOG,0,1,a,31,15,0,0,1,0,0*11
$PMTK001,183,3*3A
$PMTK869,2,1*36

$GPGGA,143918.00
0,5212.0905,N,00005.9629,E,2,10,0.83,9.8,M,47.0,M,0000,0000*68
$GPGSA,A,3,06,07,05,29,09,23,30,02,13,16,,,1.50,0.83,1.25*08
$GPRMC,143918.000,A,5212.0905,N,00005.9629,E,0.00,314.39,181118,,,D*68
$GPVTG,314.39,T,,M,0.00,N,0.01,K,D*35
$
PMTKLOG,0,1,a,31,15,0,0,1,0,0*11
$PMTK001,183,3*3A
$PMTK869,2,1*36

$GPGGA,143919.000,5212.0905,N,00005.
9629,E,2,10,0.83,9.8,M,47.0,M,0000,0000*69
$GPGSA,A,3,06,07,05,29,09,23,30,02,13,16,,,1.50,0.83,1.25*08
$GPRMC,143919.000,A,5212.0905,N,00005.9629,E,0.00,215.55,181118,,,D*63
$
GPVTG,215.55,T,,M,0.00,N,0.00,K,D*3E
$PMTKLOG,0,1,a,31,15,0,0,1,0,0*11
$PMTK001,183,3*3A
$PMTK869,2,1*36

$GPGGA
,143920.000,5212.0905,N,00005.9629,E,2,10,0.83,9.8,M,47.0,M,0000,0000*63
$GPGSA,A,3,06,07,05,29,09,23,30,02,13,16,,,1.50,0.83,1.25*08
$GPRMC,143920.000,A,5212.0905,N,00005.9629,E,0.01,300.59,181118,,,D*61
$GPVTG
,300.59,T,,M,0.01,N,0.01,K,D*37
$PMTKLOG,0,
1,a,31,15,0,0,1,0,0*11
$PMTK001,183,3*3A
$PMTK869,2,1*36

$GPGGA,143921.000,5212.0905,N,00005.9629,E,2,10,0.83,9.8,M,47.0,M,0000,0000*62
$GPGSA,A,3,06,07,05,29,09,23,30,02,13,16,,,1.50,0.83,1.25*08
$GPGSV,3,1,11,07,65,103,
44,30,53,174,42,05,48,296,37,02,38,241,37*76
$GPGSV,3,2,11,09,37,079,42,49,30,173,34,06,17,196,35,13,16,
255,33*7E
$GPGSV,3,3,11,23,11,080,35,16,11,026,31,29,08,308,19*47
$GPRMC,143921.000,A,5212.0905,N,00005
.9629,E,0.01,349.59,181118,,,D*6D
$GPVTG,349.59,T,,M,0.01,N,0.01,K,D*3A
$PMTKLOG,0,1,a,31,15,0,0,1,0,0*11

$PMTK001,183,3*3A
$PMTK869,2,1*36

$GPGGA,143922.000,5212.0905,N,00005.9629,E,2,10,0.83,9.8,M,47.0,M,0000,0000*61
$GPGSA,A,3,06,07,05,29,09,23,30,02,13,16,,,1.50,0.83,1.25*08
$GPRMC,143922.000,A,5212.0905,N,00005.9629,E,0.00,1
71.25,181118,,,D*6D
$GPVTG,171.25,T,,M,0.00,N,0.01,K,D*39
$PMTKLOG,0,1,a,31,15,0,0,1,0,0*11
$PMTK0
01,183,3*3A
$PMTK869,2,1*36

$GPGGA,143923.000,5212.0905,N,00005.9629,E,2,10,0.83,9.8,M,47.0,M,0000,0000*60
$GPGSA,A,3,06,07,05,29,09,23,30,02,13,16,,,1.50,0.83,1.25*08
$GPRMC,143923.000,A,5212.0905,N,00005.9629,E,0.00,38.58,181118,,,D*5A
$GPVTG,38.58,T,,M,0.00,
N,0.00,K,D*0E
$PMTKLOG,0,1,a,31,15,0,0,1,0,0*11
$PMTK001,183,3*3A
$PMTK869,2,1*36

$GPGGA,143924.000,5212.0905,N,00005.9629,E,2,10,0.83,9.8,M,47.0,M,0000,0000*67
$GPGSA,A,3,06,07,05,29,09,23,30,02,13,16,,,1.50,0.83,1.25*08
$GPRMC,143924.000,A,5212.0905,N,0
0005.9629,E,0.00,35.58,181118,,,D*50
$GPVTG,35.58,T,,M,0.00,N,0.00,K,D*03
$PMTKLOG,0,1,a,31,15,
0,0,1,0,0*11
$PMTK001,183,3*3A
$PMTK869,2,1*36

$GPGGA,143925.000,5212.0905,N,00005.9629,E,2,10,0.83,9.8,M,47.0,M,0000,0000*66
$GPGSA,A,3,06,07,05,29,09,23,30,02,13,16,,,1.50,0.83,1.25*08
$GPRMC,143925.000,A,5212.
0905,N,00005.9629,E,0.01,344.94,181118,,,D*65
$GPVTG,344.94,T,,M,0.01,N,0.01,K,D*36
$PMTKLOG,0,
1,a,31,15,0,0,1,0,0*11
$PMTK001,183,3*3A
$PMTK869,2,1*36

$GPGGA,143926.000,5212.0905,N,00005.9629,E,2,10,0.83,9.8,M,47.0,M,0000,0000*65
$GPGSA,A,3,06,07,05,29,09,23,30,02,13,16,,,1.50,0.83,1.25*08
$GPGSV,3,1,11,07,65,103,44,30,53,174,42,05,48,296,37,02,38,241,37*76
$GPGSV
,3,2,11,09,36,079,42,49,30,173,34,06,17,196,35,13,16,255,33*7F
$GPGSV,3,3,11,23,11,080,35,16,11,026,31,2
9,08,308,19*47
$GPRMC,143926.000,A,5212.0905,N,00005.9629,E,0.00,0.00,181118,,,D*69
$GPVTG,0.00,T,,M,0.00,N
,0.00,K,D*38
$PMTKLOG,0,1,a,31,15,0,0,1,0,0*11
$PMTK001,183,3*3A
$PMTK869,2,1*36

$GPGGA,143927.000,5212.0905,N,00005.9629,E,2,10,0.83,9.8,M,47.0,M,0000,0000*64
$GPGSA,A,3,06,07,05,29,09,23,30,02,13,16,,,1.50,0.83,1.25*08
$GPRMC,143927.000,A,5212.09
05,N,00005.9629,E,0.00,328.24,181118,,,D*67
$GPVTG,328.24,T,,M,0.00,N,0.01,K,D*36
$PMTKLOG,0,1,a,31,15,0,0,
1,0,0*11
$PMTK001,183,3*3A
$PMTK869,2,1*36

$GPGGA,143928.000,5212.0905,N,00005.9629,E,2,10,0.83,9.8,M,47.0,M,0000,0000*6B
$GPGSA,A,3,06,07,05,29,09,23,30,02,13,16,,,1.50,0.83,1.25*08
$GPRMC,143928.000,A,5212.0905,N,00005.9629,E,0.00,320.21,181118,,,D*65
$GPVTG
,320.21,T,,M,0.00,N,0.00,K,D*3A
$PMTKLOG,0,1,a,31,15,0,0,1,0,0*11
$PMTK001,183,3*3A
$PMTK869,2,1*36

$GPGGA,143929.000,5212.0905,N,00005.9629,E
,2,10,0.83,9.8,M,47.0,M,0000,0000*6A
$GPGSA,A,3,06,07,05,29,09,23,30,02,13,16,,,1.50,0.83,1.24*09
$GPRMC,143929.000,A,5212.0905,N,00005.9629,E,0.00,196.82,181118,,,D*62
$GPVTG,
196.82,T,,M,0.00,N,0.01,K,D*3D
$PMTKLOG,0,1,a,31,15,0,0,1,0,0*11
$PMTK001,183,3*3A
$PMTK869,2,1*36


$GPGGA,143930.000,5212.0905,N,00005.9629,E,2,10,0.83,9.8,M,47.0,M,0000,0000*62
$GPGSA,A,3,06,07,05,29,09,23,30,02,13,16,,,1.50,0.83,1.25*08
$GPRMC,143930.000,A,5212.0905
,N,00005.9629,E,0.00,0.23,181118,,,D*6F
$GPVTG,0.23,T,,M,0.00,N,0.00,K,D*39
$PMTKLOG,0,1,a,31,15,0,0,1,
0,0*11
$PMTK001,183,3*3A
$PMTK869,2,1*36

$GPGGA,143931.000,5212.0905,N,00005.9629,E,2,10,0.83,9.8,M,47.0,M,0000,0000*63
$GPGSA,A,3,06,07,05,29,09,23,30,02,13,16,,,1.50,0.83,1.25*08
$GPGSV,3,1,1
1,07,65,103,44,30,53,174,42,05,48,296,37,02,38,241,37*76
$GPGSV,3,2,11,09,36,079,42,49,30,173,34,06,17,196,3
5,13,16,255,33*7F
$GPGSV,3,3,11,23,11,080,35,16,11,026,30,29,08,308,20*4C
$GPRMC,143931.000,A,5212.
0905,N,00005.9629,E,0.00,235.20,181118,,,D*69
$GPVTG,235.20,T,,M,0.00,N,0.00,K,D*3E
$PMTKLOG,0,1,a,
31,15,0,0,1,0,0*11
$PMTK001,183,3*3A
$PMTK869,2,1*36

$GPGGA,143932.000
,5212.0905,N,00005.9629,E,2,10,0.83,9.8,M,47.0,M,0000,0000*60
$GPGSA,A,3,06,07,05,29,09,23,30,02,13,16,,,1.50,0.83,1.24*09
$GPRMC,143932.000,A,5212.0905,N,00005.9629,E,0.00,357.53,181118,,,D*6B
$GPVTG,357.53,T,,M,0.
00,N,0.00,K,D*3F
$PMTKLOG,0,1
,a,31,15,0,0,1,0,0*11
$PMTK001,183,3*3A
$PMTK869,2,1*36

$GPGGA,143933.000,5212
.0905,N,00005.9629,E,2,10,0.83,9.8,M,47.0,M,0000,0000*61
$GPGSA,A,3,06,07,05,29,09,23,30,02,13,16,,,1.50,0.83,1.24*09
$GPRMC,143933.000,A,5212.0905,N,00005.9629,E,0.00,338.69,181118,,,D*6A
$GPVTG,338.69,T,,M,0.00,N,0.00,K,D*3F
$PMTKLOG,0
,1,a,31,15,0,0,1,0,0*11
$PMTK001,183,3*3A
$PMTK869,2,1*36

$GPGG
A,143934.000,5212.0905,N,00005.9629,E,2,10,0.83,9.8,M,47.0,M,0000,0000*66
$GPGSA,A,3,06,07,05,29,09,23,30,02,13,16,,,1.50,0.83,1.24*09
$GPRMC,143934.000,A,5212.0905,N,00005.9629,E,
0.00,181.40,181118,,,D*66
$GPVTG,181.40,T,,M,0.00,N,0.00,K,D*34
$PMTKLOG,0,1,a,31,15,0,0,1,0,0*11
$PMT
K001,183,3*3A
$PMTK869,2,1*36

$GPGGA,143935.000,5212.0905,N,00005.9629,E,2,10,0.83,9.8,M,
47.0,M,0000,0000*67
$GPGSA,A,3,06,07,05,29,09,23,30,02,13,16,,,1.49,0.83,1.24*01
$GPRMC,143935.000,A,5212.0905,N,00005.9629,E,0.00,215.37,181118,,,D*69
$GPVTG,215.37,T,,M,0.00,N,0.01,K,D*3B
$
PMTKLOG,0,1,a,31,15,0,0,1,0,0*11
$PMTK001,183,3*3A
$PMTK869,2,1*36

$
GPGGA,143936.000,5212.0905,N,00005.9629,E,2,10,0.83,9.8,M,47.0,M,0000,0000*64
$GPGSA,A,3,06,07,05,29,09,23,30,02,13,16,,,1.50,0.83,1.24*09
$GPGSV,3,1,11,07,65,103,44,30,53,174,42,05,48,296,38,02,38,241,37*79
$GPGSV,3,2,11,0
9,36,079,41,49,30,173,34,06,17,196,35,13,16,255,33*7C
$GPGSV,3,3,11,23,11,080,35,16,11,026,26,29,08,
308,20*4B
$GPRMC,143936.000,A,5212.0905,N,00005.9629,E,0.00,256.29,181118,,,D*62
$GPVTG,256.29,T,,M,0.0
0,N,0.00,K,D*32
$PMTKLOG,0,1,a,31,15,0,0,1,0,0*11
$PMTK001,183,3*3A
$PMTK869,2,1*36

$GPGGA,143937.000
,5212.0905,N,00005.9629,E,2,10,0.83,9.8,M,47.0,M,0000,0000*65
$GPGSA,A,3,06,07,05,29,09,23,30,02,13,16,,,1.50,0.83,1.24*09
$GPRMC,143937.000,A,5212.0905,N,00005.9629,E,0.01,333.47,181118,,,D*68
$
GPVTG,333.47,T,,M,0.01,N,0.01,K,D*38
$PMTKLOG,0,1,a,31,15,0,0,1,0,0*11
$PMTK001,183,3*3A
$PMTK869,2,1*36

$GPGGA,143938.000,5212.0905,N,00005.9629,E,2,10,0.83,9.8,M,47.0,M,0000,0000*6A
$GPGSA,A,3,06,07,05
,29,09,23,30,02,13,16,,,1.49,0.83,1.24*01
$GPRMC,143938.000,A,5212.0905,N,00005.9629,E,0.01,214.39,181118,,,D*6A
$GPVTG,214.39,T,,M,0.01,N,0.02,K,D*36

$PMTKLOG,0,1,a,31,15,0,0,1,0,0*11
$PMTK001,183,3*3A
$PMTK869,2,1*36

$GPGGA,143939.000,5212.0905,N,00005.9629,E,2,10,0.83,9.8,M,47.0,M,0000,0000
*6B
$GPGSA,A,3,06,07,05,29,09,23,30,02,13,16,,,1.49,0.83,1.24*01
$GPRMC,143939.000,A,5212.0905,N,00005.9629,E,0.01,203.60,181118,,,D*61
$GPVTG,203.60,T,,M,0.01,N,0.02,K,D*3
C
$PMTKLOG,0,1,a,31,15,0,0,1,0,0*11
$PMTK001,183,3*3A
$PMTK869,2,1*36

$GPGGA,143940.000
,5212.0905,N,00005.9629,E,2,10,0.83,9.8,M,47.0,M,0000,0000*65
$GPGSA,A,3,06,07,05,29,09,23,30,02,13,16,,,1.49,0.83,1.24*01
$GPRMC,143940.000,A,5212.0905,N,00005.9629,E,0.01,223.76,181118,,,D*6A
$GPVTG,223.76,T,,
M,0.01,N,0.02,K,D*39
$PMTKLOG,0,1,a,31,15,0,0,1,0,0*11
$PMTK001,183,3*3A
$PMTK869,2,1*36

$GPGGA,143941.000,5212.0905,N,00005.9629,E,
2,10,0.83,9.8,M,47.0,M,0000,0000*64
$GPGSA,A,3,06,07,05,29,09,23,30,02,13,16,,,1.49,0.83,1.24*01
$GPGSV,3,1,11,07,65,103,44,30,53,174,42,05,48,296,37,02,38,241,37*76
$GPGSV,3,2,11,09,36,079,38,49,30,
173,33,06,17,196,35,13,16,255,33*75
$GPGSV,3,3,11,23,11,080,34,16,11,026,28,29,08,308,23*47
$GPRMC,143941.0
00,A,5212.0905,N,00005.9629,E,0.00,157.90,181118,,,D*62
$GPVTG,157.90,T,,M,0.00,N,0.01,K,D*33
$PMTKLOG,0,1,
a,31,15,0,0,1,0,0*11
$PMTK001,183,3*3A
$PMTK869,2,1*36

$GPGGA,143942.000,5212.0905,N,0000
5.9629,E,2,10,0.83,9.8,M,47.0,M,0000,0000*67
$GPGSA,A,3,06,07,05,29,09,23,30,02,13,16,,,1.49,0.83,1.24*01
$GPRMC,143942.000,A,5212.0905,N,00005.9629,E,0.01,37.68,181118,,,D*50
$GPVTG,37.68,T,,M,0.01,N,0.01,K,D*0
2
$PMTKLOG,0,1,a,31,15,0,0,1,0,0*11
$PMTK001,183,3*3A
$PMTK869,2,1*36

$GPGGA,143943.000,5212.0905,N,00005.9629,E,2,10,0.83,9.8,M,47.0,M,0000,0000*66
$GPGSA,A,3,06,07,05,29,09,23,30,02,13,16,,,1.50,0.83,1.24*09
$GPRMC,143943.000,A,5212.0905,N,00005.9629,E,0.01,338.62,181118,,,D*67
$GPVTG,33
8.62,T,,M,0.01,N,0.02,K,D*37
$PMTKLOG,0,1,a,31,15,0,0,1,0,0*11
$PMTK001,183,3*3A
$PMTK869,2,1*36

$GPGGA,143944.000,5212.0905,N,
00005.9629,E,2,10,0.83,9.8,M,47.0,M,0000,0000*61
$GPGSA,A,3,06,07,05,29,09,23,30,02,13,16,,,1.49,0.83,1.24*01
$GPRMC,143944.000,A,5212.0905,N,00005.9629,E,0.01,12.69,181118,,,D*50
$GPVTG,12.69,T,,M,0.01,N,0.02,K,D*0
7
$PMTKLOG,0,1,a,31,15,0,0,1,0,0*11
$PMTK001,183,3*3A
$PMTK869,2,1*36

$GPGGA,143945.000,52
12.0905,N,00005.9629,E,2,10,0.83,9.8,M,47.0,M,0000,0000*60
$GPGSA,A,3,06,07,05,29,09,23,30,02,13,16,,,1.49,0.83,1.24*01
$GPRMC,143945.000,A,5212.0905,N,00005.9629,E,0.01,359.81,181118,,,D*6
B
$GPVTG,359.81,T,,M,0.01,N,0.01,K,D*3E
$PMTKLOG,0,1,a,31,15,0,0,1,0,0*11
$PMTK001,183,3*3A
$PMTK869,2,1*
36

$GPGGA,143946.000,5212.0905,N,00005.9629,E,2,10,0.83,9.8,M,47.0,M,0000,000
0*63
$GPGSA,A,3,06,07,05,29,09,23,30,02,13,16,,,1.49,0.83,1.24*01
$GPGSV,3,1,11,07,65,103,44,30,53,174,42,05,48,296,38,02,38,241,37*79
$GPGSV,3,2,11,09,36,079,42,49,30,173,33,06,17,196,34,13,16,255,33*79
$GPGSV
,3,3,11,23,11,080,34,16,11,026,28,29,07,308,22*49
$GPRMC,143946.000,A,5212.0905,N,00005.9629,E,0.00,0.00
,181118,,,D*6F
$GPVTG,0.00,T,,M,0.00,N,0.00,K,D*38
$PMTKLOG,0,1,a,31,15,0,0,1,0,0*11
$PMTK001,183,
3*3A
$PMTK869,2,1*36

$GPGGA,143947.000,5212.0905,N,00005.9629,E,2,10,0.83,9.8,M,47.0,M,0
000,0000*62
$GPGSA,A,3,06,07,05,29,09,23,30,02,13,16,,,1.49,0.83,1.24*01
$GPRMC,143947.000,A,5212.0905,N,00005.9629,E,0.00,307.52,181118,,,D*6D
$GPVTG,307.52,T,,M,0.00,N,0.01,K,D*3A
$PMTKLOG,0,1,a,31
,15,0,0,1,0,0*11
$PMTK001,183,3*3A
$PMTK869,2,1*36

$GPGGA,143948.000,5212.0905,N,00005.9629,E,2,10,0.83
,9.8,M,47.0,M,0000,0000*6D
$GPGSA,A,3,06,07,05,29,09,23,30,02,13,16,,,1.49,0.83,1.24*01
$GPRMC,143948.000,A,5212.0905,N,00005.9629,E,0.00,141.93,181118,,,D*6F
$GPVTG,141.93,T,,M,0.00,N,0.01,K,D*37
$PMTKLOG,0,1,a,31,15,0,0,1,0,0*11
$PMTK001,183,
3*3A
$PMTK869,2,1*36

$GPGGA,143949.000,52
12.0905,N,00005.9629,E,2,10,0.83,9.8,M,47.0,M,0000,0000*6C
$GPGSA,A,3,06,07,05,29,09,23,30,02,13,16,,,1.49,0.83,1.24*01
$GPRMC,143949.000,A,5212.0905,N,00005.9629,E,0.01,315.61,
181118,,,D*61
$GPVTG,315.61,T,,M,0.01,N,0.01,K,D*38
$PMTKLOG,0,1,a,31,15,0,0,1,0,0*11
$PMTK001,183,3*3A
$
PMTK869,2,1*36

$GPG
GA,143950.000,5212.0905,N,00005.9629,E,2,10,0.83,9.8,M,47.0,M,0000,0000*64
$GPGSA,A,3,06,07,05,29,09,23,30,02,13,16,,,1.49,0.83,1.24*01
$GPRMC,143950.000,A,5212.0905,N,00005.9629,E,0.01,129.60,181118,,,D*65
$GPVTG,129.60,T
,,M,0.01,N,0.01,K,D*34
$PMTKLOG,0,1,a,31,15,0,0,1,0,0*11
$PMTK001,183,3*3A
$PMTK869,2,1*36

$GPGGA,143951.000
,5212.0905,N,00005.9629,E,2,10,0.83,9.8,M,47.0,M,0000,0000*65
$GPGSA,A,3,06,07,05,29,09,23,30,02,13,16,,,1.49,0.83,1.24*01
$GPGSV,3,1,11,07,65,103,44,30,53,174,42,05,48,296,38,02,38,241,37*79
$GPGSV,
3,2,11,09,36,079,42,49,30,173,34,06,17,196,34,13,16,255,33*7E
$GPGSV,3,3,11,23,11,080,34,16,11,0
26,23,29,07,308,25*45
$GPRMC,143951.000,A,5212.0905,N,00005.9629,E,0.01,64.30,181118,,,D*59
$GPVTG,64.3
0,T,,M,0.01,N,0.02,K,D*0A
$PMTKLOG,0,1,a,31,15,0,0,1,0,0*11
$PMTK001,183,3*3A
$PMTK869,2,1*36

$GPGGA,14395
2.000,5212.0905,N,00005.9629,E,2,10,0.83,9.8,M,47.0,M,0000,0000*66
$GPGSA,A,3,06,07,05,29,09,23,30,02,13,16,,,1.49,0.83,1.24*01
$GPRMC,143952.000,A,5212.0905,N,00005.9629,E,0.01,116.29,181118,,,D*66
$GPVTG,116.29,T,,M,0
.01,N,0.01,K,D*35
$PMTKLOG,0,1,a,31,15,0,0,1,0,0*11
$PMTK001,183,3*3A
$PMTK869,2,1*36

$GPGGA,
143953.000,5212.0905,N,00005.9629,E,2,10,0.83,9.8,M,47.0,M,0000,0000*67
$GPGSA,A,3,06,07,05,29,09,23,30,02,13,16,,,1.49,0.83,1.24*01
$GPRMC,143953.000,A,5212.0905,N,00005.9629,E,0.00,125.55,181118,,,D*6D
$GPVTG,125.55,T,,M,0.00,N,0.01,K,D*3F
$PM
TKLOG,0,1,a,31,15,0,0,1,0,0*11
$PMTK001,183,3*3A
$PMTK869,2,1*36

$GPGGA,143954.000,5212.0905,N,00005.9629,E,2,10,0.8
3,9.8,M,47.0,M,0000,0000*60
$GPGSA,A,3,06,07,05,29,09,23,30,02,13,16,,,1.49,0.83,1.24*01
$GPRMC,143954.000,A,5212.0905,N,00005.9629,E,0.01,161.79,181118,,,D*65
$GPV
TG,161.79,T,,M,0.01,N,0.01,K,D*30
$PMTKLOG,0,1,a,31,15,0,0,1,0,0*11
$PMTK001,183,3*3A
$PMTK869,2,1*36


$GPGGA,143955.000,5212.0905,N,00005.9629,E,2,10,0.83,9.8,M,47.0,M,0000,0000*61
$G
PGSA,A,3,06,07,05,29,09,23,30,02,13,16,,,1.49,0.83,1.24*01
$GPRMC,143955.000,A,5212.0905,N,00005.9629,E,0.00,182.72,181118,,,D*63

$GPVTG,182.72,T,,M,0.00,N,0.00,K,D*36
$PMTKLOG,0,1,a,31,15,0,0,1,0,0*11
$PMTK001,183,3*3A
$PMTK869,
2,1*36

$GPGGA,143956.000,5212.0905,N,00005.9629,E,2,10,0.83,9.8,M,47.0,M,000
0,0000*62
$GPGSA,A,3,06,07,05,29,09,23,30,02,13,16,,,1.49,0.83,1.24*01
$GPGSV,3,1,11,07,65,103,45,30,53,174,42,05,48,296,38,02,38,241,37*78
$GPGSV,3,2,11,09,36,079,40,49,30,173,33,06,17,196,35,13,16,255,34*7D
$
GPGSV,3,3,11,23,11,080,30,16,11,026,27,29,07,308,24*44
$GPRMC,143956.000,A,5212.0905,N,00005.962
9,E,0.00,328.03,181118,,,D*64
$GPVTG,328.03,T,,M,0.00,N,0.01,K,D*33
$PMTKLOG,0,1,a,31,15,0,0,1,0,0*11
$PMT
K001,183,3*3A
$PMTK869,2,1*36

$GPGGA,143957.000,5212.0905,N,00005.9629,E,2,10,0.83,9
.8,M,47.0,M,0000,0000*63
$GPGSA,A,3,06,07,05,29,09,23,30,02,13,16,,,1.49,0.83,1.24*01
$GPRMC,143957.000,A,5212.0905,N,00005.9629,E,0.00,27.91,181118,,,D*52
$GPVTG,27.91,T,,M,0.00,N,0.01,K,D*04
$PMTKLOG,0,1,a,31,
15,0,0,1,0,0*11
$PMTK001,183,3*3A
$PMTK869,2,1*36

$GPGGA,143958.000,5212.0905,N,00005.9629,E,2,10
,0.83,9.8,M,47.0,M,0000,0000*6C
$GPGSA,A,3,06,07,05,29,09,23,30,02,13,16,,,1.49,0.83,1.24*01
$GPRMC,143958.000,A,5212.0905,N,00005.9629,E,0.00,242.29,181118,,,D*6F
$GPVTG,242.29,T,,M,0.00,N,0.01,K,D*36
$PMTKLOG,0,1,a,31,15,0,0,1,0,0*11
$PMTK001,183
,3*3A
$PMTK869,2,1*36

$GPGGA,143959.000,5212.0905,N,00005.9629,E,2,10,0.83,9.8,M,47.0,M,0000,0000*6D
$GPGSA,A,3,06,07,05,29,
09,23,30,02,13,16,,,1.49,0.83,1.24*01
$GPRMC,143959.000,A,5212.0905,N,00005.9629,E,0.00,96.35,181118,,,D*58
$GPVTG,96.35,T,,M,0.00,N,0.01,K,D*00
$PMTKLOG,0,1
,a,31,15,0,0,1,0,0*11
$PMTK001,183,3*3A
$PMTK869,2,1*36

$GPGGA,144000.000,5212.0905,N,00005.9629,E,2,10,0.83,9.8,M,47.
0,M,0000,0000*6F
$GPGSA,A,3,06,07,05,29,09,23,30,02,13,16,,,1.49,0.83,1.24*01
$GPRMC,144000.000,A,5212.0905,N,00005.9629,E,0.00,182.18,181118,,,D*61
$GPVTG,182.18,T,,M,0.00,N,0.00,K,D*3A
$PMTKLOG,0,1,a,31,15,0,0,1,0,0*1
1
$PMTK001,183,3*3A
$PMTK869,2,1*36

$GPGGA,144001.000,5212.0905,N,00005.9629,E,2
,10,0.83,9.8,M,47.0,M,0000,0000*6E
$GPGSA,A,3,06,07,05,29,09,23,30,02,13,16,,,1.49,0.83,1.24*01
$GPGSV,3,1,11,07,65,103,45,30,53,174,42,05,48,296,38,02,38,241,37*78
$GPGSV,3,2,11,09,36,079,42,49,30,173,3
4,06,17,196,35,13,16,255,34*78
$GPGSV,3,3,11,23,11,080,34,16,11,026,28,29,07,308,18*40
$GPRMC,1
44001.000,A,5212.0905,N,00005.9629,E,0.01,335.88,181118,,,D*66
$GPVTG,335.88,T,,M,0.01,N,0.02,K,D*3E
$PMTKLOG,0,1,a
,31,15,0,0,1,0,0*11
$PMTK001,183,3*3A
$PMTK869,2,1*36

$GPGGA,144002.000,5212.0905,N,00005.9629,E,2,10,0.83,9.8,M,47.0,M,0000,
0000*6D
$GPGSA,A,3,06,07,05,29,09,23,30,02,13,16,,,1.49,0.83,1.24*01
$GPRMC,144002.000,A,5212.0905,N,00005.9629,E,0.01,182.53,181118,,,D*6D
$GPVTG,182.53,T,,M,0.01,N,0.01,K,D*35

$PMTKLOG,0,1,a,31,15,0,0,1,0,0*11
$PMTK001,183,3*3A
$PMTK869,2,1*36

$GPGGA,144003.000,5212.0905,N,00005.9629,E,2,10,0.83,9.8,M,47.0,M,0
000,0000*6C
$GPGSA,A,3,06,07,05,29,09,23,30,02,13,16,,,1.49,0.83,1.24*01
$GPRMC,144003.000,A,5212.0905,N,00005.9629,E,0.01,190.89,181118,,,D*68
$GPVTG,190.89,T,,M,0.01,N,0.02,K,D*32
$PMTKLOG,0,1,a,31,15,0,0,1,0,0*11
$PMTK001
,183,3*3A
$PMTK869,2,1*36

$GPGGA,144004.000,5212.0905,N,00005.9629,E,2,10,0.83,9.8,M,
47.0,M,0000,0000*6B
$GPGSA,A,3,06,07,05,29,09,23,30,02,13,16,,,1.49,0.83,1.24*01
$GPRMC,144004.000,A,5212.0905,N,00005.9629,E,0.01,90.59,181118,,,D*53
$GPVTG,90.59,T,,M,0.01,N
,0.02,K,D*0E
$PMTKLOG,0,1,a,31,15,0,0,1,0,0*11
$PMTK001,183,3*3A
$PMTK869,2,1*36

$GPGGA,1
44005.000,5212.0905,N,00005.9629,E,2,10,0.83,9.8,M,47.0,M,0000,0000*6A
$GPGSA,A,3,06,07,05,29,09,23,30,02,13,16,,,1.49,0.83,1.24*01
$GPRMC,144005.000,A,5212.0905,N,00005.9629,E,0.01,77.17,181118,,,D*51
$GPVT
G,77.17,T,,M,0.01,N,0.02,K,D*0D
$PMTKLOG,0,1,a,31,15,0,0,1,0,0*11
$PMTK001,183,3*3A
$PMTK869,2,1*36

$GPGGA,144006.000,5212.0905,N,00005.9629,E,2,10,0.83,9.8,M,47.0,M,0000,0000*69
$GPGSA,A,3,06,07,05,29,09,23,30,02,13,16,,,1.49,0.83,1.24*01
$GPGSV,3,1,11,07,65,103,45,30,53,174,42,05,48,296,38,02,38,241,37*78
$
GPGSV,3,2,11,09,36,079,42,49,30,173,34,06,17,196,35,13,16,255,34*78
$GPGSV,3,3,11,23,11,080,35,16,11,025,
28,29,07,308,19*43
$GPRMC,144006.000,A,5212.0905,N,00005.9629,E,0.01,80.21,181118,,,D*5F
$GPVTG,80.21,T,,M,0.0
1,N,0.02,K,D*00
$PMTKLOG,0,1,a,31,15,0,0,1,0,0*11
$PMTK001,183,3*3A
$PMTK869,2,1*36

$GPGGA,144007.000,5212.0905,N,00005.9629,E,2,10,0.83,9.8,M,
47.0,M,0000,0000*68
$GPGSA,A,3,06,07,05,29,09,23,30,02,13,16,,,1.49,0.83,1.24*01
$GPRMC,144007.000,A,5212.0905,N,00005.9629,E,0.01,33.63,181118,,,D*50
$GPVTG,33.63,T,,M,0.01,N,0.01,K,D*0D
$PMTKLOG,0,1,a
,31,15,0,0,1,0,0*11
$PMTK001,183,3*3A
$PMTK869,2,1*36

$GPGGA,144008.000,5212.0905,N,00005.9629,E,2,10,0.83,9.8,M,47.0,M,0
000,0000*67
$GPGSA,A,3,06,07,05,29,09,23,30,02,13,16,,,1.49,0.83,1.24*01
$GPRMC,144008.000,A,5212.0905,N,00005.9629,E,0.00,303.75,181118,,,D*69
$GPVTG,303.75,T,,M,0.00,N,0.01,K,D*3B
$PMT
KLOG,0,1,a,31,15,0,0,1,0,0*11
$PMTK001,183,3*3A
$PMTK869,2,1*36

$GPGGA,144009.000,5212.0905,N,00005.9629,E,2,10,0.83,9.8,M,47.0,M,0000,0000*66
$GPGSA,A,3
,06,07,05,29,09,23,30,02,13,16,,,1.49,0.83,1.24*01
$GPRMC,144009.000,A,5212.0905,N,00005.9629,E,0.01,109.14,181118,,,D*66
$GPVTG,109.14,T,,M,0.01,N,0.02,K,D*36
$PMTKL
OG,0,1,a,31,15,0,0,1,0,0*11
$PMTK001,183,3*3A
$PMTK869,2,1*36

$GPGGA,144010.0
00,5212.0905,N,00005.9629,E,2,10,0.83,9.8,M,47.0,M,0000,0000*6E
$GPGSA,A,3,06,07,05,29,09,23,30,02,13,16,,,1.49,0.83,1.24*01
$GPRMC,144010.000,A,5212.0905,N,00005.9629,E,0.00,308.65,181118,,,D*6A
$GPVTG,308.65,T,,M,
0.00,N,0.01,K,D*31
$PMTKLOG,0,1,a,31,15,0,0,1,0,0*11
$PMTK001,183,3*3A
$PMTK869,2,1*36

$GPG
GA,144011.000,5212.0905,N,00005.9629,E,2,10,0.83,9.8,M,47.0,M,0000,0000*6F
$GPGSA,A,3,06,07,05,29,09,23,30,02,13,16,,,1.49,0.83,1.24*01
$GPGSV,3,1,11,07,65,103,45,30,53,174,42,05,48,296,38,02,38,241,37*78
$GPGSV,3,2,11,09,3
6,079,42,49,30,173,34,06,17,196,35,13,16,255,33*7F
$GPGSV,3,3,11,23,11,080,32,16,11,025,25,29,07,308,20*
43
$GPRMC,144011.000,A,5212.0905,N,00005.9629,E,0.00,0.00,181118,,,D*63
$GPVTG,0.00,T,,M,0.00,N
,0.00,K,D*38
$PMTKLOG,0,1,a,31,15,0,0,1,0,0*11
$PMTK001,183,3*3A
$PMTK869,2,1*36

$GPGGA,144012
.000,5212.0905,N,00005.9629,E,2,10,0.83,9.8,M,47.0,M,0000,0000*6C
$GPGSA,A,3,06,07,05,29,09,23,30,02,13,16,,,1.49,0.83,1.24*01
$GPRMC,144012.000,A,5212.0905,N,00005.9629,E,0.00,218.25,181118,,,D*6C
$GPVTG,218.25,T,,M,0.00,N
,0.01,K,D*35
$PMTKLOG,0,1,a,31,15,0,0,1,0,0*11
$PMTK001,183,3*3A
$PMTK869,2,1*36

$GPGGA,144013.000,521
2.0905,N,00005.9629,E,2,10,0.83,9.8,M,47.0,M,0000,0000*6D
$GPGSA,A,3,06,07,05,29,09,23,30,02,13,16,,,1.49,0.83,1.24*01
$GPRMC,144013.000,A,5212.0905,N,00005.9629,E,0.01,345.17,181118,,,D*64
$GPVTG,345.17,T,,M,0.01,N,0.01,K,D*3C
$PMTKLOG,
0,1,a,31,15,0,0,1,0,0*11
$PMTK001,183,3*3A
$PMTK869,2,1*36

$GPGGA,144014.000,5212.0905,N,00005.9629,E,2,10,0.83,9.8
,M,47.0,M,0000,0000*6A
$GPGSA,A,3,06,07,05,29,09,23,30,02,13,16,,,1.49,0.83,1.24*01
$GPRMC,144014.000,A,5212.0905,N,00005.9629,E,0.00,4.72,181118,,,D*67
$GPVTG,4.72,T,,M,0.00,N
,0.01,K,D*38
$PMTKLOG,0,1,a,31,15,0,0,1,0,0*11
$PMTK001,183,3*3A
$PMTK869,2,1*36

$GPGGA,144015.000,5212.0905,N,00005.9629,E,2,10,0.83,9.8,M,47.0,M,000
0,0000*6B
$GPGSA,A,3,06,07,05,29,09,23,30,02,13,16,,,1.49,0.83,1.24*01
$GPRMC,144015.000,A,5212.0905,N,00005.9629,E,0.00,195.83,181118,,,D*61
$GPVTG,195.83,T,,M,0.00,N,0.00,K,D*3E
$PMTKLOG,0,1,a,31,
15,0,0,1,0,0*11
$PMTK001,183,3*3A
$PMTK869,2,1*36

$GPGGA,144016.000,5212.0905,N,00005.9629,E,2,10,0.83,9.8,M,47.0,M
,0000,0000*68
$GPGSA,A,3,06,07,05,29,09,23,30,02,13,16,,,1.49,0.83,1.24*01
$GPGSV,3,1,11,07,65,103,45,30,53,174,42,05,48,296,38,02,38,241,37*78
$GPGSV,3,2,11,09,36,079,42,49,30,173,34,06,17,196,34,13,16,255,33*7E
$GPGS
V,3,3,11,16,11,025,28,23,10,080,34,29,07,308,21*48
$GPRMC,144016.000,A,5212.0905,N,00005.9629,E,0.00,283.18,
181118,,,D*64
$GPVTG,283.18,T,,M,0.00,N,0.00,K,D*38
$PMTKLOG,0,1,a,31,15,0,0,1,0,0*11
$PMT
K001,183,3*3A
$PMTK869,2,1*36

$GPGGA,144017.000,5212.0905,N,00005.9629,E
,2,10,0.83,9.8,M,47.0,M,0000,0000*69
$GPGSA,A,3,06,07,05,29,09,23,30,02,13,16,,,1.49,0.83,1.24*01
$GPRMC,144017.000,A,5212.0905,N,00005.9629,E,0.00,62.01,181118,,,D*50
$GPVTG,62.01,T,,M,0.00,N,0.00,K,D*0D
$PMTKLOG,0,1,
a,31,15,0,0,1,0,0*11
$PMTK001,183,3*3A
$PMTK869,2,1*36

$GPGGA,144018.000,5212.0905,N,00005.9629,E,2,10,0.83,9.8,M,47.0,M,0000,0000*66
$GPGSA,A,3,0
6,07,05,29,09,23,30,02,13,16,,,1.49,0.83,1.23*06
$GPRMC,144018.000,A,5212.0905,N,00005.9629,E,0.00,310.44,181118,,,D*68
$GPVTG,310.44,T,,M,0.00,N,0.01,K,D*3B
$PMTKLOG,0,1,a,31,15,0,0,1,0,0*11
$PMTK001,183,3
*3A
$PMTK869,2,1*36

$GPGGA,144019.000,5212.0905,N,00005.9629,E,2,10,0.83,9.8,M,47.0,M,0000,0000*67

$GPGSA,A,3,06,07,05,29,09,23,30,02,13,16,,,1.49,0.83,1.23*06
$GPRMC,144019.000,A,5212.0905,N,00005.9629,E,0.00,166.64,181118,,,D*68
$GPVTG,166.64,T,,M,0.00,N,0.00,K,D*3B
$PM
TKLOG,0,1,a,31,15,0,0,1,0,0*11
$PMTK001,183,3*3A
$PMTK869,2,1*36

$GPGGA,144020.000,5212.0905,N,00005.9629,E,2,10,0.83,9.8,M,47.0,M,0000,0000
*6D
$GPGSA,A,3,06,07,05,29,09,23,30,02,13,16,,,1.49,0.83,1.23*06
$GPRMC,144020.000,A,5212.0905,N,00005.9629,E,0.00,210.47,181118,,,D*61
$GPVTG,210.47,T,,M,0.00,N,0.01,K,D*39

$PMTKLOG,0,1,a,31,15,0,0,1,0,0*11
$PMTK001,183,3*3A
$PMTK869,2,1*36

$GPGGA,144021.000,5212.0905,N,00005.9629,E,2,10,0.83,9.8,M,47.0,M,0000,0
000*6C
$GPGSA,A,3,06,07,05,29,09,23,30,02,13,16,,,1.49,0.83,1.24*01
$GPGSV,3,1,11,07,65,103,45,30,53,174,42,05,48,296,38,02,38,241,36*79
$GPGSV,3,2,11,09,36,079,42,49,30,173,34,06,17,196,35,13,16,255,33*7F
$GPGSV,3,3,11,16
,11,025,28,23,10,080,34,29,07,308,22*4B
$GPRMC,144021.000,A,5212.0905,N,00005.9629,E,0.00,263.14
,181118,,,D*62
$GPVTG,263.14,T,,M,0.00,N,0.01,K,D*3B
$PMTKLOG,0,1,a,31,15,0,0,1,0,0*11
$PMTK001,183,3*3A
$PMTK869,2,1
*36

$GPGGA,144022.000,5212.0905,N,00005.9629,E,2,10,0.83,9.8,M,47.0,M,0000,0000*6F
$GPGSA,A,3,06,07,05,29,09,
23,30,02,13,16,,,1.49,0.83,1.23*06
$GPRMC,144022.000,A,5212.0905,N,00005.9629,E,0.01,197.77,181118,,,D*6D
$GPVTG,197.77,T,,M,0.01,N,0.02,K,D*34
$PMTKLOG,0,1,a,31,15,0,
0,1,0,0*11
$PMTK001,183,3*3A
$PMTK869,2,1*36

$GPGGA,144023.000,5212.0905,N,00005.9629,E,2,10,0.83,9.8,M,47.0,M,0000,0000*6E
$GPGS
A,A,3,06,07,05,29,09,23,30,02,13,16,,,1.49,0.83,1.23*06
$GPRMC,144023.000,A,5212.0905,N,00005.9629,E,0.01,236.19,181118,,,D*6C
$GPVTG,236.19,T,,M,0.01,N,0.01,K,D*37
$PMTKLOG,0,1,a,31,15,0,0,1,0,0*11
$PMTK001,
183,3*3A
$PMTK869,2,1*36

$GPGGA,144024.000,5212.090
5,N,00005.9629,E,2,10,0.83,9.8,M,47.0,M,0000,0000*69
$GPGSA,A,3,06,07,05,29,09,23,30,02,13,16,,,1.49,0.83,1.
23*06
$GPRMC,144024.000,A,5212.0905,N,00005.9629,E,0.01,225.40,181118,,,D*65
$GPVTG,225.40,T,,M,0.01,N,0.01,K,D*39
$PMTKLOG,0,1,a
,31,15,0,0,1,0,0*11
$PMTK001,183,3*3A
$PMTK869,2,1*36

$GPGGA,144025.000,5212
.0905,N,00005.9629,E,2,10,0.83,9.8,M,47.0,M,0000,0000*68
$GPGSA,A,3,06,07,05,29,09,23,30,02,13,16,,,1.49,0.83,1.23*06
$GPRMC,144025.000,A,5212.0905,N,00005.9629,E,0.02,202.33,181118,,,D*66
$GPVTG,202.33,T,,M
,0.02,N,0.04,K,D*3E
$PMTKLOG,0,1,a,31,15,0,0,1,0,0*11
$PMTK001,183,3*3A
$PMTK869,2,1*36

$GPGGA,144026.000,5212.0905,N,0
0005.9629,E,2,10,0.83,9.8,M,47.0,M,0000,0000*6B
