
$GPRMC,151550.000,A,5212.0618,N,00005.9782,E,0.24,28.51,111118,,,A*50

$GPGGA,151551.000,5212.0619,N,00005.9782,E,1,08,1.00,5.8,M,47.0,M,,*64

$GPRMC,151553.000,A,5212.0620,N,00005.9783,E,0.07,277.65,111118,,,A*67

$GPGGA,151554.000,5212.0620,N,00005.9783,E,1,08,1.00,5.8,M,47.0,M,,*6A

$GPRMC,151556.000,A,5212.0621,N,00005.9783,E,0.35,25.15,111118,,,A*50

$GPGGA,151557.000,5212.0622,N,00005.9783,E,1,09,0.91,5.8,M,47.0,M,,*63

$GPRMC,151559.000,A,5212.0623,N,00005.9785,E,0.51,12.09,111118,,,A*50

$GPGGA,151600.000,5212.0624,N,00005.9785,E,1,08,0.97,5.8,M,47.0,M,,*65

$GPRMC,151602.000,A,5212.0625,N,00005.9785,E,0.41,25.60,111118,,,A*51

$GPGGA,151603.000,5212.0626,N,00005.9786,E,1,08,0.96,5.8,M,47.0,M,,*66

$GPRMC,151605.000,A,5212.0628,N,00005.9787,E,0.32,64.11,111118,,,A*5E

$GPGGA,151606.000,5212.0628,N,00005.9788,E,1,08,0.96,5.8,M,47.0,M,,*63

$GPRMC,151608.000,A,5212.0629,N,00005.9789,E,0.21,26.07,111118,,,A*5F

$GPGGA,151609.000,5212.0629,N,00005.9789,E,1,08,0.96,5.7,M,47.0,M,,*63

$GPRMC,151611.000,A,5212.0630,N,00005.9789,E,0.14,125.93,111118,,,A*66

$GPGGA,151612.000,5212.0630,N,00005.9789,E,1,09,0.91,5.7,M,47.0,M,,*67

$GPRMC,151614.000,A,5212.0629,N,00005.9788,E,0.21,217.76,111118,,,A*65

$GPGGA,151615.000,5212.0628,N,00005.9788,E,1,09,0.91,5.8,M,47.0,M,,*67

$GPRMC,151617.000,A,5212.0628,N,00005.9787,E,0.02,108.04,111118,,,A*61

$GPGGA,151618.000,5212.0628,N,00005.9788,E,1,09,0.91,5.8,M,47.0,M,,*6A

$GPRMC,151620.000,A,5212.0628,N,00005.9788,E,0.08,230.72,111118,,,A*69

$GPGGA,151621.000,5212.0628,N,00005.9787,E,1,09,0.91,5.7,M,47.0,M,,*60

$GPRMC,151623.000,A,5212.0628,N,00005.9787,E,0.02,84.42,111118,,,A*51

$GPGGA,151624.000,5212.0628,N,00005.9787,E,1,09,0.91,5.7,M,47.0,M,,*65

$GPRMC,151626.000,A,5212.0629,N,00005.9785,E,0.29,305.69,111118,,,A*6D

$GPGGA,151627.000,5212.0629,N,00005.9784,E,1,09,0.91,5.7,M,47.0,M,,*64

$GPRMC,151629.000,A,5212.0629,N,00005.9783,E,0.14,118.75,111118,,,A*69

$GPGGA,151630.000,5212.0629,N,00005.9783,E,1,09,0.91,5.7,M,47.0,M,,*65

$GPRMC,151632.000,A,5212.0628,N,00005.9786,E,0.16,141.14,111118,,,A*6E

$GPGGA,151633.000,5212.0627,N,00005.9787,E,1,09,0.91,5.8,M,47.0,M,,*63

$GPRMC,151635.000,A,5212.0627,N,00005.9788,E,0.16,152.77,111118,,,A*6F

$GPGGA,151636.000,5212.0626,N,00005.9788,E,1,09,0.91,5.8,M,47.0,M,,*68

$GPRMC,151638.000,A,5212.0626,N,00005.9789,E,0.01,162.38,111118,,,A*6C

$GPGGA,151639.000,5212.0626,N,00005.9789,E,1,09,0.91,5.8,M,47.0,M,,*66

$GPRMC,151641.000,A,5212.0625,N,00005.9788,E,0.09,133.69,111118,,,A*68

$GPGGA,151642.000,5212.0625,N,00005.9789,E,1,09,0.91,5.8,M,47.0,M,,*69

$GPRMC,151644.000,A,5212.0625,N,00005.9788,E,0.09,226.04,111118,,,A*61

$GPGGA,151645.000,5212.0624,N,00005.9788,E,1,09,0.91,5.8,M,47.0,M,,*6E

$GPRMC,151647.000,A,5212.0624,N,00005.9787,E,0.11,202.43,111118,,,A*60

$GPGGA,151648.000,5212.0624,N,00005.9787,E,1,09,0.91,5.8,M,47.0,M,,*6C

$GPRMC,151650.000,A,5212.0624,N,00005.9787,E,0.11,30.69,111118,,,A*5D

$GPGGA,151651.000,5212.0624,N,00005.9788,E,1,09,0.91,5.8,M,47.0,M,,*6B

$GPRMC,151653.000,A,5212.0623,N,00005.9788,E,0.05,20.24,111118,,,D*5E

$GPGGA,151654.000,5212.0622,N,00005.9788,E,2,09,0.91,5.8,M,47.0,M,0000,0000*6B

$GPRMC,151656.000,A,5212.0622,N,00005.9786,E,0.04,232.51,111118,,,D*66

$GPGGA,151657.000,5212.0621,N,00005.9785,E,2,09,0.91,5.7,M,47.0,M,0000,0000*69

$GPRMC,151659.000,A,5212.0622,N,00005.9784,E,0.02,210.95,111118,,,D*65

$GPGGA,151700.000,5212.0623,N,00005.9782,E,2,09,0.91,5.6,M,47.0,M,0000,0000*6E

$GPRMC,151702.000,A,5212.0624,N,00005.9781,E,0.06,341.23,111118,,,D*65

$GPGGA,151703.000,5212.0625,N,00005.9779,E,2,09,0.91,5.4,M,47.0,M,0000,0000*6D

$GPRMC,151705.000,A,5212.0626,N,00005.9778,E,0.02,353.77,111118,,,D*60

$GPGGA,151706.000,5212.0626,N,00005.9777,E,2,09,0.92,5.3,M,47.0,M,0000,0000*61

$GPRMC,151708.000,A,5212.0626,N,00005.9776,E,0.01,168.83,111118,,,D*61

$GPGGA,151709.000,5212.0627,N,00005.9775,E,2,09,0.92,5.3,M,47.0,M,0000,0000*6D

$GPRMC,151711.000,A,5212.0628,N,00005.9774,E,0.02,61.61,111118,,,D*52

$GPGGA,151712.000,5212.0628,N,00005.9773,E,2,08,1.16,5.6,M,47.0,M,0000,0000*67

$GPRMC,151714.000,A,5212.0629,N,00005.9775,E,0.39,70.67,111118,,,D*59

$GPGGA,151715.000,5212.0630,N,00005.9781,E,2,10,0.82,5.7,M,47.0,M,0000,0000*60

$GPRMC,151717.000,A,5212.0628,N,00005.9795,E,1.55,92.35,111118,,,D*55

$GPGGA,151718.000,5212.0627,N,00005.9805,E,2,10,0.80,6.0,M,47.0,M,0000,0000*6E

$GPRMC,151720.000,A,5212.0625,N,00005.9825,E,2.18,100.41,111118,,,D*6B

$GPGGA,151721.000,5212.0624,N,00005.9836,E,2,10,0.80,5.9,M,47.0,M,0000,0000*6D

$GPRMC,151723.000,A,5212.0622,N,00005.9858,E,2.13,93.18,111118,,,D*59

$GPGGA,151724.000,5212.0621,N,00005.9870,E,2,09,0.91,5.8,M,47.0,M,0000,0000*66

$GPRMC,151726.000,A,5212.0618,N,00005.9892,E,2.44,98.71,111118,,,D*55

$GPGGA,151727.000,5212.0619,N,00005.9901,E,2,10,0.80,5.8,M,47.0,M,0000,0000*61

$GPRMC,151729.000,A,5212.0630,N,00005.9909,E,2.50,11.34,111118,,,D*56

$GPGGA,151730.000,5212.0636,N,00005.9912,E,2,10,0.82,5.9,M,47.0,M,0000,0000*6B

$GPRMC,151732.000,A,5212.0649,N,00005.9917,E,2.51,7.09,111118,,,D*65

$GPGGA,151733.000,5212.0655,N,00005.9918,E,2,10,0.82,5.9,M,47.0,M,0000,0000*67

$GPRMC,151735.000,A,5212.0668,N,00005.9921,E,2.19,338.50,111118,,,D*6B

$GPGGA,151736.000,5212.0671,N,00005.9914,E,2,10,0.80,6.1,M,47.0,M,0000,0000*61

$GPRMC,151738.000,A,5212.0671,N,00005.9896,E,2.42,277.14,111118,,,D*67

$GPGGA,151739.000,5212.0671,N,00005.9886,E,2,10,0.80,6.5,M,47.0,M,0000,0000*60

$GPRMC,151741.000,A,5212.0673,N,00005.9865,E,2.75,282.63,111118,,,D*69

$GPGGA,151742.000,5212.0674,N,00005.9854,E,2,10,0.80,6.2,M,47.0,M,0000,0000*61

$GPRMC,151744.000,A,5212.0676,N,00005.9831,E,2.70,279.41,111118,,,D*69

$GPGGA,151745.000,5212.0677,N,00005.9820,E,2,10,0.80,6.5,M,47.0,M,0000,0000*61

$GPRMC,151747.000,A,5212.0679,N,00005.9797,E,2.58,278.99,111118,,,D*68

$GPGGA,151748.000,5212.0680,N,00005.9786,E,2,08,1.00,6.5,M,47.0,M,0000,0000*67

$GPRMC,151750.000,A,5212.0680,N,00005.9767,E,2.03,268.19,111118,,,D*60

$GPGGA,151751.000,5212.0681,N,00005.9759,E,2,09,0.91,6.3,M,47.0,M,0000,0000*62

$GPRMC,151753.000,A,5212.0683,N,00005.9743,E,1.57,277.37,111118,,,D*66

$GPGGA,151754.000,5212.0684,N,00005.9734,E,2,08,1.00,6.3,M,47.0,M,0000,0000*61

$GPRMC,151756.000,A,5212.0687,N,00005.9714,E,2.51,281.15,111118,,,D*69

$GPGGA,151757.000,5212.0688,N,00005.9702,E,2,10,0.80,6.1,M,47.0,M,0000,0000*69

$GPRMC,151759.000,A,5212.0691,N,00005.9679,E,2.77,280.85,111118,,,D*67

$GPGGA,151800.000,5212.0692,N,00005.9666,E,2,09,0.91,6.1,M,47.0,M,0000,0000*64

$GPRMC,151802.000,A,5212.0694,N,00005.9642,E,2.62,278.14,111118,,,D*60

$GPGGA,151803.000,5212.0693,N,00005.9631,E,2,10,0.80,6.1,M,47.0,M,0000,0000*6C

$GPRMC,151805.000,A,5212.0680,N,00005.9621,E,2.74,189.36,111118,,,D*6D

$GPGGA,151806.000,5212.0672,N,00005.9618,E,2,09,0.91,6.2,M,47.0,M,0000,0000*66

$GPRMC,151808.000,A,5212.0656,N,00005.9612,E,2.92,193.14,111118,,,D*68

$GPGGA,151809.000,5212.0648,N,00005.9609,E,2,09,0.91,6.4,M,47.0,M,0000,0000*66

$GPRMC,151811.000,A,5212.0632,N,00005.9605,E,2.92,190.17,111118,,,D*64

$GPGGA,151812.000,5212.0624,N,00005.9604,E,2,09,0.91,6.5,M,47.0,M,0000,0000*6A

$GPRMC,151814.000,A,5212.0607,N,00005.9599,E,3.03,188.83,111118,,,D*6C

$GPGGA,151815.000,5212.0599,N,00005.9597,E,2,09,0.91,6.5,M,47.0,M,0000,0000*61

$GPRMC,151817.000,A,5212.0583,N,00005.9591,E,2.93,192.17,111118,,,D*66

$GPGGA,151818.000,5212.0575,N,00005.9589,E,2,09,0.91,6.5,M,47.0,M,0000,0000*61

$GPRMC,151820.000,A,5212.0558,N,00005.9585,E,2.91,189.76,111118,,,D*6E

$GPGGA,151821.000,5212.0550,N,00005.9583,E,2,09,0.91,6.7,M,47.0,M,0000,0000*64

$GPRMC,151823.000,A,5212.0535,N,00005.9579,E,2.77,188.89,111118,,,D*6C

$GPGGA,151824.000,5212.0527,N,00005.9577,E,2,09,0.91,6.8,M,47.0,M,0000,0000*65

$GPRMC,151826.000,A,5212.0514,N,00005.9578,E,1.99,144.34,111118,,,D*6E

$GPGGA,151827.000,5212.0511,N,00005.9586,E,2,10,0.80,6.7,M,47.0,M,0000,0000*6A

$GPRMC,151829.000,A,5212.0509,N,00005.9611,E,2.80,97.31,111118,,,D*50

$GPGGA,151830.000,5212.0508,N,00005.9624,E,2,09,0.91,6.5,M,47.0,M,0000,0000*65

$GPRMC,151832.000,A,5212.0506,N,00005.9650,E,2.93,97.38,111118,,,D*5B

$GPGGA,151833.000,5212.0505,N,00005.9663,E,2,10,0.80,6.4,M,47.0,M,0000,0000*61

$GPRMC,151835.000,A,5212.0504,N,00005.9687,E,2.58,98.24,111118,,,D*51

$GPGGA,151836.000,5212.0503,N,00005.9699,E,2,10,0.80,6.2,M,47.0,M,0000,0000*61

$GPRMC,151838.000,A,5212.0502,N,00005.9722,E,2.72,102.60,111118,,,D*6E

$GPGGA,151839.000,5212.0501,N,00005.9734,E,2,10,0.80,6.1,M,47.0,M,0000,0000*69

$GPRMC,151841.000,A,5212.0498,N,00005.9758,E,2.56,99.11,111118,,,D*5C

$GPGGA,151842.000,5212.0498,N,00005.9769,E,2,10,0.80,5.9,M,47.0,M,0000,0000*67

$GPRMC,151844.000,A,5212.0495,N,00005.9796,E,2.79,98.79,111118,,,D*54

$GPGGA,151845.000,5212.0494,N,00005.9809,E,2,10,0.80,5.8,M,47.0,M,0000,0000*64

$GPRMC,151847.000,A,5212.0491,N,00005.9833,E,2.62,99.61,111118,,,D*51

$GPGGA,151848.000,5212.0490,N,00005.9845,E,2,10,0.80,5.5,M,47.0,M,0000,0000*68

$GPRMC,151850.000,A,5212.0488,N,00005.9871,E,2.61,93.19,111118,,,D*5F

$GPGGA,151851.000,5212.0486,N,00005.9884,E,2,09,0.91,5.6,M,47.0,M,0000,0000*61

$GPRMC,151853.000,A,5212.0483,N,00005.9911,E,2.52,97.83,111118,,,D*57

$GPGGA,151854.000,5212.0482,N,00005.9922,E,2,09,0.86,5.5,M,47.0,M,0000,0000*68

$GPRMC,151856.000,A,5212.0482,N,00005.9943,E,2.30,94.97,111118,,,D*56

$GPGGA,151857.000,5212.0481,N,00005.9954,E,2,10,0.80,5.1,M,47.0,M,0000,0000*63

$GPRMC,151859.000,A,5212.0490,N,00005.9968,E,2.79,9.80,111118,,,D*6C

$GPGGA,151900.000,5212.0496,N,00005.9971,E,2,10,0.81,5.2,M,47.0,M,0000,0000*63

$GPRMC,151902.000,A,5212.0511,N,00005.9977,E,3.04,10.16,111118,,,D*59

$GPGGA,151903.000,5212.0519,N,00005.9980,E,2,10,0.81,5.3,M,47.0,M,0000,0000*69

$GPRMC,151905.000,A,5212.0534,N,00005.9988,E,3.15,10.87,111118,,,D*51

$GPGGA,151906.000,5212.0542,N,00005.9992,E,2,10,0.81,4.7,M,47.0,M,0000,0000*64

$GPRMC,151908.000,A,5212.0556,N,00005.9998,E,3.00,9.48,111118,,,D*66

$GPGGA,151909.000,5212.0565,N,00006.0000,E,2,10,0.81,5.1,M,47.0,M,0000,0000*61

$GPRMC,151911.000,A,5212.0579,N,00006.0005,E,2.66,12.57,111118,,,D*51

$GPGGA,151912.000,5212.0586,N,00006.0009,E,2,10,0.81,5.6,M,47.0,M,0000,0000*68

$GPRMC,151914.000,A,5212.0601,N,00006.0016,E,3.04,8.17,111118,,,D*60

$GPGGA,151915.000,5212.0609,N,00006.0019,E,2,10,0.81,5.9,M,47.0,M,0000,0000*65

$GPRMC,151917.000,A,5212.0625,N,00006.0025,E,3.21,10.73,111118,,,D*59

$GPGGA,151918.000,5212.0633,N,00006.0028,E,2,09,0.90,5.5,M,47.0,M,0000,0000*67

$GPRMC,151920.000,A,5212.0649,N,00006.0032,E,3.10,13.46,111118,,,D*56

$GPGGA,151921.000,5212.0658,N,00006.0035,E,2,10,0.81,5.7,M,47.0,M,0000,0000*66

$GPRMC,151923.000,A,5212.0673,N,00006.0039,E,2.85,9.88,111118,,,D*63

$GPGGA,151924.000,5212.0681,N,00006.0041,E,2,10,0.81,6.0,M,47.0,M,0000,0000*60

$GPRMC,151926.000,A,5212.0696,N,00006.0047,E,2.69,10.94,111118,,,D*53

$GPGGA,151927.000,5212.0703,N,00006.0050,E,2,10,0.81,6.0,M,47.0,M,0000,0000*68

$GPRMC,151929.000,A,5212.0717,N,00006.0053,E,2.71,341.84,111118,,,D*6E

$GPGGA,151930.000,5212.0722,N,00006.0047,E,2,09,0.86,6.1,M,47.0,M,0000,0000*65

$GPRMC,151932.000,A,5212.0727,N,00006.0023,E,3.00,280.09,111118,,,D*6E

$GPGGA,151933.000,5212.0728,N,00006.0009,E,2,09,0.86,6.3,M,47.0,M,0000,0000*64

$GPRMC,151935.000,A,5212.0735,N,00005.9981,E,3.02,282.57,111118,,,D*6A

$GPGGA,151936.000,5212.0737,N,00005.9968,E,2,09,0.86,6.8,M,47.0,M,0000,0000*60

$GPRMC,151938.000,A,5212.0739,N,00005.9942,E,2.92,278.12,111118,,,D*68

$GPGGA,151939.000,5212.0739,N,00005.9929,E,2,09,0.86,6.2,M,47.0,M,0000,0000*6E

$GPRMC,151941.000,A,5212.0741,N,00005.9902,E,2.98,279.14,111118,,,D*60

$GPGGA,151942.000,5212.0742,N,00005.9889,E,2,08,1.00,5.6,M,47.0,M,0000,0000*6C

$GPRMC,151944.000,A,5212.0746,N,00005.9863,E,2.81,285.03,111118,,,D*69

$GPGGA,151945.000,5212.0748,N,00005.9849,E,2,08,1.00,5.5,M,47.0,M,0000,0000*6E

$GPRMC,151947.000,A,5212.0751,N,00005.9822,E,2.93,277.03,111118,,,D*67

$GPGGA,151948.000,5212.0752,N,00005.9809,E,2,08,1.00,5.6,M,47.0,M,0000,0000*6F

$GPRMC,151950.000,A,5212.0755,N,00005.9782,E,2.88,283.23,111118,,,D*63

$GPGGA,151951.000,5212.0756,N,00005.9770,E,2,09,0.86,5.2,M,47.0,M,0000,0000*68

$GPRMC,151953.000,A,5212.0758,N,00005.9744,E,2.96,280.08,111118,,,D*62

$GPGGA,151954.000,5212.0759,N,00005.9731,E,2,09,0.86,5.0,M,47.0,M,0000,0000*65

$GPRMC,151956.000,A,5212.0762,N,00005.9705,E,2.79,279.14,111118,,,D*61

$GPGGA,151957.000,5212.0763,N,00005.9692,E,2,09,0.86,4.8,M,47.0,M,0000,0000*6E

$GPRMC,151959.000,A,5212.0766,N,00005.9665,E,2.88,278.10,111118,,,D*66

$GPGGA,152000.000,5212.0767,N,00005.9653,E,2,09,0.86,4.7,M,47.0,M,0000,0000*60

$GPRMC,152002.000,A,5212.0770,N,00005.9631,E,2.44,279.40,111118,,,D*60

$GPGGA,152003.000,5212.0772,N,00005.9620,E,2,09,0.86,4.8,M,47.0,M,0000,0000*6C

$GPRMC,152005.000,A,5212.0775,N,00005.9598,E,2.69,284.66,111118,,,D*6B

$GPGGA,152006.000,5212.0777,N,00005.9585,E,2,09,0.86,4.8,M,47.0,M,0000,0000*60

$GPRMC,152008.000,A,5212.0772,N,00005.9567,E,2.42,196.07,111118,,,D*6F

$GPGGA,152009.000,5212.0765,N,00005.9564,E,2,08,1.00,4.9,M,47.0,M,0000,0000*6C

$GPRMC,152011.000,A,5212.0750,N,00005.9557,E,2.82,193.97,111118,,,D*64

$GPGGA,152012.000,5212.0742,N,00005.9555,E,2,08,1.00,4.9,M,47.0,M,0000,0000*61

$GPRMC,152014.000,A,5212.0725,N,00005.9551,E,2.95,187.58,111118,,,D*65

$GPGGA,152015.000,5212.0717,N,00005.9548,E,2,08,1.00,4.8,M,47.0,M,0000,0000*6B

$GPRMC,152017.000,A,5212.0701,N,00005.9543,E,2.67,190.80,111118,,,D*6D

$GPGGA,152018.000,5212.0693,N,00005.9541,E,2,08,1.00,4.8,M,47.0,M,0000,0000*62

$GPRMC,152020.000,A,5212.0678,N,00005.9536,E,2.83,187.92,111118,,,D*6B

$GPGGA,152021.000,5212.0670,N,00005.9534,E,2,08,1.00,5.0,M,47.0,M,0000,0000*6E

$GPRMC,152023.000,A,5212.0654,N,00005.9528,E,2.79,190.98,111118,,,D*60

$GPGGA,152024.000,5212.0647,N,00005.9525,E,2,08,1.00,5.0,M,47.0,M,0000,0000*6F

$GPRMC,152026.000,A,5212.0634,N,00005.9520,E,2.75,190.34,111118,,,D*61

$GPGGA,152027.000,5212.0626,N,00005.9517,E,2,09,0.86,5.1,M,47.0,M,0000,0000*65

$GPRMC,152029.000,A,5212.0610,N,00005.9513,E,2.82,187.70,111118,,,D*66

$GPGGA,152030.000,5212.0602,N,00005.9511,E,2,08,1.00,5.2,M,47.0,M,0000,0000*6E

$GPRMC,152032.000,A,5212.0585,N,00005.9506,E,2.97,188.35,111118,,,D*6D

$GPGGA,152033.000,5212.0576,N,00005.9505,E,2,09,0.92,5.4,M,47.0,M,0000,0000*65

$GPRMC,152035.000,A,5212.0559,N,00005.9502,E,3.20,186.05,111118,,,D*6F

$GPGGA,152036.000,5212.0550,N,00005.9501,E,2,08,1.00,5.8,M,47.0,M,0000,0000*67

$GPRMC,152038.000,A,5212.0534,N,00005.9497,E,2.81,190.18,111118,,,D*65

$GPGGA,152039.000,5212.0527,N,00005.9494,E,2,10,0.80,5.9,M,47.0,M,0000,0000*64

$GPRMC,152041.000,A,5212.0521,N,00005.9491,E,0.87,254.21,111118,,,D*6C

$GPGGA,152042.000,5212.0522,N,00005.9484,E,2,09,0.86,6.1,M,47.0,M,0000,0000*69

$GPRMC,152044.000,A,5212.0525,N,00005.9464,E,2.26,279.07,111118,,,D*65

$GPGGA,152045.000,5212.0524,N,00005.9455,E,2,09,0.86,5.9,M,47.0,M,0000,0000*6F

$GPRMC,152047.000,A,5212.0510,N,00005.9448,E,2.78,190.48,111118,,,D*6A

$GPGGA,152048.000,5212.0503,N,00005.9445,E,2,08,1.00,5.9,M,47.0,M,0000,0000*68

$GPRMC,152050.000,A,5212.0487,N,00005.9441,E,2.99,186.35,111118,,,D*68

$GPGGA,152051.000,5212.0478,N,00005.9439,E,2,09,0.86,6.0,M,47.0,M,0000,0000*62

$GPRMC,152053.000,A,5212.0462,N,00005.9434,E,2.78,192.86,111118,,,D*60

$GPGGA,152054.000,5212.0455,N,00005.9432,E,2,08,1.00,6.0,M,47.0,M,0000,0000*6D

$GPRMC,152056.000,A,5212.0440,N,00005.9427,E,2.78,192.20,111118,,,D*6B

$GPGGA,152057.000,5212.0433,N,00005.9424,E,2,08,1.00,5.7,M,47.0,M,0000,0000*6D

$GPRMC,152059.000,A,5212.0418,N,00005.9419,E,2.65,194.77,111118,,,D*6C

$GPGGA,152100.000,5212.0411,N,00005.9415,E,2,08,1.00,5.5,M,47.0,M,0000,0000*6E

$GPRMC,152102.000,A,5212.0395,N,00005.9413,E,2.66,183.21,111118,,,D*6D

$GPGGA,152103.000,5212.0388,N,00005.9412,E,2,08,1.00,5.4,M,47.0,M,0000,0000*6C

$GPRMC,152105.000,A,5212.0373,N,00005.9407,E,2.87,193.04,111118,,,D*6E

$GPGGA,152106.000,5212.0365,N,00005.9404,E,2,09,0.86,5.4,M,47.0,M,0000,0000*63

$GPRMC,152108.000,A,5212.0357,N,00005.9416,E,2.66,105.95,111118,,,D*6D

$GPGGA,152109.000,5212.0356,N,00005.9428,E,2,09,0.86,5.2,M,47.0,M,0000,0000*64

$GPRMC,152111.000,A,5212.0353,N,00005.9452,E,2.73,100.73,111118,,,D*68

$GPGGA,152112.000,5212.0352,N,00005.9465,E,2,09,0.86,5.3,M,47.0,M,0000,0000*62

$GPRMC,152114.000,A,5212.0350,N,00005.9490,E,2.80,95.40,111118,,,D*51

$GPGGA,152115.000,5212.0350,N,00005.9503,E,2,09,0.86,5.3,M,47.0,M,0000,0000*66

$GPRMC,152117.000,A,5212.0348,N,00005.9528,E,2.76,101.60,111118,,,D*6E

$GPGGA,152118.000,5212.0347,N,00005.9540,E,2,09,0.86,5.5,M,47.0,M,0000,0000*6C

$GPRMC,152120.000,A,5212.0344,N,00005.9566,E,2.76,96.60,111118,,,D*53

$GPGGA,152121.000,5212.0343,N,00005.9577,E,2,09,0.86,5.6,M,47.0,M,0000,0000*65

$GPRMC,152123.000,A,5212.0341,N,00005.9600,E,2.95,97.22,111118,,,D*5C

$GPGGA,152124.000,5212.0341,N,00005.9613,E,2,09,0.86,5.3,M,47.0,M,0000,0000*66

$GPRMC,152126.000,A,5212.0338,N,00005.9633,E,2.82,94.54,111118,,,D*53

$GPGGA,152127.000,5212.0337,N,00005.9646,E,2,09,0.86,5.2,M,47.0,M,0000,0000*65

$GPRMC,152129.000,A,5212.0335,N,00005.9672,E,2.77,98.15,111118,,,D*57

$GPGGA,152130.000,5212.0334,N,00005.9683,E,2,09,0.86,5.1,M,47.0,M,0000,0000*6A

$GPRMC,152132.000,A,5212.0331,N,00005.9708,E,3.10,100.76,111118,,,D*60

$GPGGA,152133.000,5212.0330,N,00005.9721,E,2,09,0.86,5.1,M,47.0,M,0000,0000*64

$GPRMC,152135.000,A,5212.0328,N,00005.9744,E,2.84,100.45,111118,,,D*6B

$GPGGA,152136.000,5212.0328,N,00005.9755,E,2,09,0.86,5.0,M,47.0,M,0000,0000*6A

$GPRMC,152138.000,A,5212.0326,N,00005.9782,E,3.37,106.43,111118,,,D*6B

$GPGGA,152139.000,5212.0324,N,00005.9794,E,2,09,0.86,4.8,M,47.0,M,0000,0000*6D

$GPRMC,152141.000,A,5212.0324,N,00005.9818,E,1.85,89.40,111118,,,D*55

$GPGGA,152142.000,5212.0324,N,00005.9827,E,2,09,0.86,4.8,M,47.0,M,0000,0000*66

$GPRMC,152144.000,A,5212.0320,N,00005.9850,E,2.59,104.21,111118,,,D*69

$GPGGA,152145.000,5212.0319,N,00005.9861,E,2,09,0.86,4.7,M,47.0,M,0000,0000*62

$GPRMC,152147.000,A,5212.0317,N,00005.9884,E,2.03,96.08,111118,,,D*59

$GPGGA,152148.000,5212.0316,N,00005.9897,E,2,10,0.80,4.4,M,47.0,M,0000,0000*64

$GPRMC,152150.000,A,5212.0315,N,00005.9914,E,1.03,35.35,111118,,,D*51

$GPGGA,152151.000,5212.0315,N,00005.9931,E,2,10,0.80,3.5,M,47.0,M,0000,0000*64

$GPRMC,152153.000,A,5212.0325,N,00005.9948,E,2.07,21.43,111118,,,D*5B

$GPGGA,152154.000,5212.0331,N,00005.9954,E,2,10,0.80,3.5,M,47.0,M,0000,0000*64

$GPRMC,152156.000,A,5212.0342,N,00005.9965,E,2.54,14.07,111118,,,D*50

$GPGGA,152157.000,5212.0348,N,00005.9969,E,2,10,0.81,3.0,M,47.0,M,0000,0000*63

$GPRMC,152159.000,A,5212.0361,N,00005.9976,E,2.51,3.09,111118,,,D*61

$GPGGA,152200.000,5212.0368,N,00005.9977,E,2,09,0.92,3.2,M,47.0,M,0000,0000*67

$GPRMC,152202.000,A,5212.0383,N,00005.9982,E,2.93,9.22,111118,,,D*66

$GPGGA,152203.000,5212.0391,N,00005.9983,E,2,10,0.81,3.5,M,47.0,M,0000,0000*64

$GPRMC,152205.000,A,5212.0408,N,00005.9989,E,2.99,12.21,111118,,,D*5D

$GPGGA,152206.000,5212.0415,N,00005.9991,E,2,10,0.81,3.7,M,47.0,M,0000,0000*6B

$GPRMC,152208.000,A,5212.0431,N,00005.9991,E,2.71,10.72,111118,,,D*51

$GPGGA,152209.000,5212.0437,N,00005.9994,E,2,10,0.81,4.0,M,47.0,M,0000,0000*61

$GPRMC,152211.000,A,5212.0453,N,00005.9996,E,3.09,8.91,111118,,,D*60

$GPGGA,152212.000,5212.0462,N,00006.0000,E,2,09,0.92,4.7,M,47.0,M,0000,0000*68

$GPRMC,152214.000,A,5212.0480,N,00006.0001,E,3.15,8.89,111118,,,D*62

$GPGGA,152215.000,5212.0489,N,00006.0002,E,2,09,0.92,5.5,M,47.0,M,0000,0000*6B

$GPRMC,152217.000,A,5212.0507,N,00006.0005,E,2.88,6.47,111118,,,D*62

$GPGGA,152218.000,5212.0516,N,00006.0009,E,2,10,0.81,5.6,M,47.0,M,0000,0000*63

$GPRMC,152220.000,A,5212.0527,N,00006.0015,E,2.82,2.97,111118,,,D*66

$GPGGA,152221.000,5212.0534,N,00006.0019,E,2,09,0.89,6.6,M,47.0,M,0000,0000*6B

$GPRMC,152223.000,A,5212.0552,N,00006.0024,E,2.64,3.80,111118,,,D*6A

$GPGGA,152224.000,5212.0560,N,00006.0028,E,2,08,1.03,7.0,M,47.0,M,0000,0000*68

$GPRMC,152226.000,A,5212.0573,N,00006.0036,E,2.17,22.91,111118,,,D*58

$GPGGA,152227.000,5212.0583,N,00006.0040,E,2,08,1.00,7.9,M,47.0,M,0000,0000*62

$GPRMC,152229.000,A,5212.0598,N,00006.0047,E,2.83,6.25,111118,,,D*60

$GPGGA,152230.000,5212.0606,N,00006.0050,E,2,09,0.89,8.4,M,47.0,M,0000,0000*68

$GPRMC,152232.000,A,5212.0625,N,00006.0056,E,2.87,1.80,111118,,,D*63

$GPGGA,152233.000,5212.0634,N,00006.0057,E,2,09,0.89,9.0,M,47.0,M,0000,0000*68

$GPRMC,152235.000,A,5212.0650,N,00006.0062,E,2.74,12.60,111118,,,D*51

$GPGGA,152236.000,5212.0657,N,00006.0065,E,2,09,0.89,9.4,M,47.0,M,0000,0000*6D

$GPRMC,152238.000,A,5212.0672,N,00006.0069,E,2.49,14.99,111118,,,D*59

$GPGGA,152239.000,5212.0680,N,00006.0070,E,2,09,0.89,8.9,M,47.0,M,0000,0000*60

$GPRMC,152241.000,A,5212.0699,N,00006.0076,E,2.51,17.29,111118,,,D*5D

$GPGGA,152242.000,5212.0707,N,00006.0079,E,2,09,0.86,8.1,M,47.0,M,0000,0000*6C

$GPRMC,152244.000,A,5212.0723,N,00006.0085,E,2.72,9.59,111118,,,D*6D

$GPGGA,152245.000,5212.0731,N,00006.0089,E,2,09,0.89,7.5,M,47.0,M,0000,0000*65

$GPRMC,152247.000,A,5212.0748,N,00006.0094,E,2.23,5.20,111118,,,D*65

$GPGGA,152248.000,5212.0756,N,00006.0096,E,2,09,0.89,6.8,M,47.0,M,0000,0000*6B

$GPRMC,152250.000,A,5212.0772,N,00006.0101,E,2.62,9.81,111118,,,D*65

$GPGGA,152251.000,5212.0779,N,00006.0103,E,2,09,0.89,6.0,M,47.0,M,0000,0000*6B

$GPRMC,152253.000,A,5212.0794,N,00006.0106,E,2.76,25.22,111118,,,D*5B

$GPGGA,152254.000,5212.0801,N,00006.0111,E,2,09,0.86,5.3,M,47.0,M,0000,0000*62

$GPRMC,152256.000,A,5212.0809,N,00006.0116,E,0.96,41.98,111118,,,D*5B

$GPGGA,152257.000,5212.0814,N,00006.0117,E,2,10,0.80,5.2,M,47.0,M,0000,0000*6C

$GPRMC,152259.000,A,5212.0831,N,00006.0117,E,2.58,9.07,111118,,,D*64

$GPGGA,152300.000,5212.0837,N,00006.0119,E,2,10,0.81,4.8,M,47.0,M,0000,0000*6A

$GPRMC,152302.000,A,5212.0853,N,00006.0123,E,2.84,8.96,111118,,,D*60

$GPGGA,152303.000,5212.0861,N,00006.0123,E,2,09,0.89,4.3,M,47.0,M,0000,0000*68

$GPRMC,152305.000,A,5212.0876,N,00006.0127,E,2.62,13.24,111118,,,D*5F

$GPGGA,152306.000,5212.0882,N,00006.0128,E,2,09,0.89,3.7,M,47.0,M,0000,0000*68

$GPRMC,152308.000,A,5212.0892,N,00006.0120,E,2.43,297.61,111118,,,D*63

$GPGGA,152309.000,5212.0894,N,00006.0106,E,2,09,0.92,2.3,M,47.0,M,0000,0000*63

$GPRMC,152311.000,A,5212.0899,N,00006.0078,E,3.03,291.47,111118,,,D*6B

$GPGGA,152312.000,5212.0903,N,00006.0062,E,2,09,0.86,1.4,M,47.0,M,0000,0000*64

$GPRMC,152314.000,A,5212.0907,N,00006.0031,E,3.22,275.13,111118,,,D*6D

$GPGGA,152315.000,5212.0908,N,00006.0016,E,2,08,1.00,1.0,M,47.0,M,0000,0000*61

$GPRMC,152317.000,A,5212.0911,N,00005.9985,E,3.13,284.12,111118,,,D*68

$GPGGA,152318.000,5212.0913,N,00005.9970,E,2,08,1.00,0.7,M,47.0,M,0000,0000*63

$GPRMC,152320.000,A,5212.0918,N,00005.9939,E,3.15,288.64,111118,,,D*69

$GPGGA,152321.000,5212.0918,N,00005.9924,E,2,08,1.00,0.7,M,47.0,M,0000,0000*63

$GPRMC,152323.000,A,5212.0921,N,00005.9894,E,2.95,277.77,111118,,,D*6D

$GPGGA,152324.000,5212.0922,N,00005.9880,E,2,08,1.00,0.8,M,47.0,M,0000,0000*6F

$GPRMC,152326.000,A,5212.0926,N,00005.9852,E,3.12,285.01,111118,,,D*67

$GPGGA,152327.000,5212.0928,N,00005.9838,E,2,08,1.00,0.7,M,47.0,M,0000,0000*6A

$GPRMC,152329.000,A,5212.0932,N,00005.9811,E,2.78,278.59,111118,,,D*68

$GPGGA,152330.000,5212.0933,N,00005.9798,E,2,08,1.00,0.6,M,47.0,M,0000,0000*62

$GPRMC,152332.000,A,5212.0937,N,00005.9771,E,2.99,282.50,111118,,,D*6D

$GPGGA,152333.000,5212.0939,N,00005.9758,E,2,07,1.24,0.4,M,47.0,M,0000,0000*6C

$GPRMC,152335.000,A,5212.0942,N,00005.9734,E,2.64,285.32,111118,,,D*68

$GPGGA,152336.000,5212.0945,N,00005.9722,E,2,07,1.24,0.3,M,47.0,M,0000,0000*68

$GPRMC,152338.000,A,5212.0947,N,00005.9697,E,2.81,274.15,111118,,,D*68

$GPGGA,152339.000,5212.0948,N,00005.9684,E,2,07,1.24,0.3,M,47.0,M,0000,0000*67

$GPRMC,152341.000,A,5212.0951,N,00005.9658,E,3.03,285.40,111118,,,D*67

$GPGGA,152342.000,5212.0952,N,00005.9645,E,2,07,1.24,0.4,M,47.0,M,0000,0000*6A

$GPRMC,152344.000,A,5212.0956,N,00005.9617,E,3.11,280.61,111118,,,D*6B

$GPGGA,152345.000,5212.0958,N,00005.9603,E,2,07,1.24,0.5,M,47.0,M,0000,0000*64

$GPRMC,152347.000,A,5212.0960,N,00005.9577,E,2.89,285.06,111118,,,D*6C

$GPGGA,152348.000,5212.0962,N,00005.9564,E,2,07,1.24,0.4,M,47.0,M,0000,0000*63

$GPRMC,152350.000,A,5212.0961,N,00005.9539,E,2.51,250.98,111118,,,D*6B

$GPGGA,152351.000,5212.0956,N,00005.9532,E,2,07,1.24,0.4,M,47.0,M,0000,0000*6F

$GPRMC,152353.000,A,5212.0940,N,00005.9527,E,3.00,195.79,111118,,,D*64

$GPGGA,152354.000,5212.0931,N,00005.9523,E,2,07,1.24,0.4,M,47.0,M,0000,0000*6B

$GPRMC,152356.000,A,5212.0913,N,00005.9517,E,3.12,193.54,111118,,,D*6E

$GPGGA,152357.000,5212.0904,N,00005.9515,E,2,07,1.24,0.4,M,47.0,M,0000,0000*6B

$GPRMC,152359.000,A,5212.0886,N,00005.9513,E,3.15,186.55,111118,,,D*6A

$GPGGA,152400.000,5212.0877,N,00005.9511,E,2,07,1.24,0.6,M,47.0,M,0000,0000*6D

$GPRMC,152402.000,A,5212.0859,N,00005.9509,E,3.10,189.16,111118,,,D*67

$GPGGA,152403.000,5212.0851,N,00005.9507,E,2,07,1.24,0.9,M,47.0,M,0000,0000*62

$GPRMC,152405.000,A,5212.0835,N,00005.9504,E,2.92,187.74,111118,,,D*66

$GPGGA,152406.000,5212.0826,N,00005.9502,E,2,07,1.24,0.7,M,47.0,M,0000,0000*6C

$GPRMC,152408.000,A,5212.0809,N,00005.9498,E,3.04,186.42,111118,,,D*6A

$GPGGA,152409.000,5212.0800,N,00005.9495,E,2,07,1.24,0.6,M,47.0,M,0000,0000*69

$GPRMC,152411.000,A,5212.0783,N,00005.9490,E,2.98,189.69,111118,,,D*65

$GPGGA,152412.000,5212.0774,N,00005.9488,E,2,07,1.24,0.7,M,47.0,M,0000,0000*62

$GPRMC,152414.000,A,5212.0756,N,00005.9484,E,3.13,189.27,111118,,,D*65

$GPGGA,152415.000,5212.0747,N,00005.9482,E,2,07,1.24,0.9,M,47.0,M,0000,0000*61

$GPRMC,152417.000,A,5212.0730,N,00005.9477,E,3.09,192.33,111118,,,D*6E

$GPGGA,152418.000,5212.0721,N,00005.9475,E,2,07,1.24,1.0,M,47.0,M,0000,0000*6C

$GPRMC,152420.000,A,5212.0704,N,00005.9470,E,3.07,190.47,111118,,,D*65

$GPGGA,152421.000,5212.0695,N,00005.9468,E,2,07,1.24,1.1,M,47.0,M,0000,0000*65

$GPRMC,152423.000,A,5212.0678,N,00005.9464,E,3.12,186.93,111118,,,D*63

$GPGGA,152424.000,5212.0669,N,00005.9461,E,2,07,1.24,1.1,M,47.0,M,0000,0000*6A

$GPRMC,152426.000,A,5212.0652,N,00005.9456,E,2.88,188.17,111118,,,D*6F

$GPGGA,152427.000,5212.0644,N,00005.9453,E,2,08,0.97,0.9,M,47.0,M,0000,0000*68

$GPRMC,152429.000,A,5212.0627,N,00005.9448,E,2.87,191.77,111118,,,D*6C

$GPGGA,152430.000,5212.0619,N,00005.9445,E,2,07,1.24,1.0,M,47.0,M,0000,0000*6F

$GPRMC,152432.000,A,5212.0603,N,00005.9440,E,2.91,187.72,111118,,,D*6D

$GPGGA,152433.000,5212.0595,N,00005.9438,E,2,08,0.97,1.0,M,47.0,M,0000,0000*67

$GPRMC,152435.000,A,5212.0580,N,00005.9432,E,2.78,190.73,111118,,,D*67

$GPGGA,152436.000,5212.0572,N,00005.9430,E,2,08,0.97,1.0,M,47.0,M,0000,0000*63

$GPRMC,152438.000,A,5212.0556,N,00005.9425,E,2.81,190.48,111118,,,D*69

$GPGGA,152439.000,5212.0549,N,00005.9423,E,2,07,1.24,1.1,M,47.0,M,0000,0000*61

$GPRMC,152441.000,A,5212.0533,N,00005.9417,E,2.93,190.27,111118,,,D*6F

$GPGGA,152442.000,5212.0527,N,00005.9419,E,2,08,0.97,1.3,M,47.0,M,0000,0000*68

$GPRMC,152444.000,A,5212.0524,N,00005.9440,E,2.68,94.67,111118,,,D*5B

$GPGGA,152445.000,5212.0523,N,00005.9453,E,2,08,0.97,1.3,M,47.0,M,0000,0000*65

$GPRMC,152447.000,A,5212.0521,N,00005.9479,E,3.02,96.76,111118,,,D*58

$GPGGA,152448.000,5212.0520,N,00005.9492,E,2,08,0.97,1.3,M,47.0,M,0000,0000*66

$GPRMC,152450.000,A,5212.0519,N,00005.9515,E,2.74,107.68,111118,,,D*68

$GPGGA,152451.000,5212.0518,N,00005.9527,E,2,07,1.24,1.6,M,47.0,M,0000,0000*69

$GPRMC,152453.000,A,5212.0517,N,00005.9544,E,0.22,113.65,111118,,,D*68

$GPGGA,152454.000,5212.0519,N,00005.9543,E,2,07,1.24,1.8,M,47.0,M,0000,0000*61

$GPRMC,152456.000,A,5212.0521,N,00005.9541,E,0.32,340.82,111118,,,D*61

$GPGGA,152457.000,5212.0522,N,00005.9540,E,2,08,0.97,2.0,M,47.0,M,0000,0000*64

$GPRMC,152459.000,A,5212.0522,N,00005.9540,E,0.21,177.87,111118,,,D*6D

$GPGGA,152500.000,5212.0522,N,00005.9540,E,2,07,1.24,2.1,M,47.0,M,0000,0000*60

$GPRMC,152502.000,A,5212.0522,N,00005.9541,E,0.18,133.32,111118,,,D*67

$GPGGA,152503.000,5212.0522,N,00005.9542,E,2,07,1.24,2.2,M,47.0,M,0000,0000*62

$GPRMC,152505.000,A,5212.0523,N,00005.9560,E,1.86,75.53,111118,,,D*50

$GPGGA,152506.000,5212.0522,N,00005.9574,E,2,08,0.97,2.2,M,47.0,M,0000,0000*64

$GPRMC,152508.000,A,5212.0519,N,00005.9603,E,2.75,104.58,111118,,,D*61

$GPGGA,152509.000,5212.0516,N,00005.9618,E,2,08,0.97,2.2,M,47.0,M,0000,0000*65

$GPRMC,152511.000,A,5212.0513,N,00005.9646,E,3.04,104.82,111118,,,D*62

$GPGGA,152512.000,5212.0510,N,00005.9660,E,2,07,1.24,2.2,M,47.0,M,0000,0000*60

$GPRMC,152514.000,A,5212.0508,N,00005.9686,E,3.05,98.18,111118,,,D*57

$GPGGA,152515.000,5212.0508,N,00005.9698,E,2,07,1.24,2.2,M,47.0,M,0000,0000*69

$GPRMC,152517.000,A,5212.0505,N,00005.9724,E,2.97,97.12,111118,,,D*5F

$GPGGA,152518.000,5212.0503,N,00005.9739,E,2,07,1.24,2.3,M,47.0,M,0000,0000*64

$GPRMC,152520.000,A,5212.0501,N,00005.9768,E,2.67,100.09,111118,,,D*6D

$GPGGA,152521.000,5212.0499,N,00005.9781,E,2,08,0.97,2.6,M,47.0,M,0000,0000*6C

$GPRMC,152523.000,A,5212.0496,N,00005.9804,E,2.75,108.49,111118,,,D*6B

$GPGGA,152524.000,5212.0495,N,00005.9816,E,2,08,0.97,2.7,M,47.0,M,0000,0000*65

$GPRMC,152526.000,A,5212.0494,N,00005.9840,E,2.29,93.85,111118,,,D*56

$GPGGA,152527.000,5212.0494,N,00005.9850,E,2,08,0.97,2.7,M,47.0,M,0000,0000*65

$GPRMC,152529.000,A,5212.0496,N,00005.9850,E,0.43,268.38,111118,,,D*64

$GPGGA,152530.000,5212.0495,N,00005.9851,E,2,07,1.24,2.6,M,47.0,M,0000,0000*64

$GPRMC,152532.000,A,5212.0495,N,00005.9850,E,0.12,269.19,111118,,,D*6B

$GPGGA,152533.000,5212.0495,N,00005.9850,E,2,08,0.97,2.5,M,47.0,M,0000,0000*63

$GPRMC,152535.000,A,5212.0497,N,00005.9848,E,0.03,319.46,111118,,,D*6B

$GPGGA,152536.000,5212.0498,N,00005.9848,E,2,08,0.97,2.2,M,47.0,M,0000,0000*65

$GPRMC,152538.000,A,5212.0499,N,00005.9849,E,0.48,56.81,111118,,,D*55

$GPGGA,152539.000,5212.0497,N,00005.9859,E,2,08,0.97,2.2,M,47.0,M,0000,0000*65

$GPRMC,152541.000,A,5212.0495,N,00005.9881,E,2.42,96.83,111118,,,D*55

$GPGGA,152542.000,5212.0494,N,00005.9893,E,2,08,0.97,2.4,M,47.0,M,0000,0000*6A

$GPRMC,152544.000,A,5212.0492,N,00005.9916,E,2.36,97.96,111118,,,D*5E

$GPGGA,152545.000,5212.0490,N,00005.9927,E,2,08,0.97,2.4,M,47.0,M,0000,0000*67

$GPRMC,152547.000,A,5212.0486,N,00005.9933,E,0.45,244.45,111118,,,D*6B

$GPGGA,152548.000,5212.0485,N,00005.9934,E,2,07,1.24,2.4,M,47.0,M,0000,0000*6A

$GPRMC,152550.000,A,5212.0484,N,00005.9934,E,0.75,197.36,111118,,,D*62

$GPGGA,152551.000,5212.0477,N,00005.9933,E,2,07,1.24,2.3,M,47.0,M,0000,0000*6F

$GPRMC,152553.000,A,5212.0462,N,00005.9932,E,3.06,184.74,111118,,,D*6C

$GPGGA,152554.000,5212.0453,N,00005.9930,E,2,07,1.24,2.2,M,47.0,M,0000,0000*6E

$GPRMC,152556.000,A,5212.0436,N,00005.9929,E,3.16,187.15,111118,,,D*67

$GPGGA,152557.000,5212.0426,N,00005.9927,E,2,07,1.24,2.2,M,47.0,M,0000,0000*69

$GPRMC,152559.000,A,5212.0408,N,00005.9925,E,3.18,186.94,111118,,,D*6F

$GPGGA,152600.000,5212.0400,N,00005.9924,E,2,07,1.24,2.2,M,47.0,M,0000,0000*6F

$GPRMC,152602.000,A,5212.0388,N,00005.9921,E,0.51,192.19,111118,,,D*67

$GPGGA,152603.000,5212.0388,N,00005.9920,E,2,08,0.97,2.2,M,47.0,M,0000,0000*69

$GPRMC,152605.000,A,5212.0390,N,00005.9916,E,0.95,273.01,111118,,,D*60

$GPGGA,152606.000,5212.0393,N,00005.9905,E,2,08,0.97,1.8,M,47.0,M,0000,0000*68

$GPRMC,152608.000,A,5212.0396,N,00005.9880,E,3.04,284.74,111118,,,D*64

$GPGGA,152609.000,5212.0398,N,00005.9866,E,2,08,0.97,1.7,M,47.0,M,0000,0000*67

$GPRMC,152611.000,A,5212.0402,N,00005.9838,E,3.05,280.08,111118,,,D*6B

$GPGGA,152612.000,5212.0404,N,00005.9824,E,2,08,0.97,1.8,M,47.0,M,0000,0000*66

$GPRMC,152614.000,A,5212.0406,N,00005.9796,E,3.10,281.56,111118,,,D*6F

$GPGGA,152615.000,5212.0407,N,00005.9782,E,2,08,0.97,1.6,M,47.0,M,0000,0000*6F

$GPRMC,152617.000,A,5212.0410,N,00005.9756,E,3.06,284.06,111118,,,D*60

$GPGGA,152618.000,5212.0412,N,00005.9743,E,2,07,1.18,1.5,M,47.0,M,0000,0000*61

$GPRMC,152620.000,A,5212.0415,N,00005.9717,E,3.02,280.82,111118,,,D*68

$GPGGA,152621.000,5212.0417,N,00005.9703,E,2,08,0.97,1.5,M,47.0,M,0000,0000*63

$GPRMC,152623.000,A,5212.0420,N,00005.9677,E,2.99,279.34,111118,,,D*62

$GPGGA,152624.000,5212.0422,N,00005.9664,E,2,07,1.18,1.3,M,47.0,M,0000,0000*6F

$GPRMC,152626.000,A,5212.0425,N,00005.9636,E,3.03,277.58,111118,,,D*61

$GPGGA,152627.000,5212.0426,N,00005.9622,E,2,08,0.97,1.3,M,47.0,M,0000,0000*63

$GPRMC,152629.000,A,5212.0427,N,00005.9594,E,3.15,271.07,111118,,,D*6C

$GPGGA,152630.000,5212.0428,N,00005.9581,E,2,08,0.97,1.3,M,47.0,M,0000,0000*61

$GPRMC,152632.000,A,5212.0432,N,00005.9555,E,2.96,285.59,111118,,,D*65

$GPGGA,152633.000,5212.0434,N,00005.9542,E,2,07,1.18,1.4,M,47.0,M,0000,0000*6E

$GPRMC,152635.000,A,5212.0437,N,00005.9515,E,2.89,278.46,111118,,,D*61

$GPGGA,152636.000,5212.0439,N,00005.9502,E,2,08,0.97,1.4,M,47.0,M,0000,0000*6B

$GPRMC,152638.000,A,5212.0442,N,00005.9478,E,2.94,280.67,111118,,,D*6C

$GPGGA,152639.000,5212.0443,N,00005.9465,E,2,08,0.97,1.6,M,47.0,M,0000,0000*6B

$GPRMC,152641.000,A,5212.0447,N,00005.9443,E,1.81,285.32,111118,,,D*6D

$GPGGA,152642.000,5212.0447,N,00005.9439,E,2,08,0.97,1.6,M,47.0,M,0000,0000*6A

$GPRMC,152644.000,A,5212.0448,N,00005.9442,E,0.28,91.22,111118,,,D*52

$GPGGA,152645.000,5212.0448,N,00005.9442,E,2,08,0.97,1.5,M,47.0,M,0000,0000*6D

$GPRMC,152647.000,A,5212.0448,N,00005.9441,E,0.06,331.46,111118,,,D*65

$GPGGA,152648.000,5212.0448,N,00005.9441,E,2,08,0.97,1.5,M,47.0,M,0000,0000*63

$GPRMC,152650.000,A,5212.0447,N,00005.9441,E,0.02,287.79,111118,,,D*68

$GPGGA,152651.000,5212.0448,N,00005.9441,E,2,08,0.97,1.5,M,47.0,M,0000,0000*6B

$GPRMC,152653.000,A,5212.0448,N,00005.9441,E,0.05,27.78,111118,,,D*5A

$GPGGA,152654.000,5212.0448,N,00005.9441,E,2,08,0.97,1.4,M,47.0,M,0000,0000*6F

$GPRMC,152656.000,A,5212.0448,N,00005.9441,E,0.03,337.50,111118,,,D*61

$GPGGA,152657.000,5212.0448,N,00005.9441,E,2,08,0.97,1.4,M,47.0,M,0000,0000*6C

$GPRMC,152659.000,A,5212.0448,N,00005.9441,E,0.04,301.07,111118,,,D*6E

$GPGGA,152700.000,5212.0448,N,00005.9441,E,2,08,0.97,1.4,M,47.0,M,0000,0000*6F

$GPRMC,152702.000,A,5212.0448,N,00005.9441,E,0.02,177.37,111118,,,D*67

$GPGGA,152703.000,5212.0448,N,00005.9441,E,2,08,0.97,1.4,M,47.0,M,0000,0000*6C

$GPRMC,152705.000,A,5212.0448,N,00005.9441,E,0.95,53.46,111118,,,D*5F

$GPGGA,152706.000,5212.0462,N,00005.9447,E,2,08,0.97,1.4,M,47.0,M,0000,0000*67

$GPRMC,152708.000,A,5212.0517,N,00005.9462,E,10.29,8.43,111118,,,D*55

$GPGGA,152709.000,5212.0546,N,00005.9470,E,2,08,0.97,1.6,M,47.0,M,0000,0000*69

$GPRMC,152711.000,A,5212.0601,N,00005.9485,E,9.29,10.93,111118,,,D*5C

$GPGGA,152712.000,5212.0628,N,00005.9492,E,2,08,0.97,1.5,M,47.0,M,0000,0000*67

$GPRMC,152714.000,A,5212.0680,N,00005.9506,E,9.30,8.31,111118,,,D*63

$GPGGA,152715.000,5212.0705,N,00005.9514,E,2,08,0.97,1.0,M,47.0,M,0000,0000*64

$GPRMC,152717.000,A,5212.0755,N,00005.9528,E,8.33,7.63,111118,,,D*6F

$GPGGA,152718.000,5212.0778,N,00005.9535,E,2,08,0.97,1.5,M,47.0,M,0000,0000*65

$GPRMC,152720.000,A,5212.0820,N,00005.9546,E,6.77,9.45,111118,,,D*6A

$GPGGA,152721.000,5212.0840,N,00005.9551,E,2,07,1.37,1.2,M,47.0,M,0000,0000*6A

$GPRMC,152723.000,A,5212.0870,N,00005.9559,E,2.47,8.15,111118,,,D*61

$GPGGA,152724.000,5212.0873,N,00005.9567,E,2,07,1.25,1.5,M,47.0,M,0000,0000*6E

$GPRMC,152726.000,A,5212.0868,N,00005.9593,E,3.76,109.59,111118,,,D*60

$GPGGA,152727.000,5212.0865,N,00005.9607,E,2,07,1.25,1.8,M,47.0,M,0000,0000*62

$GPRMC,152729.000,A,5212.0862,N,00005.9633,E,2.55,109.15,111118,,,D*64

$GPGGA,152730.000,5212.0860,N,00005.9646,E,2,07,1.25,2.1,M,47.0,M,0000,0000*6E

$GPRMC,152732.000,A,5212.0858,N,00005.9668,E,2.48,109.15,111118,,,D*65

$GPGGA,152733.000,5212.0857,N,00005.9679,E,2,07,1.25,2.4,M,47.0,M,0000,0000*60

$GPRMC,152735.000,A,5212.0855,N,00005.9706,E,2.84,98.45,111118,,,D*5A

$GPGGA,152736.000,5212.0854,N,00005.9721,E,2,07,1.25,2.7,M,47.0,M,0000,0000*69

$GPRMC,152738.000,A,5212.0853,N,00005.9747,E,3.14,102.20,111118,,,D*6D

$GPGGA,152739.000,5212.0852,N,00005.9761,E,2,07,1.25,3.1,M,47.0,M,0000,0000*63

$GPRMC,152741.000,A,5212.0848,N,00005.9792,E,3.00,95.79,111118,,,D*57

$GPGGA,152742.000,5212.0846,N,00005.9804,E,2,07,1.25,3.5,M,47.0,M,0000,0000*62

$GPRMC,152744.000,A,5212.0845,N,00005.9811,E,0.08,95.79,111118,,,D*50

$GPGGA,152745.000,5212.0842,N,00005.9811,E,2,07,1.25,3.8,M,47.0,M,0000,0000*68

$GPRMC,152747.000,A,5212.0826,N,00005.9804,E,0.29,95.79,111118,,,D*51

$GPGGA,152748.000,5212.0817,N,00005.9800,E,2,07,1.25,4.0,M,47.0,M,0000,0000*6A

$GPRMC,152750.000,A,5212.0798,N,00005.9795,E,0.30,95.79,111118,,,D*52

$GPGGA,152751.000,5212.0789,N,00005.9792,E,2,07,1.25,4.2,M,47.0,M,0000,0000*6C

$GPRMC,152753.000,A,5212.0772,N,00005.9786,E,3.06,191.61,111118,,,D*6D

$GPGGA,152754.000,5212.0763,N,00005.9785,E,2,07,1.25,4.1,M,47.0,M,0000,0000*68

$GPRMC,152756.000,A,5212.0747,N,00005.9780,E,3.01,197.78,111118,,,D*61

$GPGGA,152757.000,5212.0739,N,00005.9776,E,2,07,1.25,4.3,M,47.0,M,0000,0000*6A

$GPRMC,152759.000,A,5212.0722,N,00005.9774,E,3.00,187.74,111118,,,D*6A

$GPGGA,152800.000,5212.0714,N,00005.9772,E,2,07,1.25,4.3,M,47.0,M,0000,0000*6C

$GPRMC,152802.000,A,5212.0699,N,00005.9767,E,2.61,187.74,111118,,,D*6E

$GPGGA,152803.000,5212.0692,N,00005.9765,E,2,07,1.25,4.1,M,47.0,M,0000,0000*64

$GPRMC,152805.000,A,5212.0677,N,00005.9760,E,2.71,187.74,111118,,,D*6F

$GPGGA,152806.000,5212.0669,N,00005.9758,E,2,07,1.25,3.9,M,47.0,M,0000,0000*64

$GPRMC,152808.000,A,5212.0653,N,00005.9753,E,3.13,190.85,111118,,,D*69

$GPGGA,152809.000,5212.0645,N,00005.9749,E,2,07,1.25,3.9,M,47.0,M,0000,0000*65

$GPRMC,152811.000,A,5212.0630,N,00005.9739,E,2.48,190.85,111118,,,D*67

$GPGGA,152812.000,5212.0624,N,00005.9735,E,2,07,1.25,3.8,M,47.0,M,0000,0000*62

$GPRMC,152814.000,A,5212.0622,N,00005.9738,E,0.04,190.85,111118,,,D*6A

$GPGGA,152815.000,5212.0621,N,00005.9738,E,2,07,1.25,3.2,M,47.0,M,0000,0000*67

$GPRMC,152817.000,A,5212.0620,N,00005.9738,E,0.00,190.85,111118,,,D*6F

$GPGGA,152818.000,5212.0620,N,00005.9738,E,2,07,1.25,2.8,M,47.0,M,0000,0000*60

$GPRMC,152820.000,A,5212.0620,N,00005.9738,E,0.00,190.85,111118,,,D*6B

$GPGGA,152821.000,5212.0620,N,00005.9738,E,2,07,1.25,2.7,M,47.0,M,0000,0000*65

$GPRMC,152823.000,A,5212.0620,N,00005.9738,E,0.00,190.85,111118,,,D*68

$GPGGA,152824.000,5212.0620,N,00005.9739,E,2,07,1.25,2.6,M,47.0,M,0000,0000*60

$GPRMC,152826.000,A,5212.0620,N,00005.9739,E,0.00,190.85,111118,,,D*6C

$GPGGA,152827.000,5212.0621,N,00005.9739,E,2,07,1.25,2.6,M,47.0,M,0000,0000*62

$GPRMC,152829.000,A,5212.0621,N,00005.9739,E,0.00,190.85,111118,,,D*62

$GPGGA,152830.000,5212.0621,N,00005.9739,E,2,07,1.25,2.6,M,47.0,M,0000,0000*64

$GPRMC,152832.000,A,5212.0621,N,00005.9739,E,0.00,190.85,111118,,,D*68

$GPGGA,152833.000,5212.0621,N,00005.9739,E,2,07,1.25,2.6,M,47.0,M,0000,0000*67

$GPRMC,152835.000,A,5212.0621,N,00005.9739,E,0.00,190.85,111118,,,D*6F

$GPGGA,152836.000,5212.0621,N,00005.9739,E,2,07,1.25,2.5,M,47.0,M,0000,0000*61

$GPRMC,152838.000,A,5212.0621,N,00005.9739,E,0.01,190.85,111118,,,D*63

$GPGGA,152839.000,5212.0621,N,00005.9739,E,2,07,1.25,2.5,M,47.0,M,0000,0000*6E

$GPRMC,152841.000,A,5212.0620,N,00005.9739,E,0.03,190.85,111118,,,D*6E

$GPGGA,152842.000,5212.0620,N,00005.9739,E,2,07,1.25,2.5,M,47.0,M,0000,0000*63

$GPRMC,152844.000,A,5212.0620,N,00005.9739,E,0.04,190.85,111118,,,D*6C

$GPGGA,152845.000,5212.0621,N,00005.9739,E,2,07,1.38,2.6,M,47.0,M,0000,0000*6A

$GPRMC,152847.000,A,5212.0621,N,00005.9739,E,0.02,190.85,111118,,,D*68

$GPGGA,152848.000,5212.0621,N,00005.9739,E,2,07,1.25,2.6,M,47.0,M,0000,0000*6B

$GPRMC,152850.000,A,5212.0621,N,00005.9739,E,0.02,190.85,111118,,,D*6E

$GPGGA,152851.000,5212.0621,N,00005.9739,E,2,07,1.38,2.6,M,47.0,M,0000,0000*6F

$GPRMC,152853.000,A,5212.0621,N,00005.9739,E,0.01,190.85,111118,,,D*6E

$GPGGA,152854.000,5212.0621,N,00005.9739,E,2,07,1.38,2.6,M,47.0,M,0000,0000*6A

$GPRMC,152856.000,A,5212.0621,N,00005.9739,E,0.02,190.85,111118,,,D*68

$GPGGA,152857.000,5212.0621,N,00005.9739,E,2,07,1.38,2.6,M,47.0,M,0000,0000*69

$GPRMC,152859.000,A,5212.0621,N,00005.9739,E,0.01,190.85,111118,,,D*64

$GPGGA,152900.000,5212.0621,N,00005.9739,E,2,07,1.38,2.6,M,47.0,M,0000,0000*6A

$GPRMC,152902.000,A,5212.0621,N,00005.9739,E,0.04,190.85,111118,,,D*6E

$GPGGA,152903.000,5212.0621,N,00005.9739,E,2,07,1.38,2.6,M,47.0,M,0000,0000*69

$GPRMC,152905.000,A,5212.0621,N,00005.9739,E,0.01,190.85,111118,,,D*6C

$GPGGA,152906.000,5212.0621,N,00005.9739,E,2,07,1.38,2.6,M,47.0,M,0000,0000*6C

$GPRMC,152908.000,A,5212.0621,N,00005.9739,E,0.01,190.85,111118,,,D*61

$GPGGA,152909.000,5212.0621,N,00005.9739,E,2,07,1.38,2.6,M,47.0,M,0000,0000*63

$GPRMC,152911.000,A,5212.0621,N,00005.9739,E,0.02,190.85,111118,,,D*6A

$GPGGA,152912.000,5212.0621,N,00005.9739,E,2,07,1.38,2.6,M,47.0,M,0000,0000*69

$GPRMC,152914.000,A,5212.0621,N,00005.9739,E,0.01,190.85,111118,,,D*6C

$GPGGA,152915.000,5212.0621,N,00005.9739,E,2,07,1.39,2.6,M,47.0,M,0000,0000*6F

$GPRMC,152917.000,A,5212.0621,N,00005.9739,E,0.00,190.85,111118,,,D*6E

$GPGGA,152918.000,5212.0621,N,00005.9739,E,2,07,1.39,2.6,M,47.0,M,0000,0000*62

$GPRMC,152920.000,A,5212.0621,N,00005.9739,E,0.01,190.85,111118,,,D*6B

$GPGGA,152921.000,5212.0621,N,00005.9739,E,2,07,1.39,2.6,M,47.0,M,0000,0000*68

$GPRMC,152923.000,A,5212.0621,N,00005.9739,E,0.01,190.85,111118,,,D*68

$GPGGA,152924.000,5212.0621,N,00005.9739,E,2,07,1.39,2.6,M,47.0,M,0000,0000*6D

$GPRMC,152926.000,A,5212.0621,N,00005.9739,E,0.01,190.85,111118,,,D*6D

$GPGGA,152927.000,5212.0621,N,00005.9739,E,2,07,1.39,2.6,M,47.0,M,0000,0000*6E

$GPRMC,152929.000,A,5212.0621,N,00005.9739,E,0.00,190.85,111118,,,D*63

$GPGGA,152930.000,5212.0621,N,00005.9739,E,2,07,1.39,2.6,M,47.0,M,0000,0000*68

$GPRMC,152932.000,A,5212.0621,N,00005.9739,E,0.01,190.85,111118,,,D*68

$GPGGA,152933.000,5212.0621,N,00005.9739,E,2,07,1.39,2.6,M,47.0,M,0000,0000*6B

$GPRMC,152935.000,A,5212.0621,N,00005.9739,E,0.02,190.85,111118,,,D*6C

$GPGGA,152936.000,5212.0621,N,00005.9739,E,2,07,1.39,2.6,M,47.0,M,0000,0000*6E

$GPRMC,152938.000,A,5212.0621,N,00005.9739,E,0.01,190.85,111118,,,D*62

$GPGGA,152939.000,5212.0621,N,00005.9739,E,2,07,1.39,2.6,M,47.0,M,0000,0000*61

$GPRMC,152941.000,A,5212.0621,N,00005.9739,E,0.01,190.85,111118,,,D*6C

$GPGGA,152942.000,5212.0621,N,00005.9739,E,2,07,1.39,2.5,M,47.0,M,0000,0000*6E

$GPRMC,152944.000,A,5212.0621,N,00005.9739,E,0.01,190.85,111118,,,D*69

$GPGGA,152945.000,5212.0621,N,00005.9739,E,2,07,1.39,2.5,M,47.0,M,0000,0000*69

$GPRMC,152947.000,A,5212.0621,N,00005.9739,E,0.02,190.85,111118,,,D*69

$GPGGA,152948.000,5212.0621,N,00005.9739,E,2,07,1.39,2.5,M,47.0,M,0000,0000*64

$GPRMC,152950.000,A,5212.0621,N,00005.9739,E,0.03,190.85,111118,,,D*6E

$GPGGA,152951.000,5212.0621,N,00005.9739,E,2,07,1.39,2.5,M,47.0,M,0000,0000*6C

$GPRMC,152953.000,A,5212.0621,N,00005.9739,E,0.01,190.85,111118,,,D*6F

$GPGGA,152954.000,5212.0621,N,00005.9739,E,2,07,1.39,2.5,M,47.0,M,0000,0000*69

$GPRMC,152956.000,A,5212.0621,N,00005.9739,E,0.01,190.85,111118,,,D*6A

$GPGGA,152957.000,5212.0621,N,00005.9739,E,2,07,1.39,2.5,M,47.0,M,0000,0000*6A

$GPRMC,152959.000,A,5212.0621,N,00005.9739,E,0.01,190.85,111118,,,D*65

$GPGGA,153000.000,5212.0621,N,00005.9739,E,2,06,1.73,2.5,M,47.0,M,0000,0000*6F

$GPRMC,153002.000,A,5212.0621,N,00005.9739,E,0.00,190.85,111118,,,D*62

$GPGGA,153003.000,5212.0621,N,00005.9739,E,2,07,1.39,2.5,M,47.0,M,0000,0000*63

$GPRMC,153005.000,A,5212.0621,N,00005.9739,E,0.01,190.85,111118,,,D*64

$GPGGA,153006.000,5212.0621,N,00005.9739,E,2,07,1.39,2.5,M,47.0,M,0000,0000*66

$GPRMC,153008.000,A,5212.0621,N,00005.9739,E,0.00,190.85,111118,,,D*68

$GPGGA,153009.000,5212.0621,N,00005.9739,E,2,07,1.39,2.5,M,47.0,M,0000,0000*69

$GPRMC,153011.000,A,5212.0621,N,00005.9739,E,0.01,190.85,111118,,,D*61

$GPGGA,153012.000,5212.0621,N,00005.9739,E,2,07,1.39,2.5,M,47.0,M,0000,0000*63

$GPRMC,153014.000,A,5212.0621,N,00005.9739,E,0.01,190.85,111118,,,D*64

$GPGGA,153015.000,5212.0621,N,00005.9739,E,2,07,1.39,2.5,M,47.0,M,0000,0000*64

$GPRMC,153017.000,A,5212.0621,N,00005.9739,E,0.02,190.85,111118,,,D*64

$GPGGA,153018.000,5212.0621,N,00005.9739,E,2,07,1.39,2.5,M,47.0,M,0000,0000*69

$GPRMC,153020.000,A,5212.0621,N,00005.9739,E,0.01,190.85,111118,,,D*63

$GPGGA,153021.000,5212.0621,N,00005.9739,E,2,06,1.74,2.5,M,47.0,M,0000,0000*6B

$GPRMC,153023.000,A,5212.0621,N,00005.9739,E,0.02,190.85,111118,,,D*63

$GPGGA,153024.000,5212.0621,N,00005.9739,E,2,06,1.73,2.5,M,47.0,M,0000,0000*69

$GPRMC,153026.000,A,5212.0621,N,00005.9739,E,0.01,190.85,111118,,,D*65

$GPGGA,153027.000,5212.0621,N,00005.9739,E,2,06,1.74,2.5,M,47.0,M,0000,0000*6D

$GPRMC,153029.000,A,5212.0621,N,00005.9739,E,0.01,190.85,111118,,,D*6A

$GPGGA,153030.000,5212.0621,N,00005.9739,E,2,06,1.74,2.5,M,47.0,M,0000,0000*6B

$GPRMC,153032.000,A,5212.0621,N,00005.9739,E,0.01,190.85,111118,,,D*60

$GPGGA,153033.000,5212.0621,N,00005.9739,E,2,06,1.74,2.5,M,47.0,M,0000,0000*68

$GPRMC,153035.000,A,5212.0621,N,00005.9739,E,0.00,190.85,111118,,,D*66

$GPGGA,153036.000,5212.0621,N,00005.9739,E,2,06,1.74,2.5,M,47.0,M,0000,0000*6D

$GPRMC,153038.000,A,5212.0621,N,00005.9739,E,0.02,190.85,111118,,,D*69

$GPGGA,153039.000,5212.0621,N,00005.9739,E,2,06,1.74,2.5,M,47.0,M,0000,0000*62

$GPRMC,153041.000,A,5212.0621,N,00005.9739,E,0.01,190.85,111118,,,D*64

$GPGGA,153042.000,5212.0621,N,00005.9739,E,2,06,1.74,2.5,M,47.0,M,0000,0000*6E

$GPRMC,153044.000,A,5212.0621,N,00005.9739,E,0.00,190.85,111118,,,D*60

$GPGGA,153045.000,5212.0621,N,00005.9739,E,2,07,1.40,2.5,M,47.0,M,0000,0000*6F

$GPRMC,153047.000,A,5212.0621,N,00005.9739,E,0.00,190.85,111118,,,D*63

$GPGGA,153048.000,5212.0621,N,00005.9739,E,2,07,1.40,2.5,M,47.0,M,0000,0000*62
