$GPGGA,151619.088,,,,,0,00,,,M,,M,,*73
$GPGSA,A,1,,,,,,,,,,,,,,,*1E
$GPGSV,1,1,02,05,,,40,07,,,35*7
B
$GPRMC,151619.088,V,,,,,0.00,0.00,060180,,,N*49
$GPVTG,0.00,T,,M,0.00,N,0.00,K,N*32
$PMTKLOG,0,1,a,31,15
,0,0,1,0,0*11
$PMTK001,183,3*3A
$PMTK869,2,1*36

$GPGGA,151620.088,,,,,0,00,,,M,,M,,*79
$GPGSA,A,1,,,,,,,,,,,,,,,*1E
$GPRMC,151620.088,V,,,,,0.00,0.00,060180,,,N*43
$GPV
TG,0.00,T,,M,0.00,N,0.00,K,N*32
$PMTKLOG,0,1,a,31,15,0,0,1,0,0*11
$PMTK001,183,3*3A
$PMTK869,2,1*36

$GPGGA,151621.088,,,,,0,00,,,M,,M,,*78
$GPGSA,A,1,,,,,,,,,,,,,,,*1E
$GPRMC,151621.088,V,,,,,0.00,0.00,060180,,,N*42
$GP
VTG,0.00,T,,M,0.00,N,0.00,K,N*32
$PMTKLOG,0,1,a,31,15,0,0,1,0,0*11
$PMTK001,183,3*3A
$PMTK869,2,1*36

$GPGGA,151622.088,,,,,0,00,,,M,,M,,*7B
$GPGSA,A,1,,,,,,,,,,,,,,,*1E
$GPRMC,151622.088,V,,,,,0.00,0.00,060180,,,N*
41
$GPVTG,0.00,T,,M,0.00,N,0.00,K,N*32
$PMTKLOG,0,1,a,31,15,0,0,1,0,0*11
$PMTK001,183,3*3A
$PMTK869,2,1*36

$GPGGA,151623.088,,,,,0,00,,,M,,M,,*7A
$GPGSA,A,1,,,,,,,,,,,,,,,*1E
$GPRMC,151623.088,V,,,,,0.00,0.00,060180,,,N*40
$GPV
TG,0.00,T,,M,0.00,N,0.00,K,N*32
$PMTKLOG,0,1,a,31,15,0,0,1,0,0*11
$PMTK001,183,3*3A
$PMTK869,2,1*36

$GPGGA,151624.088,,,,,0,00,,,M,,M,,*7D
$GPGSA,A,1,,,,,,,,,,,,,,,*1E
$GPGSV,1,1,04,05,,,40,06,,,23,07,,,33,30,,,40*7B
$GPRMC,151624.088
,V,,,,,0.00,0.00,060180,,,N*47
$GPVTG,0.00,T,,M,0.00,N,0.00,K,N*32
$PMTKLOG,0,1,a,31,15,0,0,1,0,0*11
$PMTK001,183,3*3A
$
PMTK869,2,1*36

$GPGGA,151625.088,,,,,0,00,,,M,,M,,*7C
$GPGSA,A,1,,,,,,,,,,,,,,,*1E
$GPRMC,151625.088,V,,,,,0.00,0.00,060180,,,N*46
$GPVTG,0.00,T,,M,0.00,N,0.00,K,N*32

$PMTKLOG,0,1,a,31,15,0,0,1,0,0*11
$PMTK001,183,3*3A
$PMTK869,2,1*36

$GPGGA,151626.088,,,,,0,00,,,M,,M,,*7F
$GPGSA,A,1,,,,,,,,,,,,,,,*1E
$GPRMC,151626.088,V,,,,,0.00,0.00,060180,,,N*45
$GP
VTG,0.00,T,,M,0.00,N,0.00,K,N*32
$PMTKLOG,0,1,a,31,15,0,0,1,0,0*11
$PMTK001,183,3*3A
$PMTK869,2,1*36

$GPGGA,151627.088,,,,,0,00,,,M,,M,,*7E
$GPGSA,A,1,,,,,,,,,,,,,,,*1E
$GPRMC,151627.088,V,,,,,0.00,0.00,060180,,,N*44
$GPVTG,0.00,T,,
M,0.00,N,0.00,K,N*32
$PMTKLOG,0,1,a,31,15,0,0,1,0,0*11
$PMTK001,183,3*3A
$PMTK869,2,1*36

$GPGGA,151628.088,,,,,0,00,,,M,,M,,*71
$GPGSA,A,1,,,,,,,,,,,,,,,*1E
$GPRMC,151628.088,V,,,,,0.00,0.00,060180,,,N*4B
$GPVTG,0.00,T,,M,0.00,N,0.
00,K,N*32
$PMTKLOG,0,1,a,31,15,0,0,1,0,0*11
$PMTK001,183,3*3A
$PMTK869,2,1*36

$GPGGA,151629.088,,,,,0,00,,,M,,M,,*70
$GPGSA,A,1,,,,,,,,,,,,,,,*1E
$GPGSV,2,1,05,05,,,39,06,,,26,07,,,30,30,,,36*70
$GPGSV,2,2,05,02,,,33*7E
$GPR
MC,151629.088,V,,,,,0.00,0.00,060180,,,N*4A
$GPVTG,0.00,T,,M,0.00,N,0.00,K,N*32
$PMTKLOG,0,1,a,3
1,15,0,0,1,0,0*11
$PMTK001,183,3*3A
$PMTK869,2,1*36

$GPGGA,151630.088,,,,,0,00,,,M,,M,,*78
$GPGSA,A,1,,,,,,,,,,,,,,,*1E
$GPRMC,151
630.088,V,,,,,0.00,0.00,111118,,,N*44
$GPVTG,0.00,T,,M,0.00,N,0.00,K,N*32
$PMTKLOG,0,1,a,31,15,0,0,1,0,0*11
$PMTK001,1
83,3*3A
$PMTK869,2,1*36
$GPGGA,151630.307,,,,,0,00,,,M,,M,,*7C
$GPGSA,A,1,,,,,,,,,,,,,,,*1E
$GPRMC
,151630.307,V,,,,,0.00,0.00,111118,,,N*40
$GPVTG,0.00,T,,M,0.00,N,0.00,K,N*32

$PMTKLOG,0,1,a,31,
15,0,0,1,0,0*11
$PMTK001,183,3*3A
$PMTK869,2,1*36
$GPGGA,151631.307,,,,,0,00,,,M,,M,,*7D
$
GPGSA,A,1,,,,,,,,,,,,,,,*1E
$GPRMC,151631.307,V,,,,,0.00,0.00,111118,,,N*41
$GPVTG,0.00,T,,M,0.00,N,0.00,K,N*32

$PMTKLOG,0,1,a,31,15,0,
0,1,0,0*11
$PMTK001,183,3*3A
$PMTK869,2,1*36
$GPGGA,151632.307,,,,,0,00,,,M,,M,,*7E
$GPGSA,A,1,,,,,,,,,
,,,,,,*1E
$GPRMC,151632.307,V,,,,,0.00,0.00,111118,,,N*42
$GPVTG,0.00,T,,M,0.00,N,0.00,K,N*32

$PMTKLO
G,0,1,a,31,15,0,0,1,0,0*11
$PMTK001,183,3*3A
$PMTK869,2,1*36
$GPGGA,151633.307,,,,,0,00,,,M,,M,,*7F
$GPGSA,A,1,,,,
,,,,,,,,,,,*1E
$GPGSV,2,1,05,05,,,38,06,,,24,07,,,29,30,,,36*7B
$GPGSV,2,2,05,02,,,32*7F
$GPRMC,151633.307,V,,,,,0.
00,0.00,111118,,,N*43
$GPVTG,0.00,T,,M,0.00,N,0.00,K,N*32

$GPGGA,151634.307,,,,,0,00,,,M,,M,,*78
$GPGSA,A,1,,,,,,,,,,,,,,,*1E
$GPR
MC,151634.307,V,,,,,0.00,0.00,111118,,,N*44
$GPVTG,0.00,T,,M,0.00,N,0.00,K,N*32
$PMTKLOG,0,1,a,31,15,0,0,1,0,0*1
1
$PMTK001,183,3*3A
$PMTK869,2,1*36

$PMTKLOG,0,1,a,31,15,0,0,1,0,0*11
$PMTK001,183,3*3A
$PMTK8
69,2,1*36
$GPGGA,151635.307,,,,,0,00,,,M,,M,,*79
$GPGSA,A,1,,,,,,,,,,,,,,,*1E
$GPRMC,151635.307,V,,,,,0.00,0.00,111
118,,,N*45
$GPVTG,0.00,T,,M,0.00,N,0.00,K,N*32

$GPGGA,151636.088,,,,,0,00,,,M,,M,,*7E
$GPGSA,A,1,,,,,,,,,,,,,,,*1E
$GPRMC,151636.088,V,,,,,0.00,0
.00,111118,,,N*42
$GPVTG,0.00,T,,M,0.00,N,0.00,K,N*32

$GPGGA,151636.307,,,,,0,00,,,M,,M,,*7A
$GPGSA,A,1,,,,,,,,,,,,,,,
*1E
$GPRMC,151636.307,V,,,,,0.00,0.00,111118,,,N*46
$GPVTG,0.00,T,,M,0.00,N,0.00,K,N*32
$PMTKLOG,0,1,a,31,15,0,0,1,
0,0*11
$PMTK001,183,3*3A
$PMTK869,2,1*36

$PMTKLOG,0,1,a,31,15
,0,0,1,0,0*11
$PMTK001,183,3*3A
$PMTK869,2,1*36
$GPGGA,151637.307,,,,,0,00,,,M,,M,,*7B
$GPGSA,A,1,,,,,,,,,
,,,,,,*1E
$GPGSV,2,1,05,05,,,37,06,,,21,07,,,26,30,,,36*7E
$GPGSV,2,2,05,02,,,32*7F
$GPRMC,151637.307,V,,,,,0.0
0,0.00,111118,,,N*47
$GPVTG,0.00,T,,M,0.00,N,0.00,K,N*32

$GPGGA,151638.307,,,,,0,00,,,M,,M,,*74
$GPGSA,A,1,,,,,,,,,,,,,,,*1E

$GPRMC,151638.307,V,,,,,0.00,0.00,111118,,,N*48
$GPVTG,0.00,T,,M,0.00,N,0.00,K,N*32
$PMTKLOG,0,1,a,31,15,0
,0,1,0,0*11
$PMTK001,183,3*3A
$PMTK869,2,1*36

$PMTKLOG,0,1,a,31,15,
0,0,1,0,0*11
$PMTK001,183,3*3A
$PMTK869,2,1*36
$GPGGA,151639.307,,,,,0,00,,,M,,M,,*75
$GPGSA,A,1,,,,,,
,,,,,,,,,*1E
$GPRMC,151639.307,V,,,,,0.00,0.00,111118,,,N*49
$GPVTG,0.00,T,,M,0.00,N,0.00,K,N*32

$GPGGA,151640.307,,,,,0,00,,,M,,M,,*7B
$GPGSA,A,1,,,,,,,,,,,,,,,*1E
$GPRMC,151640.307,V,,,,,0.00,0.00,111118
,,,N*47
$GPVTG,0.00,T,,M,0.00,N,0.00,K,N*32
$PMTKLOG,0,1,a,31,15,0,0,1,0,0*11
$PMTK001,183,3*3A

$PMTK869,2,1*36

$GPGGA,151641.307,,,,,0,00,,,M,,M,,*7A
$GPGSA,A,1,,,,,,,,,,,,,,,*
1E
$GPRMC,151641.307,V,,,,,0.00,0.00,111118,,,N*46
$GPVTG,0.00,T,,M,0.00,N,0.00,K,N*32
$PMTKLOG,0,1,a,31,15
,0,0,1,0,0*11
$PMTK001,183,3*3A
$PMTK869,2,1*36

$GPGGA,151642.103,,,,,0,00,,,M,,M,,*7F
$GPGSA,A,1,
,,,,,,,,,,,,,,*1E
$GPGSV,2,1,05,05,,,37,06,,,24,07,,,24,30,,,36*79
$GPGSV,2,2,05,02,,,30*7D
$GPRMC,151642.103,V,,,,,0.00,0.00,111118,,,N*43
$GPVTG,0.00,T,,M,0.00,N,0.00,K,N*32
$PMTKLOG,0,1,a,31,15,0,0,1,0,0*11
$PMTK001,183
,3*3A
$PMTK869,2,1*36

$GPGGA,151643.103,,,,,0,00,,,M,,M,,*7E
$GPGSA,A,1,,,,,,,,,,,,,,,*1E
$GPRMC,151643.
103,V,,,,,0.00,0.00,111118,,,N*42
$GPVTG,0.00,T,,M,0.00,N,0.00,K,N*32
$PMTKLOG,0,1,a,31,15,0,0,1,0,0*11
$PMTK001,183,3*3A
$PMTK869,2,1*36

$GPGGA,151644.103,,,,,0,00,,,M,,M,,*79
$GPGSA,A,1,,,,,,,,,,,,,,,*1E
$GPRMC,151644.103,
V,,,,,0.00,0.00,111118,,,N*45
$GPVTG,0.00,T,,M,0.00,N,0.00,K,N*32
$PMTKLOG,0,1,a,31,15,0,0,1,0,0*11
$PMTK001,183,3*3A

$PMTK869,2,1*36

$GPGGA,151645.103,,,,,0,00,,,M,,M,,*78
$GPGSA,A,1,,,,,,,,,,,,,,,*1E
$GPRMC,151645.103,V,,,,,
0.00,0.00,111118,,,N*44
$GPVTG,0.00,T,,M,0.00,N,0.00,K,N*32
$PMTKLOG,0,1,a,31,15,0,0,1,0,0*11
$PMTK001,183,3*3A
$PMTK869,2,1
*36

$GPGGA,151646.103,,,,,0,00,,,M,,M,,*7B
$GPGSA,A,1,,,,,,,,,,,,,,,*1E
$GPRMC,151646.103,V,,,,,0.00,0.00,111118,,,N*47
$GPVTG,0.00,T,,M,0.00,N,0.00,K,N*32
$PMTKLOG,0,1,a,31,15,0,0
,1,0,0*11
$PMTK001,183,3*3A
$PMTK869,2,1*36

$GPGGA,151647.103,,,,,0,00,,,M,,M,,*7A
$GPGSA,A,1,,,,,,,,,,,,,,,*1E
$GPGSV,2,1,06,05,,,38,06,,,23,07,,,28,30,,,36*7E
$GPGSV,2,2,06,02,,,32,09,,,32*74
$GPRMC,151647.103,V,,,
,,0.00,0.00,111118,,,N*46
$GPVTG,0.00,T,,M,0.00,N,0.00,K,N*32
$PMTKLOG,0,1,a,31,15,0,0,1,0,0*11
$PMTK001,183,
3*3A
$PMTK869,2,1*36

$GP
GGA,151648.091,,,,,0,00,,,M,,M,,*7F
$GPGSA,A,1,,,,,,,,,,,,,,,*1E
$GPRMC,151648.091,V,,,,,0.00,0.00,111118,,,N*43
$GPVTG,0.00,T,,M,0.00,N,0.00,K,N*32
$GPG
GA,151648.311,,,,,0,00,,,M,,M,,*74
$GPGSA,A,1,,,,,,,,,,,,,,,*1E
$GPRMC,151648.311,V,,,,,0.00,0.00,111118,,,N*48

$GPVTG,0.00,T,,M,0.00,N,0.00,K,N*32
$PMTKLOG,0,1,a,31,15,0,0,1,0,0*11
$PMTK001,183,3*3A
$PMTK869,2,1*36

$G
PGGA,151649.311,,,,,0,00,,,M,,M,,*75
$GPGSA,A,1,,,,,,,,,,,,,,,*1E
$GPRMC,151649.311,V,,,,,0.00,
0.00,111118,,,N*49
$GPVTG,0.00,T,,M,0.00,N,0.00,K,N*32
$PMTKLOG,0,1,a,31,15,0,0,1,0,0*11
$PMTK001,183,3*3A
$PMTK869,2
,1*36

$GPGGA,151650.311,,,,,0,00,,,M,,M,,*7D
$GPGSA
,A,1,,,,,,,,,,,,,,,*1E
$GPRMC,151650.311,V,,,,,0.00,0.00,111118,,,N*41
$GPVTG,0.00,T,,M,0.00,N,0.00,K,N*32
$PM
TKLOG,0,1,a,31,15,0,0,1,0,0*11
$PMTK001,183,3*3A
$PMTK869,2,1*36

$GPGGA,151651.311,,,,,0,00,,,M,,M,,*7C
$GPGSA,A,1,,,,,,,,,,,,,,,*1E
$GPGSV,
2,1,06,05,,,38,06,,,25,07,,,27,30,,,36*77
$GPGSV,2,2,06,02,,,32,09,,,34*72
$GPRMC,151651.311,V,,,,,
0.00,0.00,111118,,,N*40
$GPVTG,0.00,T,,M,0.00,N,0.00,K,N*32
$PMTKLOG,0,1,a,31,15,0,0,1,0,0*11
$PMTK001,183,3*3
A
$PMTK869,2,1*36

$GPGGA,
151652.311,,,,,0,00,,,M,,M,,*7F
$GPGSA,A,1,,,,,,,,,,,,,,,*1E
$GPRMC,151652.311,V,,,,,0.00,0.00,111118,,,N*4
3
$GPVTG,0.00,T,,M,0.00,N,0.00,K,N*32
$PMTKLOG,0,1,a,31,15,0,0,1,0,0*11
$PMTK001,183,3*3A
$PMTK869,2,1*36


$GPGGA,151653.311,,,,,
0,00,,,M,,M,,*7E
$GPGSA,A,1,,,,,,,,,,,,,,,*1E
$GPRMC,151653.311,V,,,,,0.00,0.00,111118,,,N*42
$GPVTG,0.00,
T,,M,0.00,N,0.00,K,N*32
$PMTKLOG,0,1,a,31,15,0,0,1,0,0*11
$PMTK001,183,3*3A
$PMTK869,2,1*36

$GPGGA,151654.091,,,,,0,00,,,M,,M,,*72
$GPGSA,A,1,,,,,,,,,,,,,,,*1E
$GPRMC,151654.091,V,,,,,0.00,0.00,111118,,,N*4E
$GPVTG,0.00,T,,M,0.00,N,0.00,K,N*32
$GPGGA,151654
.330,,,,,0,00,,,M,,M,,*7A
$GPGSA,A,1,,,,,,,,,,,,,,,*1E
$GPRMC,151654.330,V,,,,,0.00,0.00,111118,,,N*46
$GPVTG,0.00,
T,,M,0.00,N,0.00,K,N*32
$PMTKLOG,0,1,a,31,15,0,0,1,0,0*11
$PMTK001,183,3*3A
$PMTK869,2,
1*36

$GPGGA,151655.330,,,,,0,00,,,M,,M,,*7B
$GPGSA,A,1,,,,,,,,,,,,,,,*1E
$GPGSV,2,1,06,05,,,38,06,,,22,07,,,29,30,,,35*7D
$GPGSV,2,2,06,02,,,32,09,,,33*75
$GPRMC,151655.330,V,,,,,0.
00,0.00,111118,,,N*47
$GPVTG,0.00,T,,M,0.00,N,0.00,K,N*32
$PMTKLOG,0,1,a,31,15,0,0,1,0,0*11

$PMTK001,183,3*3A
$PMTK869,2,1*36

$GPGGA,151656.330,,,,,0,00,,,M,,M,,*78
$GPGSA,A,1,,,,,,,,,,,,,,,*1E
$GPRMC,151656.330,V,,,,,0.00,0.00,111118,,,N*4
4
$GPVTG,0.00,T,,M,0.00,N,0.00,K,N*32
$PMTKLOG,0,1,a,31,15,0,0,1
,0,0*11
$PMTK001,183,3*3A
$PMTK869,2,1*36

$GPGGA,151657.330,,,,,0,00,,,M,,M,,*79
$GPGSA,A,1,,,,,,,,,,,,,,,*1E
$GPRMC,151657.330,V,,,,,0.00,0.00,111118,,,N*45
$GPVTG,0.00,T,,M,0.00,
N,0.00,K,N*32
$PMTKLOG,0,1,a,31,15,0,0,1,0,0*11
$PMTK001,183,3*3A
$PMTK869,2,1*36

$GPGGA,151658.330,,,,,0,00,,,M,,M,,*76
$GPGSA,A,1,,,,,,,,,,,,,,,*1E
$GPRMC,151658.330,V,,,,,0.00,0.00,111118,,,N*4A
$GPVTG,0.00,T,,M,
0.00,N,0.00,K,N*32
$PMTKLOG,0,1,a,31,15,0,0,1,0,0*11

$PMTK001,183,3*3A
$PMTK869,2,1*36

$GPGGA,151659.330,,,,,0,00,,,M,,M,,*77
$GPGSA,A,1,,,,,,,,,,,,,,,*1E
$GPRMC,151659.330,V,,,,,0.00,0.00,111118,,,N*4B
$GPVTG,0.00,T,,M,0.00,N,0.00,K,N*32

$PMTKLOG,0,1,a,31,15,0,0,1,0,0*11
$PMTK001,183,3*3A
$PMTK869,2,1*36

$GPGGA,151700.082,,
,,,0,03,,,M,,M,,*73
$GPGSA,A,1,,,,,,,,,,,,,,,*1E
$GPGSV,2,1,07,05,,,37,06,,,20,07,,,25,30,,,35*7D
$G
PGSV,2,2,07,02,,,31,09,,,32,16,,,22*71
$GPRMC,151700.082,V,,,,,0.30,148.66,111118,,,N*42
$GPVTG,148.66,T,,M,0.30,N,0.56,K,N*3F
$GPGGA,151700.289,,,,,0,04,,,M,,M,,*7D
$GPGSA,A,1,,,,,,,,,,,,,,,*1E
$GPRMC,151700.289,V,,,,,0.63,219.12,111118,,,N*49
$GPVTG,2
19.12,T,,M,0.63,N,1.17,K,N*39
$PMTKLOG,0,1,a,31,15,0,0,1,0,0*11
$PMTK001,183,3*3A
$PMTK869,
2,1*36

$GPGGA,151701.289,,,,,0,04,,
,M,,M,,*7C
$GPGSA,A,1,,,,,,,,,,,,,,,*1E
$GPRMC,151701.289,V,,,,,0.53,265.26,111118,,,N*47
$GPVTG,265.26,T,,M,0.53,N,0.97,K,N*3F

$PMTKLOG,0,1,a,31,15,0,0,1,0,0*11
$PMTK001,183,3*3A
$PMTK869,2,1*36

$GPGGA,151702.2
89,5212.0696,N,00005.9969,E,1,04,1.91,-76.7,M,47.0,M,,*7D
$GPGSA,A,2,05,07,30,02,,,,,,,,,2.16,1.91,1.00*0D
$GPRMC,151702.289,A,5212.0696,N,00005.9969,E,0.28,228.39,111118,,,A*6B

$GPVTG,228.39,T,,M,0.28,N,0.52,K,A*32

$PMTKLOG,0,1,a,31,15,0,0,1,0,0*1
1
$PMTK001,183,3*3A
$PMTK869,2,1*36

$PMTKLOG,0,1,a,31
,15,0,0,1,0,0*11
$PMTK001,183,3*3A
$PMTK869,2,1*36

$GPGGA,151704.000,5212.0686,N,00005.9950,E,1,04,1
.91,-74.2,M,47.0,M,,*74
$GPGSA,A,2,05,07,30,02,,,,,,,,,2.16,1.91,1.00*0D
$GPRMC,151704.000,A,5212.0686,N,000
05.9950,E,0.58,215.96,111118,,,A*69
$GPVTG,215.96,T,,M,0.58,N,1.07,K,A*3F

$PMTKLOG,0,1,a,31,15,0,0,1,0,0*11
$PMTK001,183,3*3A

$P
MTK869,2,1*36

$GPGGA,151705.000,5212.0672,N,00005.
9927,E,1,04,1.91,-64.5,M,47.0,M,,*78
$GPGSA,A,2,05,07,30,02,,,,,,,,,2.16,1.91,1.00*0D
$GPGSV,2,1,08,07,64
,094,27,30,57,171,35,05,51,295,38,02,35,237,32*78
$GPGSV,2,2,08,09,32,080,32,33,28,199,,06,,,20,16,,,25*7F
$
GPRMC,151705.000,A,5212.0672,N,00005.9927,E,0.37,206.11,111118,,,A*67
$GPVTG,206.11,T,,M,0.37,N,0.69,K,A*32
$PMTKLOG,0,1,a,31,15,0,0,1,0,0*11
$PMTK001,183,3*3A
$PMTK869,2,1*36

$GPGGA,151706.000,5212.0667,N,00005.9917,E,1,04,1.91,-60.0,M,47.0,M,,*7D
$GPGSA,A,2,05,07,30,02,,,,,,,
,,2.16,1.91,1.00*0D
$GPRMC,151706.000,A,5212.0667,N,00005.9917,E,0.22,167.92,111118,,,A*68
$GPVTG,167
.92,T,,M,0.22,N,0.41,K,A*33

$PMTKLOG,0,1,a,31,15,0,0,1,0,0*11
$PMTK001,183,3*3A
$P
MTK869,2,1*36

$GPGGA,151707.000,5212.0662,N,00005.9907,E,1,0
4,1.91,-55.6,M,47.0,M,,*78
$GPGSA,A,2,05,07,30,02,,,,,,,,,2.16,1.91,1.00*0D
$GPRMC,151707.000,A,5212.0662,N,00005.9907,E,0.2
0,74.77,111118,,,A*57
$GPVTG,74.77,T,,M,0.20,N,0.37,K,A*08

$PMTKLOG,0,1,a,31,15,0,0,1,0,0*11
$PMTK001,183,3*3A
$PMTK869,2,1*36

$GPGGA,151708.000,5212.0656,N,00005.9899,E,1,04,1.91,-53.1,M,47.0,M,,*7
7
$GPGSA,A,2,05,07,30,02,,,,,,,,,2.16,1.91,1.00*0D
$GPRMC,151708.000,A,5212.0656,N,00005.9899,E,0.11,101.28,111118,,
,A*62
$GPVTG,101.28,T,,M,0.11,N,0.21,K,A*34

$PMTKLOG,0,1,a,31,15,0,0,1,0,0*11
$PMTK001,183,3*3A
$PMTK869,2,1*36

$GPGGA,151709.
000,5212.0655,N,00005.9898,E,1,04,1.91,-52.4,M,47.0,M,,*70
$GPGSA,A,3,05,07,30,02,,,,,,,,,2.16,1.91,1
.00*0C
$GPRMC,151709.000,A,5212.0655,N,00005.9898,E,0.26,60.79,111118,,,A*57
$GPVTG,60.79,T,,M,0.26,N,0.49,K,A*0
C

$PMTKLOG,0,1,a,31,15,0,0,1,0,0*11
$PMTK001,183,3*3A
$PMTK869,2,1*36

$GPGGA,151710.000,5212.0656,N,00005.9897,E,1,04,1.91,-51.0,M,47.0,M,,*73
$GPGS
A,A,3,05,07,30,02,,,,,,,,,2.16,1.91,1.00*0C
$GPGSV,2,1,08,07,64,094,28,30,57,171,36,05,51,295,39,02,35,237
,31*76
$GPGSV,2,2,08,09,32,080,34,33,28,199,,06,,,21,16,,,25*78
$GPRMC,151710.000,A,5212.0656,N,00005.9897,E,0.36,1
8.45,111118,,,A*52
$GPVTG,18.45,T,,M,0.36,N,0.67,K,A*01
$PMTKLOG,0,1,a,31,15,0,0,1,0,0*11
$PMTK001,183,3*3A
$PMTK869,2,1*36

$GPGGA,151711.000,5212.0656
,N,00005.9896,E,1,04,1.91,-50.5,M,47.0,M,,*77
$GPGSA,A,3,05,07,30,02,,,,,,,,,2.16,1.91,1.00*0C
$GPRMC,151711.000,A,5
212.0656,N,00005.9896,E,0.20,19.38,111118,,,A*5E
$GPVTG,19.38,T,,M,0.20,N,0.37,K,A*08

$PMTKLOG,0,1,a,31
,15,0,0,1,0,0*11
$PMTK001,183,3*3A
$PMTK869,2,1*36

$GPGGA,151712.000,5212.0658,N,00005.9894,E,1,04,1.91,-49.6,M,47.0,M,,*73
$GPGSA,A,3,05,07
,30,02,,,,,,,,,2.16,1.91,1.00*0C
$GPRMC,151712.000,A,5212.0658,N,00005.9894,E,0.21,16.70,111118,,,A*53
$GPVTG,16.70,
T,,M,0.21,N,0.40,K,A*0A

$PMTKLOG,0,1,a,31,15,0,0,1,0,0*11
$PMTK001,183,3*3A
$PMTK869,2,1*36

$GPGGA,151713.000,5212.0659,N,00005.9894,E,1,04,1.91,-49.2,M,47.0,M,,*77
$GPGSA,A,3,05,07,30,02,,,,,,,,,2
.16,1.91,1.00*0C
$GPRMC,151713.000,A,5212.0659,N,00005.9894,E,0.10,16.15,111118,,,A*52
$GPVTG,16.15,T,,M,0.10,N,
0.18,K,A*06

$PMTKLOG,0,1,a,31,15,0,0,1,0,0*11
$PMTK001,183,3*3A
$PMTK869,2,1*36

$GPGGA,151714.000,5212.0659,N,00005.9888,E,1,04,1.91,-48.1,M,47.0,M,,*7F
$GP
GSA,A,3,05,07,30,02,,,,,,,,,2.16,1.91,1.00*0C
$GPRMC,151714.000,A,5212.0659,N,00005.9888,E,0.28,279.91
,111118,,,A*64
$GPVTG,279.91,T,,M,0.28,N,0.52,K,A*34

$PMTKLOG,0,1,a,31,15,0,0,1,0,0*11
$PMTK001,183,3*3A
$PMTK869,2,1*36

$GPGGA,151715.000,5212.0658,N,00005.9884,E,1,04,1.91,-46.2,M,47.0,M,,*7E
$GPGSA,A
,3,05,07,30,02,,,,,,,,,2.16,1.91,1.00*0C
$GPGSV,2,1,08,07,64,094,28,30,57,171,35,05,51,295,37,02,35,2
37,31*7B
$GPGSV,2,2,08,09,32,081,33,37,27,153,,06,,,21,16,,,24*72
$GPRMC,151715.000,A,5212.0658,N,00005.
9884,E,0.19,283.21,111118,,,A*64
$GPVTG,283.21,T,,M,0.19,N,0.35,K,A*39
$PMTKLOG,0,1,a,31,15,0,0,1,0,0*11
$PMTK001,183,3*3A
$PMTK869,2,1*36

$GPGGA,151716.000,5212.0658,N,00005.9880,E,1,
04,1.91,-45.0,M,47.0,M,,*78
$GPGSA,A,3,05,07,30,02,,,,,,,,,2.16,1.91,1.00*0C
$GPRMC,151716.000,A,521
2.0658,N,00005.9880,E,0.28,297.33,111118,,,A*67
$GPVTG,297.33,T,,M,0.28,N,0.53,K,A*3D

$PMTKLOG,0,1,a,31,15,0,0,1,0,0*11
$PMTK001,183,3*3A
$PMTK869,2,1*36

$GPGGA,151717.000,5212.0659,N,00005.9882,E,1,04,1.91,-44.1,M,47.0,M,,*7A
$GPGSA,A,3,05,07,30,02
,,,,,,,,,2.16,1.91,1.00*0C
$GPRMC,151717.000,A,5212.0659,N,00005.9882,E,0.14,29.05,111118,,,A*58
$GP
VTG,29.05,T,,M,0.14,N,0.25,K,A*01

$PMTKLOG,0,1,a,31,15,0,0,1,0,0*11
$PMTK001,183,3*3A
$PMTK869,2,1*36

$GPGGA,151718.000,5212.0658,N,00005.9878,E,1,04,1.91,-43.4,M,47.0,M,,*73
$GPGSA,A,3,05,07,
30,02,,,,,,,,,2.16,1.91,1.00*0C
$GPRMC,151718.000,A,5212.0658,N,00005.9878,E,0.16,265.45,111118,,
,A*6F
$GPVTG,265.45,T,,M,0.16,N,0.29,K,A*31

$PMTKLOG,0,1,a,31,15,0,0,1,0,0*11

$PMTK001,183,3*3A
$PMTK869,2,1*36

$GPGGA,151719.000,5212.0624,N,00005.9790,E,1,05,1.66,-11.4,M,47.0,M,,*7E
$GPGSA,A,3,05,07,30,
02,09,,,,,,,,1.91,1.66,0.95*0C
$GPRMC,151719.000,A,5212.0624,N,00005.9790,E,0.28,223.38,11111
8,,,A*69
$GPVTG,223.38,T,,M,0.28,N,0.52,K,A*38

$PMTKLOG,0,1,a,31,15,0,0,1,0,0*11
$PMTK001,183,3*3A

$PMTK869,2,1*36

$GPG
GA,151720.000,5212.0619,N,00005.9773,E,1,05,1.66,-5.1,M,47.0,M,,*47
$GPGSA,A,3,05,07,30,02,09,,,,,,,,
1.91,1.66,0.95*0C
$GPGSV,2,1,08,07,64,094,29,30,57,171,35,05,51,295,37,02,35,237,31*7A
$GPGSV,2,2,08,09,32,081,3
4,39,25,149,,06,,,21,16,,,24*72
$GPRMC,151720.000,A,5212.0619,N,00005.9773,E,0.24,259.53,111118,,,A*6C
$GPVTG,25
9.53,T,,M,0.24,N,0.45,K,A*32
$PMTKLOG,0,1,a,31,15,0,0,1,0,0*11
$PMTK001,183,3*3A
$PMTK869,2,1*36

$GPGGA,151721.000,5212.
0617,N,00005.9767,E,1,05,1.66,-2.7,M,47.0,M,,*4C
$GPGSA,A,3,05,07,30,02,09,,,,,,,,1.91,1.66,0.95*0C
$
GPRMC,151721.000,A,5212.0617,N,00005.9767,E,0.19,252.63,111118,,,A*60
$GPVTG,252.63,T,,M,0.19,N,0.35,K,A*33

$PMTKLOG,0,1,a,31,15,0,0,1,0,0*11
$PMTK001,183,3*3A
$PMTK869,2,1*36

$GPGGA,151722.000,5212.0616,N,00005.9761,E,1,05,1.66,-0.6,M,47.0,M,,*4B
$GPGSA,A,3,05
,07,30,02,09,,,,,,,,1.91,1.66,0.95*0C
$GPRMC,151722.000,A,5212.0616,N,00005.9761,E,0.15,235.66,111118
,,,A*6C
$GPVTG,235.66,T,,M,0.15,N,0.28,K,A*37

$PMTKLOG,0,1,a,31,15,0,0,1,0,0*11
$PMTK001,183,3*3A
$PMTK869,2,1*36

$GPGGA,151723.000,5212.0614,N,00005.9759,E,1,05,1.66,0.6,M,47.0,M,,*6E
$GPGSA,A,3,05,07,
30,02,09,,,,,,,,1.91,1.66,0.95*0C
$GPRMC,151723.000,A,5212.0614,N,00005.9759,E,0.20,163.53,111118,,,A
*64
$GPVTG,163.53,T,,M,0.20,N,0.38,K,A*36

$PMTKLOG,0,1,a,31,15,0,0,1,0,0*11
$PMTK001,183,3*3A
$PMTK869,2,1*36

$GPGGA,151724.000,5212.0613,N,00005.9756,E,1,05,1.66,1.6,M,47.0,M,,*60
$GPGSA,A,3,05,07,30,02,09,,,,,,,,1.91,1.6
6,0.95*0C
$GPRMC,151724.000,A,5212.0613,N,00005.9756,E,0.12,143.21,111118,,,A*6D
$GPVTG,143.21,T,,M,0.12
,N,0.22,K,A*3B

$PMTKLOG,0,1,a,31,15,0,0,1,0,0*11
$PMTK001,183,3*3A
$PMTK86
9,2,1*36

$
GPGGA,151725.000,5212.0612,N,00005.9754,E,1,05,1.66,2.3,M,47.0,M,,*64
$GPGSA,A,3,05,07,30,02,09,,,,,,,
,1.91,1.66,0.95*0C
$GPGSV,2,1,08,07,64,094,28,30,57,171,35,05,51,295,37,02,35,237,31*7B
$GPGSV,2,2,08,09,32,081,
34,39,25,149,,06,,,20,16,,,23*74
$GPRMC,151725.000,A,5212.0612,N,00005.9754,E,0.09,131.40,111118,,,A*67
$GPVTG,1
31.40,T,,M,0.09,N,0.17,K,A*35
$PMTKLOG,0,1,a,31,15,0,0,1,0,0*11
$PMTK001,183,3*3A
$PMTK869,2,1*36

$GPGGA,151726.000,5212.0612,N,00005.9753,E,1,05,1.66,2.9,M,47
.0,M,,*6A
$GPGSA,A,3,05,07,30,02,09,,,,,,,,1.91,1.66,0.95*0C
$GPRMC,151726.000,A,5212.0612,N,00005.9
753,E,0.15,129.97,111118,,,A*6D
$GPVTG,129.97,T,,M,0.15,N,0.27,K,A*38

$PMTKLOG,0,1,a,31,15,0,0,1,0,0*11
$PMTK001,183,3*3A
$PMTK869,2,1*36

$GPGGA,1
51727.000,5212.0613,N,00005.9754,E,1,05,1.66,3.4,M,47.0,M,,*61
$GPGSA,A,3,05,07,30,02,09,,,,,,,,1.91,1.66
,0.95*0C
$GPRMC,151727.000,A,5212.0613,N,00005.9754,E,0.20,80.19,111118,,,A*58
$GPVTG,80.19,T,,M,0.20,N,0.38
,K,A*04

$PMTKLOG,0,1,a,31,15,0,0,1,0,0*11
$P
MTK001,183,3*3A
$PMTK869,2,1*36

$GPGGA,151728.000,5212.0614,
N,00005.9752,E,1,05,1.66,4.0,M,47.0,M,,*6C
$GPGSA,A,3,05,07,30,02,09,,,,,,,,1.91,1.66,0.95*0C
$GPRMC
,151728.000,A,5212.0614,N,00005.9752,E,0.16,344.51,111118,,,A*64
$GPVTG,344.51,T,,M,0.16,N,0.29,K,A*36

$PMTKLOG,0,1,a,31,15,0,0,1,0,0*11
$PMTK001,183,3*3A
$PMTK869,2,1*
36

$GP
GGA,151729.000,5212.0612,N,00005.9752,E,1,05,1.66,4.8,M,47.0,M,,*63
$GPGSA,A,3,05,07,30,02,09,,,,,,,,1.91
,1.66,0.95*0C
$GPRMC,151729.000,A,5212.0612,N,00005.9752,E,0.08,135.71,111118,,,A*6A
$GPVTG,
135.71,T,,M,0.08,N,0.16,K,A*33

$PMTKLOG,0,1,a,31,15,0,0
,1,0,0*11
$PMTK001,183,3*3A
$PMTK869,2,1*36

$GPGGA,151730.000,521
2.0613,N,00005.9754,E,1,05,1.66,5.4,M,47.0,M,,*61
$GPGSA,A,3,05,07,30,02,09,,,,,,,,1.91,1.66,0.95*0C
$GPGSV,2,1,08,0
7,64,094,28,30,57,171,35,05,51,295,37,02,35,237,32*78
$GPGSV,2,2,08,09,32,081,34,40,07,111,,06,,,
21,16,,,21*74
$GPRMC,151730.000,A,5212.0613,N,00005.9754,E,0.10,89.14,111118,,,A*59
$GPVTG,89.14,T,,M,0.10,N,0.19,K,A*00

$PMTKLOG,0,1,a,31,15,0,0,1,0,0*11
$PMTK001,183,3*3A
$P
MTK869,2,1*36

$GPGGA,151731.000,5212.0611,N,00005.9755,E,1,05,1.66,6.1,M,47.0,M,,*65
$GPGSA,A,3,05
,07,30,02,09,,,,,,,,1.91,1.66,0.95*0C
$GPRMC,151731.000,A,5212.0611,N,00005.9755,E,0.18,175.20,111118
,,,A*66
$GPVTG,175.20,T,,M,0.18,N,0.33,K,A*35

$PMTKLOG,0,1,a,31,15,0,0,1,
0,0*11
$PMTK001,183,3*3A
$PMTK869,2,1*36

$GPGGA,151732.000,5212.0611,N,00005.
9755,E,1,05,1.66,6.4,M,47.0,M,,*63
$GPGSA,A,3,05,07,30,02,09,,,,,,,,1.91,1.66,0.95*0C
$GPRMC,151732.000,A,5212.0611,N,00
005.9755,E,0.15,167.11,111118,,,A*69
$GPVTG,167.11,T,,M,0.15,N,0.28,K,A*33

$PMTKLOG,0,1,a,31,15,0,0,1,0,0*11
$PMTK001,
183,3*3A
$PMTK869,2,1*36

$GPGGA,151733.000,5212.0
609,N,00005.9756,E,1,05,1.66,6.8,M,47.0,M,,*64
$GPGSA,A,3,05,07,30,02,09,,,,,,,,1.91,1.66,0.95*0C
$GPRMC,151733.000,A,5212.0
609,N,00005.9756,E,0.31,165.71,111118,,,A*60
$GPVTG,165.71,T,,M,0.31,N,0.58,K,A*36

$PMTKLOG,0,1,a,31,15,0,0,1,0,0*11
$PMTK001,183,3*3A
$PMTK869,2,1*36

$GPGGA,151734.000,5212.0609,N,00005.9757,E,1,05,
1.66,7.3,M,47.0,M,,*68
$GPGSA,A,3,05,07,30,02,09,,,,,,,,1.91,1.66,0.95*0C
$GPRMC,151734.000,A,5212.0
609,N,00005.9757,E,0.34,182.93,111118,,,A*66
$GPVTG,182.93,T,,M,0.34,N,0.62,K,A*3F

$PMTKLOG,0,1,a,31,15,0,0,1,0,0*11
$PMTK001,1
83,3*3A
$PMTK869,2,1*36

$GPGGA,151735.000,5212.
0610,N,00005.9757,E,1,05,1.66,7.5,M,47.0,M,,*67
$GPGSA,A,3,05,07,30,02,09,,,,,,,,1.91,1.66,0.95*0C
$G
PGSV,2,1,08,07,64,094,28,30,57,171,35,05,51,295,37,02,35,237,33*79
$GPGSV,2,2,08,09,32,081,34,40,07,111,,06,,,21,
16,,,21*74
$GPRMC,151735.000,A,5212.0610,N,00005.9757,E,0.14,187.93,111118,,,A*68
$GPVTG,187.93,T,,M,0.14,N,
0.27,K,A*39
$PMTKLOG,0,1,a,31,15,0,0,1,0,0*11
$PMTK001,183,3*3A
$PMTK
869,2,1*36

$GPGGA,151736.000,5212.0610,N,00005.9758,E,1,05,1.66,7.6,M,47.0,M,,*68

$GPGSA,A,3,05,07,30,02,09,,,,,,,,1.91,1.66,0.95*0C
$GPRMC,151736.000,A,5212.0610,N,00005.9758,E,0.11,2
00.54,111118,,,A*66
$GPVTG,200.54,T,,M,0.11,N,0.21,K,A*3D

$PMTKLOG,0,1,
a,31,15,0,0,1,0,0*11
$PMTK001,183,3*3A
$PMTK869,2,1*36

$GPGGA,151737.000,5212.0611,N,00005.9759,E,1,05,1.66,7.
5,M,47.0,M,,*6A
$GPGSA,A,3,05,07,30,02,09,,,,,,,,1.91,1.66,0.95*0C
$GPRMC,151737.000,A,5212.0611,N,00005
.9759,E,0.11,165.27,111118,,,A*63
$GPVTG,165.27,T,,M,0.11,N,0.20,K,A*38

$PMTKLOG,0,1,a,31,15,0,0,1,0,0
*11
$PMTK001,183,3*3A
$PMTK869,2,1*36

$GPGGA,151738.000,5212.0612,N,00005.9
760,E,1,05,1.66,7.7,M,47.0,M,,*6E
$GPGSA,A,3,05,07,30,02,09,,,,,,,,1.91,1.66,0.95*0C
$GPRMC,151738.0
00,A,5212.0612,N,00005.9760,E,0.11,182.12,111118,,,A*6A
$GPVTG,182.12,T,,M,0.11,N,0.20,K,A*37

$PMTKLOG,0,1,a,31,15,0,0,1,0,0*11
$PMTK001,183,3*3A

$PMTK869,2,1*36

$GPGGA,151739.000,5212.0613,N,00005.9760,E,1,
05,1.66,7.8,M,47.0,M,,*61
$GPGSA,A,3,05,07,30,02,09,,,,,,,,1.91,1.66,0.95*0C
$GPRMC,151739.000,A,5212.0613,N,00005.9760,E,0.04,1
08.89,111118,,,A*6E
$GPVTG,108.89,T,,M,0.04,N,0.08,K,A*39

$PMTKLOG,0,1,a,31,15,0,0,1,0,0*11
$PMTK001,183,3*3A
$PMTK869,2
,1*36

$GPGGA,151740.000,5212.0614,N,00005.9760,E,1,05,1.66,7.9,M,47.0
,M,,*69
$GPGSA,A,3,05,07,30,02,09,,,,,,,,1.91,1.66,0.95*0C
$GPGSV,2,1,08,07,64,094,28,30,57,171,35,05
,51,295,38,02,35,237,33*76
$GPGSV,2,2,08,09,32,081,34,44,06,109,,06,,,21,16,,,20*79
$GPRMC,151740.000,A,5212
.0614,N,00005.9760,E,0.12,15.03,111118,,,A*5F
$GPVTG,15.03,T,,M,0.12,N,0.21,K,A*0A

$PMTKLOG,0,1,a,31,15,0,0,1,0,0*11
$PMTK001,183,3*3A
$PMTK869,2,1*36

$GPGGA,151741.000,5212.0614,N,00005.9760,E,1,05,1.66,7.8,M,47.0,M,,*69
$GPGSA,A,3,05,07,30,02,09
,,,,,,,,1.92,1.66,0.95*0F
$GPRMC,151741.000,A,5212.0614,N,00005.9760,E,0.07,321.18,111118,,,A*64
$GPVTG,321.18,T,,M,0.07
,N,0.12,K,A*30

$PMTKLOG,0,1,a,31,15,0,0,1,0,0*11
$PMTK001,183,3*3A
$PMTK869,2,1*36

$GPGGA,151742.000,5212.061
3,N,00005.9759,E,1,05,1.66,7.7,M,47.0,M,,*68
$GPGSA,A,3,05,07,30,02,09,,,,,,,,1.91,1.66,0.95*0C
$GPRMC,151742.000,A,
5212.0613,N,00005.9759,E,0.13,226.38,111118,,,A*6B
$GPVTG,226.38,T,,M,0.13,N,0.25,K,A*35

$PMTKLOG,0,1,a,31,15,0,0,1,0,0*11
$PMTK001,183,3*3A
$
PMTK869,2,1*36

$GPGGA,151743.000,5212.0613,N,00005.9759,E,1,05,1.
66,7.7,M,47.0,M,,*69
$GPGSA,A,3,05,07,30,02,09,,,,,,,,1.92,1.66,0.95*0F
$GPRMC,151743.000,A,5212.061
3,N,00005.9759,E,0.21,221.88,111118,,,A*67
$GPVTG,221.88,T,,M,0.21,N,0.39,K,A*35

$PMTKLOG,0,1,a,31,1
5,0,0,1,0,0*11
$PMTK001,183,3*3A
$PMTK869,2,1*36

$GPGGA,151744.000,5212.0612,N,0
0005.9758,E,1,05,1.66,7.7,M,47.0,M,,*6E
$GPGSA,A,3,05,07,30,02,09,,,,,,,,1.92,1.66,0.95*0F
$GPRMC,151744.000,A,5212.
0612,N,00005.9758,E,0.03,281.24,111118,,,A*6C
$GPVTG,281.24,T,,M,0.03,N,0.05,K,A*36

$PMTKLOG,0,1,a,31,15,0,0,1,0,0*11
$PMTK001,183,3*3A
$PMTK869,2,1*36

$GPGGA,151745.000,5212.0612,N,00005.9758,E,1,05,1.66,7.7,M,47.0
,M,,*6F
$GPGSA,A,3,05,07,30,02,09,,,,,,,,1.92,1.66,0.95*0F
$GPGSV,2,1,08,07,64,094,28,30,57,171,35,05,51,295,38,02,35,2
37,32*77
$GPGSV,2,2,08,09,32,081,34,44,06,109,,06,,,20,16,,,20*78
$GPRMC,151745.000,A,5212.0612,N,00005.9
758,E,0.15,82.58,111118,,,A*50
$GPVTG,82.58,T,,M,0.15,N,0.28,K,A*04

$PMTKLOG,0,1,a,31,15,0,0,1,0,0*11
$PMTK001,183,3*3A
$PMTK869,2,1*36

$GPGGA,151746.000,5212.0612,
N,00005.9759,E,1,05,1.66,7.7,M,47.0,M,,*6D
$GPGSA,A,3,05,07,30,02,09,,,,,,,,1.92,1.66,0.95*0F
$GPRMC
,151746.000,A,5212.0612,N,00005.9759,E,0.10,53.07,111118,,,A*51
$GPVTG,53.07,T,,M,0.10,N,0.19,K,A
*05

$PMTKLOG,0,1,a,31,15,0,0,1,0,0*11
$PMTK001,183,3*3A
$PMTK869,2,
1*36

$GPGGA,151747.000,5212.0612,N,00005.9759,E,1,05,1.66,7.7,M,47.0,M,,*6C
$GPGSA,
A,3,05,07,30,02,09,,,,,,,,1.92,1.66,0.95*0F
$GPRMC,151747.000,A,5212.0612,N,00005.9759,E,0.18,38.58,1
11118,,,A*5F
$GPVTG,38.58,T,,M,0.18,N,0.34,K,A*05

$PMTKLOG,0,1,a,31,15,0,0,1,0,0*11
$PMTK001,183,3*3A
$PMTK869,2,1*36

$GPGGA,151748.000,5212.0613,N,00005.9760,E,1,05,1.66,7.7,M,47.0,M,,*68
$GPGSA,A
,3,05,07,30,02,09,,,,,,,,1.92,1.66,0.95*0F
$GPRMC,151748.000,A,5212.0613,N,00005.9760,E,0.12,19.86,11
1118,,,A*51
$GPVTG,19.86,T,,M,0.12,N,0.23,K,A*09

$PMTKLOG,0,1,a,31,15,0,0,1,0,0*11
$PMTK001,183,3*3A
$PMTK86
9,2,1*36

$GPGGA,151749.000,5212.0613,N,00005.9760,E,1,05,1.66,7.7,M,47.0,M,,*69

$GPGSA,A,3,05,07,30,02,09,,,,,,,,1.92,1.66,0.95*0F
$GPRMC,151749.000,A,5212.0613,N,00005.9760,E,0.23
,350.03,111118,,,A*61
$GPVTG,350.03,T,,M,0.23,N,0.42,K,A*3F

$PMTKLOG,0,1,a,31,15,0,0,1,0,0*11
$PMTK001,183,3*3A
$PMTK869
,2,1*36

$GPGGA,151750.000,5212.0614,N,00005.9760,E,1,05,1.67,7.7,M,47.0,M,,*67
$GPGS
A,A,3,05,07,30,02,09,,,,,,,,3.43,1.67,3.00*0F
$GPGSV,2,1,08,07,64,093,28,30,57,171,35,05,51,295,38,02
,35,237,32*70
$GPGSV,2,2,08,09,32,081,34,33,28,199,,06,,,20,16,,,21*7C
$GPRMC,151750.000,A,5212.0614,N,00005.9760
,E,0.24,5.19,111118,,,A*61
$GPVTG,5.19,T,,M,0.24,N,0.45,K,A*37

$PMTKLOG,0,1,a,31,15,0,0,1,0,0*11
$PMTK001,183,3*3A
$PMTK869,2,1*36

$GPGGA,151751.000,5212
.0614,N,00005.9760,E,1,05,1.67,7.7,M,47.0,M,,*66
$GPGSA,A,3,05,07,30,02,09,,,,,,,,3.43,1.67,3.00*0F

$GPRMC,151751.000,A,5212.0614,N,00005.9760,E,0.12,356.92,111118,,,A*63
$GPVTG,356.92,T,,M,0.12,N,0.22,K,A*35

$PMTKLOG,0,1,a,31,15,
0,0,1,0,0*11
$PMTK001,183,3*3A
$PMTK869,2,1*36

$GPGGA,151752.000,5212.0615,N,00005.9760,E,1,05,1.67,7.7,M,47.0,M,,*64
$GPGS
A,A,3,05,07,30,02,09,,,,,,,,3.43,1.67,3.00*0F
$GPRMC,151752.000,A,5212.0615,N,00005.9760,E,0.09,95.01,111118,,,A*5D
$GPVTG,
95.01,T,,M,0.09,N,0.16,K,A*0E

$PMTKLOG,0,1,a,31,15,0,0,1,0,0*11
$PMTK001,183,3*3A
$PMTK869,2,1*36

$GPGGA,151753.000,5212.0615,N,00005.9760,E,1,05,1.67,7.7,M,47.0,M,,*65
$GPGSA,A,3,05,07,30,02,
09,,,,,,,,1.92,1.67,0.95*0E
$GPRMC,151753.000,A,5212.0615,N,00005.9760,E,0.14,128.12,111118,,,A*65
$G
PVTG,128.12,T,,M,0.14,N,0.26,K,A*34

$PMTKLOG,0,1,a,31,15,0,0,1,0,0*11
$PMTK001,183,3*3A
$PMTK869,2,1*36

$GPGGA,151754.000,5212.0614,N,00005.9761,E,1,05,1.66,7.7,M,47.0,M,,*63
$GPGSA,A,3,05,07,30,0
2,09,,,,,,,,1.92,1.66,0.95*0F
$GPRMC,151754.000,A,5212.0614,N,00005.9761,E,0.16,95.13,111118,,,A*56

$GPVTG,95.13,T,,M,0.16,N,0.30,K,A*07

$PMTKLOG,0,1,a,31,15,0,0,1,0,0*11
$PMTK001
,183,3*3A
$PMTK869,2,1*36

$GPGGA,151755.000,5212.0614,N,00005.9762,E,1,05,1.67,7.7,M,47.0,M,,*
60
$GPGSA,A,3,05,07,30,02,09,,,,,,,,1.92,1.67,0.95*0E
$GPGSV,2,1,08,07,64,093,29,30,57,171,36,05,51,
295,38,02,35,237,32*72
$GPGSV,2,2,08,09,32,081,34,33,28,199,,06,,,21,16,,,22*7E
$GPRMC,151755.000,A,5212.0614
,N,00005.9762,E,0.11,51.68,111118,,,A*57
$GPVTG,51.68,T,,M,0.11,N,0.20,K,A*05

$PMTKLOG,0,1,a,31,15,0,0,1,0,0*11

$PMTK001,183,3*3A
$PMTK869,2,1*36

$GPGGA,151756.000,5212.0615,N,00005.976
2,E,1,05,1.67,7.7,M,47.0,M,,*62
$GPGSA,A,3,05,07,30,02,09,,,,,,,,1.92,1.67,0.95*0E
$GPRMC,151756.000,A,5212.0615,N,0
0005.9762,E,0.11,42.31,111118,,,A*5B
$GPVTG,42.31,T,,M,0.11,N,0.20,K,A*0B

$PMTKLOG,0,1,a,31,15,0,0,1,0,0*11
$PMTK001,183,3*3A
$PMTK869,2,1*36

$GPGGA,151757.000,5212.0615,N,00005.9762,E,1,05,1.67,7.7,M,47
.0,M,,*63
$GPGSA,A,3,05,07,30,02,09,,,,,,,,1.92,1.67,0.95*0E
$GPRMC,151757.000,A,5212.0615,N,00005.9762,
E,0.04,140.43,111118,,,A*68
$GPVTG,140.43,T,,M,0.04,N,0.07,K,A*3C

$GPGGA,151758.000,5212.0615,N,00005.9762,E,1,05,1.67,7.7,M,47.0,M,
,*6C
$GPGSA,A,3,05,07,30,02,09,,,,,,,,1.92,1.67,0.95*0E
$GPRMC,151758.000,A,5212.0615,N,00005.9762,E,0.08,192.72,111118
,,,A*66
$GPVTG,192.72,T,,M,0.08,N,0.14,K,A*3F
$PMTKLOG,0,1,a,31,15,0,0,1,0,0*11
$PMTK001,183,3*3A
$PMTK869,
2,1*36

$PMTKLOG,0,1,a,31,15,0,0,1,0,0*11
$PMTK
001,183,3*3A
$PMTK869,2,1*36

$GPGGA,151759.000,5212.0615,N,00005.9762,E,1,05,1.67,7.7,M,47.0,M,,*6D
$GPGSA,A,3,05,07,30,02,09,,,,,,,,1.92,1.67
,0.95*0E
$GPRMC,151759.000,A,5212.0615,N,00005.9762,E,0.07,148.10,111118,,,A*6B
$GPVTG,148.10,T,,M,0
.07,N,0.12,K,A*35

$PMTKLOG,0,1,a,31,15,
0,0,1,0,0*11
$PMTK001,183,3*3A
$PMTK869,2,1*36

$GPGGA,151800.000,5212.0614,N,00005.9763,E,1,05,1.67,7.7,M,47.0,M,,*6E
$GP
GSA,A,3,05,07,30,02,09,,,,,,,,1.92,1.67,0.95*0E
$GPGSV,3,1,09,07,64,093,30,30,57,171,35,05,51,295,37,02,35,237,31*75

$GPGSV,3,2,09,09,32,081,34,37,27,153,,06,,,21,16,,,21*70
$GPGSV,3,3,09,29,,,29*70
$GPRMC,151800
.000,A,5212.0614,N,00005.9763,E,0.16,165.93,111118,,,A*6C
$GPVTG,165.93,T,,M,0.16,N,0.29,K,A*39

$PMTKLOG,0,1,a,31,15,0,0,1,0,0*11
$PMTK001,183,3*3A
$PMTK869,2,1*36

$GPGGA,151801.000,5212.0614,N,00005.976
3,E,1,05,1.67,7.7,M,47.0,M,,*6F
$GPGSA,A,3,05,07,30,02,09,,,,,,,,1.92,1.67,0.95*0E
$GPRMC,151801.000
,A,5212.0614,N,00005.9763,E,0.21,240.43,111118,,,A*60
$GPVTG,240.43,T,,M,0.21,N,0.39,K,A*35

$PMTKLOG,0,1,a,31,15,0,0,
1,0,0*11
$PMTK001,183,3*3A
$PMTK869,2,1*36

$GPGGA,151802.000,5212.0614,N,00005.9762,E,1,05,1.67,7.7,M,47.0,M,,*6D
$GPGSA,A,3,05,07,30,02,
09,,,,,,,,1.92,1.67,0.95*0E
$GPRMC,151802.000,A,5212.0614,N,00005.9762,E,0.17,198.79,111118,,,A*68
$GPVTG,198.79,T,,
M,0.17,N,0.31,K,A*37

$PMTKLOG,0,1,a,31,15,0,0,1,0,0*11
$PMTK001,1
83,3*3A
$PMTK869,2,1*36

$GPGGA,151803.000,5212.0613,N,00005.9762,E,1,05,1.67,7.7,M,47.0,M,,*6B
$GPGSA,A,3,05,07,30,02,0
9,,,,,,,,1.92,1.67,0.95*0E
$GPRMC,151803.000,A,5212.0613,N,00005.9762,E,0.12,216.28,111118,,,A*6A
$GPVTG,216.28,T,,M
,0.12,N,0.22,K,A*31

$PMTKLOG,0,1,a,31,15,0,0,1,0,0*11

$PMTK001,183,3*3A
$PMTK869,2,1*36

$GPGGA,151804.000,5212.0613,N,00005.9761,E,1,05,1.67,7.7,M,47.0,M,,*6F
$GPGSA,A,3,05,07,30,02,09,,,,,,,,1.92,1.6
7,0.95*0E
$GPRMC,151804.000,A,5212.0613,N,00005.9761,E,0.09,225.79,111118,,,A*60
$GPVTG,225.79,T
,,M,0.09,N,0.17,K,A*39

$PMTKLOG,0,1,a,31,15,0,0,1,0,0*11
$
PMTK001,183,3*3A
$PMTK869,2,1*36

$GPGGA,151805.000,5212.0613,N,00005.9761,E,1,05,1.67,7.7,M,47.0,M,,*6E
$GPGSA,A,3,05,07,30,02,09,,,
,,,,,1.92,1.67,0.95*0E
$GPGSV,3,1,09,07,64,093,30,30,57,171,35,05,51,295,37,02,35,237,32*76
$GPGSV,3
,2,09,09,32,081,34,37,27,153,,06,,,22,16,,,21*73
$GPGSV,3,3,09,29,,,28*71
$GPRMC,151805.000,A,5212.0613,N,00005.
9761,E,0.09,242.96,111118,,,A*61
$GPVTG,242.96,T,,M,0.09,N,0.16,K,A*38

$PMTKLOG,0,1,a,31,15,0,0,1,0,0*11
$PMTK001,183,3*3A
$PMTK869,2,1*36

$GPGGA,151806.000,5212.0613,N,00005.9761,E,1,0
5,1.67,7.7,M,47.0,M,,*6D
$GPGSA,A,3,05,07,30,02,09,,,,,,,,1.92,1.67,0.95*0E
$GPRMC,151806.000,A,5
212.0613,N,00005.9761,E,0.22,254.75,111118,,,A*61
$GPVTG,254.75,T,,M,0.22,N,0.41,K,A*39

$PMTKLOG,0,1,a,31,15,0,0,1,0,0*11
$
PMTK001,183,3*3A
$PMTK869,2,1*36

$GPGGA,151807.000,5212.0613,N,00005.9760,E,1,05,1.67,7.7,M,47.0,M,,*6D
$
GPGSA,A,3,05,07,30,02,09,,,,,,,,1.92,1.67,0.95*0E
$GPRMC,151807.000,A,5212.0613,N,00005.9760,E,0.22,228.27,111118,,,A*6D
$GP
VTG,228.27,T,,M,0.22,N,0.40,K,A*34

$PMTKLOG,0,1,a,31,15,0,0,1,0,0*1
1
$PMTK001,183,3*3A
$PMTK869,2,1*36

$GPGGA,151808.000,5212.0612,N,00005.9759,E,1,05,1.67,7.7,M,47.0,M,,*69
$GPGSA,A,3,05,07,30,02,09,,,,,
,,,1.92,1.67,0.95*0E
$GPRMC,151808.000,A,5212.0612,N,00005.9759,E,0.19,196.74,111118,,,A*61
$GPVTG,196.74,T,,M,0.19,N,0.34,K,A*3F

$PMTKLOG,0,1,a,31,15,0,0,1,0,0*11
$PMTK001,1
83,3*3A
$PMTK869,2,1*36

$GPGGA,151809.000,52
12.0612,N,00005.9759,E,1,05,1.67,7.7,M,47.0,M,,*68
$GPGSA,A,3,05,07,30,02,09,,,,,,,,1.92,1.67,0.95*0E
$G
PRMC,151809.000,A,5212.0612,N,00005.9759,E,0.08,124.26,111118,,,A*6E
$GPVTG,124.26,T,,M,0.08,
N,0.16,K,A*31

$PMTKLOG,0,1,a,31,15,0,0,1,0,0*11
$PMTK001,183,3*3A
$PMTK869,2,1*36

$GPGGA,151810.000,5212.0612,N,000
05.9759,E,1,05,1.67,7.7,M,47.0,M,,*60
$GPGSA,A,3,05,07,30,02,09,,,,,,,,1.92,1.67,0.95*0E
$GPGSV,3,1,
09,07,64,093,30,30,57,171,35,05,51,295,37,02,35,237,32*76
$GPGSV,3,2,09,09,32,081,34,39,25,149,,06,,,22,16,,,20*7
5
$GPGSV,3,3,09,29,,,28*71
$GPRMC,151810.000,A,5212.0612,N,00005.9759,E,0.05,208.92,111118,,
,A*69
$GPVTG,208.92,T,,M,0.05,N,0.09,K,A*30

$PMTKLOG,0,1,a,31,15,0,0,1,0,0*11
$PMTK001,183,3*3A
$PMTK869,2,1*36

$GPGGA,151811.000,5212.0612,N,00005.9759,E,1,05,1.67,7.7,M,47.0,M,,*61
$GPGSA,A
,3,05,07,30,02,09,,,,,,,,1.92,1.67,0.95*0E
$GPRMC,151811.000,A,5212.0612,N,00005.9759,E,0.18,45.29,11
1118,,,A*5F
$GPVTG,45.29,T,,M,0.18,N,0.34,K,A*09

$PMTKLOG,0,1,a,31,15,0,0,1,0,0*11
$PMTK001,183,3*3A
$PMTK869,2,1*36

$GPGGA,151812.000,5212.0612,N,000
05.9759,E,1,05,1.67,7.7,M,47.0,M,,*62
$GPGSA,A,3,05,07,30,02,09,,,,,,,,1.92,1.67,0.95*0E
$GPRMC,151812.000,A,5212.06
12,N,00005.9759,E,0.22,325.88,111118,,,A*6B
$GPVTG,325.88,T,,M,0.22,N,0.41,K,A*3C

$PMTKLOG,0,1,a,31,15,0,0,1,0,0*11
$PMTK001,183,3*3A
$PMTK869,2,1*36


$GPG
GA,151813.000,5212.0613,N,00005.9759,E,1,05,1.67,7.7,M,47.0,M,,*62
$GPGSA,A,3,05,07,30,02,09,,,,,,,,1.92,1.67,0.95*0E
$GPRMC
,151813.000,A,5212.0613,N,00005.9759,E,0.14,301.75,111118,,,A*6A
$GPVTG,301.75,T,,M,0.14,N,0.26,K,A*3C

$PMTKLOG,0,1,a,31,15,0,0,1,0,0*11
$PMTK001,183,3*3A
$P
MTK869,2,1*36

$GPGGA,151814.000,5212.0613
,N,00005.9758,E,1,05,1.67,7.7,M,47.0,M,,*64
$GPGSA,A,3,05,07,30,02,09,,,,,,,,1.92,1.67,0.95*0E
$GPRM
C,151814.000,A,5212.0613,N,00005.9758,E,0.03,288.53,111118,,,A*6E
$GPVTG,288.53,T,,M,0.03,N,0.05,K,A*3F

$PMTKLOG,0,1,a,31,15,0,0,1,0,0*11
$PMTK001,183,3*3A
$PMTK869,2,1*36

$GPGGA,151815.000,5212.0613,N,0
0005.9758,E,1,05,1.67,7.7,M,47.0,M,,*65
$GPGSA,A,3,05,07,30,02,09,,,,,,,,1.92,1.67,0.95*0E
$GPGSV,3,
1,09,07,64,093,30,30,57,171,35,05,51,295,37,02,35,237,32*76
$GPGSV,3,2,09,09,32,081,34,39,25,149,,06,,,23,16,,,19*7E

$GPGSV,3,3,09,29,,,29*70
$GPRMC,151815.000,A,5212.0613,N,00005.9758,E,0.31,198.18,111118,,,A*63
$GPVTG,
198.18,T,,M,0.31,N,0.57,K,A*34

$PMTKLOG,0,1,a,31,15,0,0,1,0,0*11
$PMTK001,183,3*3A
$PMTK869,2,1*36

$GPGGA,151816.000,5212.0612,N,00005.9758,E,1,05,1.67,7.7,M,47.0,M,,*67
$GPGSA,A,3,05,07,3
0,02,09,,,,,,,,1.92,1.67,0.95*0E
$GPRMC,151816.000,A,5212.0612,N,00005.9758,E,0.05,173.00,111118,,,A*6A
$GPVTG,173.00,T,,M,0.05
,N,0.09,K,A*34

$PMTKLOG,0,1,a,31,15,0,0,1,0,0*11
$PMTK001,183,3*3A
$PMTK869,2,1*36

$GPGGA,151817.000,5212.0612,N,00005.9758,E,1,05,1.67,7.7,M
,47.0,M,,*66
$GPGSA,A,3,05,07,30,02,09,,,,,,,,1.92,1.67,0.95*0E
$GPRMC,151817.000,A,5212.0612,N,00005.9758,E,0.1
2,177.49,111118,,,A*64
$GPVTG,177.49,T,,M,0.12,N,0.21,K,A*31

$PMTKLOG,0,1,a,31,
15,0,0,1,0,0*11
$PMTK001,183,3*3A
$PMTK869,2,1*36

$GPGGA,151818.000,5212.0612,N,00005.9758,E,1,05,1
.67,7.7,M,47.0,M,,*69
$GPGSA,A,3,05,07,30,02,09,,,,,,,,1.92,1.67,0.95*0E
$GPRMC,151818.000,A,5212.06
12,N,00005.9758,E,0.11,250.41,111118,,,A*66
$GPVTG,250.41,T,,M,0.11,N,0.20,K,A*3D

$PMTKLOG,0,1,a,31,15,0,0,1,0,0*11
$PMTK001,183,3*3A
$PMTK869,2,1*36

$GPGGA,151819.000,5212.0612,N,00005.9758,E,1,05,1.67,7.7,
M,47.0,M,,*68
$GPGSA,A,3,05,07,30,02,09,,,,,,,,1.92,1.67,0.95*0E
$GPRMC,151819.000,A,5212.0612,N,000
05.9758,E,0.15,233.89,111118,,,A*62
$GPVTG,233.89,T,,M,0.15,N,0.27,K,A*3F

$PMTKLOG,0,1,a,31,15,0,0,1,0,0*11
$PMTK001,183,3*3A
$PMTK869,2,1*36

$GPGGA,151820.000,5212.0612,N,00005.9757,E,1,05,1.67,7.7,M,47.0,M,,*6D
$
GPGSA,A,3,05,07,30,02,09,,,,,,,,1.92,1.67,0.95*0E
$GPGSV,3,1,09,07,64,093,30,30,57,171,35,05,51,295,38,02,34,237,33*7
9
$GPGSV,3,2,09,09,32,081,34,40,07,111,,06,,,23,16,,,18*7C
$GPGSV,3,3,09,29,,,29*70
$GPRMC,151820.000,A,5212.0612,N
,00005.9757,E,0.05,104.94,111118,,,A*6D
$GPVTG,104.94,T,,M,0.05,N,0.09,K,A*39

$PMTKLOG,0,1,a,31,15,0,0,1,0,0*11
$PMTK001,183,3*3A
$PMTK869,2,1*36

$GPGGA,151821.000,5212.0611,N,00005.
9757,E,1,05,1.67,7.7,M,47.0,M,,*6F
$GPGSA,A,3,05,07,30,02,09,,,,,,,,1.92,1.67,0.95*0E
$GPRMC,151821.0
00,A,5212.0611,N,00005.9757,E,0.03,48.75,111118,,,A*5F
$GPVTG,48.75,T,,M,0.03,N,0.06,K,A*06

$PMTKLOG,0,1,a,31,15,0,0,1,0,0*11
$PMTK001,183,3*3A
$PMTK869,2,1*36

$GPGGA,151822.000,5212.0612,N,00005.9757,E,1,05,1.67
,7.7,M,47.0,M,,*6F
$GPGSA,A,3,05,07,30,02,09,,,,,,,,1.92,1.67,0.95*0E
$GPRMC,151822.000,A,5212.0612,
N,00005.9757,E,0.10,219.39,111118,,,A*63
$GPVTG,219.39,T,,M,0.10,N,0.18,K,A*35

$PMTKLOG,0,1,a,31,15,0,0,1,0,0*11
$PMTK001,183,3*3A
$PM
TK869,2,1*36

$GPGGA,151823.000,5212.0611,N,00005.9757,E,1,05,1.67,7.7,
M,47.0,M,,*6D
$GPGSA,A,3,05,07,30,02,09,,,,,,,,1.92,1.67,0.95*0E
$GPRMC,151823.000,A,5212.061
1,N,00005.9757,E,0.27,198.54,111118,,,A*64
$GPVTG,198.54,T,,M,0.27,N,0.49,K,A*34

$PMTKLOG,0,1,a,31,15,0,0,1,0,0*11
$PMTK001,183,3*3A
$PMTK869,2,1*36

$GPGGA,151824.000,5212.0611,N,00005.9757,E,1,05,1.67,7.7,M,47.0,M,,*6A
$GPGSA,A,3,05,07
,30,02,09,,,,,,,,1.92,1.67,0.95*0E
$GPRMC,151824.000,A,5212.0611,N,00005.9757,E,0.17,259.54,111118,,,
A*6E
$GPVTG,259.54,T,,M,0.17,N,0.32,K,A*35

$PMTKLOG,0,1,a,31,15,0,
0,1,0,0*11
$PMTK001,183,3*3A
$PMTK869,2,1*36

$GPGGA,151825.000,5212.0611,N,00005.9756,E,1,05,1.67,7.7,M,47.0,M,,*6A
$GPGSA
,A,3,05,07,30,02,09,,,,,,,,1.92,1.67,0.95*0E
$GPGSV,3,1,09,07,64,093,30,30,57,171,35,05,52,295,38,02,
34,237,33*7A
$GPGSV,3,2,09,09,32,081,33,40,07,111,,06,,,23,16,,,18*7B
$GPGSV,3,3,09,29,,,28*71
$GPRMC,151825.00
0,A,5212.0611,N,00005.9756,E,0.18,227.35,111118,,,A*6F
$GPVTG,227.35,T,,M,0.18,N,0.33,K,A*35

$PMTKLOG,0,1,a,31,15,0,0,1,0,0*11
$PMTK001,183
,3*3A
$PMTK869,2,1*36

$GPGGA,151826.000,5212.0610,N,0
0005.9756,E,1,05,1.67,7.7,M,47.0,M,,*68
$GPGSA,A,3,05,07,30,02,09,,,,,,,,1.92,1.67,0.95*0E
$GPRMC,151826.000
,A,5212.0610,N,00005.9756,E,0.14,228.54,111118,,,A*69
$GPVTG,228.54,T,,M,0.14,N,0.26,K,A*35

$PMTKLOG,0,1,a,31,15,0,0,
1,0,0*11
$PMTK001,183,3*3A
$PMTK869,2,1*36

$GPGGA,151827.000,5212.0610,N,00005.9755,E,1,05,1.67,7.7,M,47.0,M,,*6A
$GPGSA,A,3,05,07,30,02,09,
,,,,,,,1.92,1.67,0.95*0E
$GPRMC,151827.000,A,5212.0610,N,00005.9755,E,0.07,264.59,111118,,,A*6C
$GPVTG,264.5
9,T,,M,0.07,N,0.14,K,A*33

$PMTKLOG,0,1,a,31,15,0,0
,1,0,0*11
$PMTK001,183,3*3A
$PMTK869,2,1*36

$GPGGA,151828.000,5212.0610,N,00005.9755,E,1,05,1.67,7.7,M,47.0,M,,*65
$G
PGSA,A,3,05,07,30,02,09,,,,,,,,1.92,1.67,0.95*0E
$GPRMC,151828.000,A,5212.0610,N,00005.9755,E,0.09,216.32,111118,
,,A*65
$GPVTG,216.32,T,,M,0.09,N,0.16,K,A*37

$
PMTKLOG,0,1,a,31,15,0,0,1,0,0*11
$PMTK001,183,3*3A
$PMTK869,2,1*36

$GPGGA,151829.000,5212.0610,N,00005.9755,E,1,05,1.67,7.7,M,47.0,M,,*64
$GPGSA,A,3,05,07,30,02,09,,,,,,,,1
.92,1.67,0.95*0E
$GPRMC,151829.000,A,5212.0610,N,00005.9755,E,0.21,161.05,111118,,,A*69
$GPVTG,161.05,T,
,M,0.21,N,0.39,K,A*37

$PMTKLOG,0,1,a,31,15,0,0,1,0,0*1
1
$PMTK001,183,3*3A
$PMTK869,2,1*36

$GPGGA,151830.000,5212.0609,N
,00005.9755,E,1,05,1.67,7.7,M,47.0,M,,*64
$GPGSA,A,3,05,07,30,02,09,,,,,,,,1.92,1.67,0.95*0E

$GPGSV,3,1,09,07,64,093,28,30,57,171,35,05,52,295,38,02,34,237,32*72
$GPGSV,3,2,09,09,32,081,33,44,06,109,,06,,,23,16,,,
17*78
$GPGSV,3,3,09,29,,,27*7E
$GPRMC,151830.000,A,5212.0609,N,00005.9755,E,0.20,185.20,111118,,,A*65
$
GPVTG,185.20,T,,M,0.20,N,0.38,K,A*3A

$PMTKLOG,0,1,a,31,15,0,0,1,0,0*11
$PMTK001,183,3*3A
$PMTK869,2,1*36

$GPGGA,151831.000,5212.0609,N,00005.9755,E,1,0
6,1.32,7.7,M,47.0,M,,*66
$GPGSA,A,3,05,07,30,02,09,29,,,,,,,1.60,1.32,0.90*0D
$GPRMC,151831.000,A,5212.0609,N,00005.
9755,E,0.10,207.51,111118,,,A*68
$GPVTG,207.51,T,,M,0.10,N,0.19,K,A*35

$PMTKLOG,0,1,a,31,15,0,0,1,0,0
*11
$PMTK001,183,3*3A
$PMTK869,2,1*36

$GPGGA,151832.000,5212
.0608,N,00005.9755,E,1,06,1.32,7.7,M,47.0,M,,*64
$GPGSA,A,3,05,07,30,02,09,29,,,,,,,1.60,1.32,0.90*0D
$GPRMC
,151832.000,A,5212.0608,N,00005.9755,E,0.12,201.63,111118,,,A*6F
$GPVTG,201.63,T,,M,0.12,N,0.22,K,A*38

$PMTKLOG,0,1,a,31,15,0,0,1,0,0*11
$PMTK001,18
3,3*3A
$PMTK869,2,1*36

$G
PGGA,151833.000,5212.0608,N,00005.9755,E,1,06,1.32,7.7,M,47.0,M,,*65
$GPGSA,A,3,05,07,30,02,09,29,,,,,,,1.60,1.32
,0.90*0D
$GPRMC,151833.000,A,5212.0608,N,00005.9755,E,0.04,169.23,111118,,,A*60
$GPVTG,169.2
3,T,,M,0.04,N,0.07,K,A*31

$PMTKLOG,0,1,a,31,15,0,0,1
,0,0*11
$PMTK001,183,3*3A
$PMTK869,2,1*36

$GPGGA,151
834.000,5212.0608,N,00005.9755,E,1,06,1.32,7.7,M,47.0,M,,*62
$GPGSA,A,3,05,07,30,02,09,29,,,,,,,1.60,1.32,0.9
0*0D
$GPRMC,151834.000,A,5212.0608,N,00005.9755,E,0.22,161.45,111118,,,A*6B
$GPVTG,161.45,T,,M,0.22,N,0.41,K,A*3F

$PMTKLOG,0,1,a,31,15,0,
0,1,0,0*11
$PMTK001,183,3*3A
$PMTK869,2,1*36

$GPGGA,151835.000
,5212.0607,N,00005.9755,E,1,06,1.32,7.7,M,47.0,M,,*6C
$GPGSA,A,3,05,07,30,02,09,29,,,,,,,1.60,1.32,0.90*0D
$
GPGSV,3,1,09,07,64,093,28,30,57,171,35,05,52,295,38,02,34,237,32*72
$GPGSV,3,2,09,09,32,081,33,29
,06,304,29,44,06,109,,06,,,23*48
$GPGSV,3,3,09,16,,,18*7E
$GPRMC,151835.000,A,5212.0607,N,00005.9755,E,0.15,218.
76,111118,,,A*6C
$GPVTG,218.76,T,,M,0.15,N,0.27,K,A*36

$PMTKLOG,0,1,a,31,15,0,0,1,0,0*11
$PMTK001,183,3*3A
$PMTK869,2,1*36

$GPGGA,151836.000,5212.0607,N,00005.9755,E,1,06,1.32,7.7,M,47.0,M,,*6F
$GPGSA,A,3,05,07,30,02,09,2
9,,,,,,,1.60,1.32,0.90*0D
$GPRMC,151836.000,A,5212.0607,N,00005.9755,E,0.10,201.94,111118,,,A*6E
$GP
VTG,201.94,T,,M,0.10,N,0.18,K,A*3B

$PMTKLOG,0,1,a,31,15,0,
0,1,0,0*11
$PMTK001,183,3*3A
$PMTK869,2,1*36

$GPGGA,151837.000,5212.0607,N,00
005.9754,E,1,06,1.32,7.7,M,47.0,M,,*6F
$GPGSA,A,3,05,07,30,02,09,29,,,,,,,1.60,1.32,0.90*0D
$GPRMC,151837.00
0,A,5212.0607,N,00005.9754,E,0.08,232.79,111118,,,A*64
$GPVTG,232.79,T,,M,0.08,N,0.14,K,A*3D

$PMTKLOG,0,1,a,31,15,0,0
,1,0,0*11
$PMTK001,183,3*3A
$PMTK869,2,1*36

$GPGGA,151838.000,5212.0607,N,00005.
9754,E,1,06,1.32,7.7,M,47.0,M,,*60
$GPGSA,A,3,05,07,30,02,09,29,,,,,,,1.60,1.32,0.90*0D
$GPRMC,151838.000,A,
5212.0607,N,00005.9754,E,0.13,232.19,111118,,,A*67
$GPVTG,232.19,T,,M,0.13,N,0.24,K,A*32

$PMTKLOG,0,1,a,31,15,0
,0,1,0,0*11
$PMTK001,183,3*3A
$PMTK869,2,1*36

$GPGGA,1
51839.000,5212.0606,N,00005.9754,E,1,06,1.32,7.7,M,47.0,M,,*60
$GPGSA,A,3,05,07,30,02,09,29,,,,,,,1.60,1.32,0.90*
0D
$GPRMC,151839.000,A,5212.0606,N,00005.9754,E,0.16,230.80,111118,,,A*60
$GPVTG,230.80,T,,M
,0.16,N,0.29,K,A*38

$PMTKLOG,0,1,a,31,
15,0,0,1,0,0*11
$PMTK001,183,3*3A
$PMTK869,2,1*36

$GPGGA,151840.000,5212.0606,N,0
0005.9753,E,1,06,1.32,7.7,M,47.0,M,,*69
$GPGSA,A,3,05,07,30,02,09,29,,,,,,,1.60,1.32,0.90*0D
$GPGSV,3,1,09,0
7,64,093,29,30,57,171,35,05,52,295,38,02,34,237,32*73
$GPGSV,3,2,09,09,32,081,33,29,06,304,29,34,
,,,06,,,23*71
$GPGSV,3,3,09,16,,,18*7E
$GPRMC,151840.000,A,5212.0606,N,00005.9753,E,0.12,201.37,1111
18,,,A*63
$GPVTG,201.37,T,,M,0.12,N,0.21,K,A*3A

$PMTKLOG,0,1,a,31,15,0,0,1,0,0*11
$PMTK001,183,3*3A
$PMTK869,2,1*36

$GPGGA,151841.000,5212.060
6,N,00005.9753,E,1,06,1.32,7.8,M,47.0,M,,*67
$GPGSA,A,3,05,07,30,02,09,29,,,,,,,1.60,1.32,0.90*0D
$G
PRMC,151841.000,A,5212.0606,N,00005.9753,E,0.23,243.78,111118,,,A*6D
$GPVTG,243.78,T,,M,0.23,N,0.43,K,A*31

$PMTKLOG,0,1,a,31,15,0,
0,1,0,0*11
$PMTK001,183,3*3A
$PMTK869,2,1*36

$GPGGA,151842.00
0,5212.0606,N,00005.9752,E,1,06,1.32,7.8,M,47.0,M,,*65
$GPGSA,A,3,05,07,30,02,09,29,,,,,,,1.60,1.32,0.90*0D
$GPRMC,151842.00
0,A,5212.0606,N,00005.9752,E,0.27,225.78,111118,,,A*6B
$GPVTG,225.78,T,,M,0.27,N,0.49,K,A*3F

$PMTKLOG,0,1,a,31,15,0,0,1,0,0*11
$PMTK001,183,3
*3A
$PMTK869,2,1*36

$GPGGA,151843.000,5212.0605,N,00005.9751,E
,1,06,1.32,7.8,M,47.0,M,,*64
$GPGSA,A,3,05,07,30,02,09,29,,,,,,,1.60,1.32,0.90*0D
$GPRMC,151843.000,A,52
12.0605,N,00005.9751,E,0.10,252.77,111118,,,A*61
$GPVTG,252.77,T,,M,0.10,N,0.19,K,A*31

$PMTKLOG,0,1,a,31,15,0,0
,1,0,0*11
$PMTK001,183,3*3A
$PMTK869,2,1*36

$GPGGA,151844.000,5212.0605,N,00005.9751,E,1,06,1.3
2,7.8,M,47.0,M,,*63
$GPGSA,A,3,05,07,30,02,09,29,,,,,,,1.60,1.32,0.90*0D
$GPRMC,151844.000,A,5212.060
5,N,00005.9751,E,0.07,356.55,111118,,,A*65
$GPVTG,356.55,T,,M,0.07,N,0.14,K,A*3F

$PMTKLOG,0,1,a,31,15,0,0,1,0,0*11
$PMTK001,183,3*3A
$PMTK8
69,2,1*36

$GPGGA,151845.000,5212.0605,N,00005.9751,E,1,06,1.5
1,7.8,M,47.0,M,,*67
$GPGSA,A,3,05,07,30,02,09,29,,,,,,,2.52,1.51,2.02*03
$GPGSV,3,1,10,07,64,093,29,30,5
7,171,35,05,52,295,37,02,34,237,32*74
$GPGSV,3,2,10,09,32,081,33,13,20,258,24,29,06,304,28,35,,,*47
$GPGSV,3,3,1
0,06,,,22,16,,,18*70
$GPRMC,151845.000,A,5212.0605,N,00005.9751,E,0.13,56.02,111118,,,A*50
$GPVTG,56.02,T,,M,0.13,N,
0.25,K,A*09

$PMTKLOG,0,1,a,31,15,0,0,1,0,0*11
$PMTK001,183,3*3A
$PMTK869,2,1*36

$GPGGA,151846.000,5212.0606,N,00005.9751,E,1,06,1.32,7.8,M,47.0,M,,*62
$GPGSA,A,3,05,07,30,02,09,29,
,,,,,,1.60,1.32,0.90*0D
$GPRMC,151846.000,A,5212.0606,N,00005.9751,E,0.01,54.79,111118,,,A*5D
$GPVTG
,54.79,T,,M,0.01,N,0.02,K,A*01

$PMTKLOG,0,1,a,31,15,
0,0,1,0,0*11
$PMTK001,183,3*3A
$PMTK869,2,1*36

$GPGGA,151847.000,5212.06
06,N,00005.9751,E,1,06,1.32,7.8,M,47.0,M,,*63
$GPGSA,A,3,05,07,30,02,09,29,,,,,,,1.60,1.32,0.90*0D
$GPRMC,151847.000
,A,5212.0606,N,00005.9751,E,0.03,165.61,111118,,,A*64
$GPVTG,165.61,T,,M,0.03,N,0.06,K,A*3D

$PMTKLOG,0,1,a,31,15,0,0,1,0,0*11
$P
MTK001,183,3*3A
$PMTK869,2,1*36

$GPGGA,151848.000,5212.0606,N,00005.9751,E,1,06,1.32,7.8,M,4
7.0,M,,*6C
$GPGSA,A,3,05,07,30,02,09,29,,,,,,,1.60,1.32,0.90*0D
$GPRMC,151848.000,A,5212.0606,N,00005.9751,E
,0.13,111.61,111118,,,A*69
$GPVTG,111.61,T,,M,0.13,N,0.23,K,A*38

$PMTKLOG,0,1,a,31,1
5,0,0,1,0,0*11
$PMTK001,183,3*3A
$PMTK869,2,1*36

$GPGGA,151849.000,5212.0605,N,000
05.9752,E,1,06,1.32,7.8,M,47.0,M,,*6D
$GPGSA,A,3,05,07,30,02,09,29,,,,,,,1.60,1.32,0.90*0D
$GPRMC,151849
.000,A,5212.0605,N,00005.9752,E,0.11,209.76,111118,,,A*66
$GPVTG,209.76,T,,M,0.11,N,0.20,K,A*35

$PMTKLOG,0,1,a,31,15,0,0,1,0,0*11
$PMTK001,183,3*3A

$PMTK869,2,1*36

$GPGGA,151850.000,5212.0605,N,00005.9752,E,1,06,1.
32,7.8,M,47.0,M,,*65
$GPGSA,A,3,05,07,30,02,09,29,,,,,,,1.60,1.32,0.90*0D
$GPGSV,3,1,10,07,6
4,093,29,30,58,171,35,05,52,295,37,02,34,237,32*7B
$GPGSV,3,2,10,09,32,081,33,13,20,258,25,29,05,304,25,36,,,*4B

$GPGSV,3,3,10,06,,,23,16,,,18*71
$GPRMC,151850.000,A,5212.0605,N,00005.9752,E,0.05,88.55,111118,,,A*51
$GPVT
G,88.55,T,,M,0.05,N,0.09,K,A*01

$PMTKLOG,0,1,a,31,15,0,0,1,0,0*11
$PMTK001,183,3*3A
$PMTK869,2,1*36

$GPGGA,151851.000,5212.
0605,N,00005.9752,E,1,06,1.32,7.8,M,47.0,M,,*64
$GPGSA,A,3,05,07,30,02,09,29,,,,,,,1.60,1.32,
0.90*0D
$GPRMC,151851.000,A,5212.0605,N,00005.9752,E,0.21,62.26,111118,,,A*56
$GPVTG,62.26,T,,M,0.21,N,0.40,
K,A*0A

$PMTKLOG,0,1,a,31,15
,0,0,1,0,0*11
$PMTK001,183,3*3A
$PMTK869,2,1*36

$GPGGA,151852.000,5212.0606
,N,00005.9753,E,1,06,1.32,7.8,M,47.0,M,,*65
$GPGSA,A,3,05,07,30,02,09,29,,,,,,,1.60,1.32,0.90*0D

$GPRMC,151852.000,A,5212.0606,N,00005.9753,E,0.15,33.16,111118,,,A*57
$GPVTG,33.16,T,,M,0.15,N,0.28,K,A*04

$PMTKLOG,0,1,a,31,15,0
,0,1,0,0*11
$PMTK001,183,3*3A
$PMTK869,2,1*36

$GPGGA,151853.000,5212.0606,N,
00005.9753,E,1,06,1.32,7.8,M,47.0,M,,*64
$GPGSA,A,3,05,07,30,02,09,29,,,,,,,1.60,1.32,0.90*0D
$GPRMC,151853.000,
A,5212.0606,N,00005.9753,E,0.23,37.55,111118,,,A*50
$GPVTG,37.55,T,,M,0.23,N,0.43,K,A*0F

$PMTKLOG,0,1,a,31,15,
0,0,1,0,0*11
$PMTK001,183,3*3A
$PMTK869,2,1*36

$GPGGA,151854.000,5212.0607,N,00005.9754,E
,1,06,1.32,7.8,M,47.0,M,,*65
$GPGSA,A,3,05,07,30,02,09,29,,,,,,,1.60,1.32,0.90*0D
$GPRMC,151
854.000,A,5212.0607,N,00005.9754,E,0.19,52.32,111118,,,A*5A
$GPVTG,52.32,T,,M,0.19,N,0.35,K,A*05

$PMTKLOG,0,1,a,31,15,0,0,1,0,0*11
$PMTK001,183,3*3A
$PM
TK869,2,1*36

$GPGGA,151855.000,5212.0607,N,00005.9755,E,
1,06,1.32,7.8,M,47.0,M,,*65
$GPGSA,A,3,05,07,30,02,09,29,,,,,,,1.60,1.32,0.90*0D
$GPGSV,3,1,10,07,64,093,29,30,5
8,171,35,05,52,295,37,02,34,237,32*7B
$GPGSV,3,2,10,09,32,081,34,13,20,258,25,29,05,304,25,36
,,,*4C
$GPGSV,3,3,10,06,,,24,16,,,18*76
$GPRMC,151855.000,A,5212.0607,N,00005.9755,E,0.07,61.77,111118,,,A*54
$
GPVTG,61.77,T,,M,0.07,N,0.13,K,A*0F

$PMTKLOG,0,1,a,31,15,0,0,1,0,0*11
$PMTK001,183,3*3A
$PMTK869,2,1*36

$GPGGA,151856.000,5
212.0607,N,00005.9755,E,1,06,1.32,7.8,M,47.0,M,,*66
$GPGSA,A,3,05,07,30,02,09,29,,,,,,,1.60,1.32,0.90*0D
$GP
RMC,151856.000,A,5212.0607,N,00005.9755,E,0.06,67.30,111118,,,A*53
$GPVTG,67.30,T,,M,0.06,N,0
.11,K,A*09

$PMTKLOG,0,1,a,31,15,0,0,1,0,0*11
$PMTK001,183,3*3A
$PMT
K869,2,1*36

$GPGGA,151857.000,52
12.0607,N,00005.9755,E,1,06,1.32,7.8,M,47.0,M,,*67
$GPGSA,A,3,05,07,30,02,09,29,,,,,,,1.60,1.32,0.90*0D
$GPRMC,15
1857.000,A,5212.0607,N,00005.9755,E,0.07,71.45,111118,,,A*56
$GPVTG,71.45,T,,M,0.07,N,0.12,K,A*0E

$PMTKLOG,0,1,a,31,15
,0,0,1,0,0*11
$PMTK001,183,3*3A
$PMTK869,2,1*36

$GPGGA,151858.000,5212.0607,N,00005.9756,E
,1,06,1.32,7.8,M,47.0,M,,*6B
$GPGSA,A,3,05,07,30,02,09,29,,,,,,,1.60,1.32,0.90*0D
$GPRMC,151858.000,A,521
2.0607,N,00005.9756,E,0.14,42.01,111118,,,A*58
$GPVTG,42.01,T,,M,0.14,N,0.25,K,A*08

$PMTKLOG,0,1,a,31,
15,0,0,1,0,0*11
$PMTK001,183,3*3A
$PMTK869,2,1*36

$GPGGA,151859.000,5212.0608,N,0
0005.9756,E,1,06,1.32,7.8,M,47.0,M,,*65
$GPGSA,A,3,05,07,30,02,09,29,,,,,,,1.60,1.32,0.90*0D
$GPRMC,151859.0
00,A,5212.0608,N,00005.9756,E,0.18,61.56,111118,,,A*59
$GPVTG,61.56,T,,M,0.18,N,0.34,K,A*07

$PMTKLOG,0,1,a,31,15,0,0,1,0,0*11
$PMTK001,183,3*3A

$PMTK869,2,1*36

$GPGGA,151900.000,5212.0608,N,00005.9757,E,1,06,1.32,
7.8,M,47.0,M,,*69
$GPGSA,A,3,05,07,30,02,09,29,,,,,,,1.60,1.32,0.90*0D
$GPGSV,3,1,10,07,64,092,29,30,58,171,
35,05,52,294,37,02,34,237,32*7B
$GPGSV,3,2,10,09,32,081,34,13,20,258,25,29,05,304,26,38,,,*41
$GPGSV,3,3,10,
06,,,23,16,,,18*71
$GPRMC,151900.000,A,5212.0608,N,00005.9757,E,0.12,356.42,111118,,,A*6D
$GPVTG
,356.42,T,,M,0.12,N,0.21,K,A*3B

$PMTKLOG,0,1,a,31,15,0,0,1,0,0*11
$PMTK001,183,3*3A
$PMTK869,2,1*36

$GPGGA,151901.000,5212.0608,N,00005.9757,E,1,06,1.51,7.8,M,47.0,M,,*6D
$GPGSA,A,3,05,07,30,02,09,29,,,,,,,2.51,1.51,2
.01*03
$GPRMC,151901.000,A,5212.0608,N,00005.9757,E,0.11,339.11,111118,,,A*60
$GPVTG,339.11,T,,M,0.11,N,
0.20,K,A*36

$PMTKLOG,0,1,a,31,15,0,0,1,0,0*11
$PMTK001,183,3*3A
$PMTK869,2,1*36

$GPGGA,151902.000,5212.0608,N,00005.9756,E,
1,06,1.32,7.8,M,47.0,M,,*6A
$GPGSA,A,3,05,07,30,02,09,29,,,,,,,1.60,1.32,0.90*0D
$GPRMC,151902.000,A,5212.0608,N,000
05.9756,E,0.12,346.47,111118,,,A*6A
$GPVTG,346.47,T,,M,0.12,N,0.22,K,A*3C

$PMTKLOG,0,1,a,31,15,0,
0,1,0,0*11
$PMTK001,183,3*3A
$PMTK869,2,1*36

$GPGGA,151903.000,5212.0609,N,00005.9756,E,1,06,1.51,7.8,M,
47.0,M,,*6F
$GPGSA,A,3,05,07,30,02,09,29,,,,,,,2.51,1.51,2.01*03
$GPRMC,151903.000,A,5212.0609,N,00005.9756,
E,0.03,314.16,111118,,,A*69
$GPVTG,314.16,T,,M,0.03,N,0.06,K,A*39

$PMTKLOG,0,1,a,31,15,0,0,1,0
,0*11
$PMTK001,183,3*3A
$PMTK869,2,1*36

$GPGGA,151904.000,5212.0609,N,00005.9756,E,1,06,1.32,7.8,M,47.0,M,,*6D
$GPGSA,A,3,05,
07,30,02,09,29,,,,,,,1.60,1.32,0.90*0D
$GPRMC,151904.000,A,5212.0609,N,00005.9756,E,0.09,354.
73,111118,,,A*63
$GPVTG,354.73,T,,M,0.09,N,0.17,K,A*34

$PMTKLOG,0,1,a,31,1
5,0,0,1,0,0*11
$PMTK001,183,3*3A
$PMTK869,2,1*36

$GPGGA,151905.000,5212.0609,N,00005.9756,E,1,06,1.51,7.8,M,47.
0,M,,*69
$GPGSA,A,3,05,07,30,02,09,29,,,,,,,2.51,1.51,2.01*03
$GPGSV,3,1,10,07,64,092,29,
30,58,171,34,05,52,294,37,02,34,237,31*79
$GPGSV,3,2,10,09,31,081,34,13,20,258,25,29,05,304,26,41,,,*4C
$GPGSV,3
,3,10,06,,,22,16,,,18*70
$GPRMC,151905.000,A,5212.0609,N,00005.9756,E,0.13,328.32,111118,,,A*67
$GPVTG,328.32,T,
,M,0.13,N,0.24,K,A*31

$PMTKLOG,0,1,a,31,15,0,0,1,0,0*11
$PMTK001,183,3*3A
$PMTK869,2,1*36

$GPGGA,151906.000,5212.0609,N,00005.9756,E,1,06,1.32,7.8,M,47.0,M
,,*6F
$GPGSA,A,3,05,07,30,02,09,29,,,,,,,1.60,1.32,0.90*0D
$GPRMC,151906.000,A,5212.0609,N,00005.9756,E,
0.15,347.91,111118,,,A*62
$GPVTG,347.91,T,,M,0.15,N,0.29,K,A*3A

$PMTKLOG,0,1,a,31,15,0,0,1,0,0*11
$PMTK001,183,3*3A
$PMTK869,2,1*36

$GPGGA,151907.000,5212.0610,N,00005.9756,E,1,06,1.50,7.8,
M,47.0,M,,*62
$GPGSA,A,3,05,07,30,02,09,29,,,,,,,2.51,1.50,2.01*02
$GPRMC,151907.000,A,5212.0610,N,00005
.9756,E,0.18,329.26,111118,,,A*62
$GPVTG,329.26,T,,M,0.18,N,0.34,K,A*3F

$PMTKLOG,0,1,a,31,15,0,0,1,0
,0*11
$PMTK001,183,3*3A
$PMTK869,2,1*36

$GPGGA,151908.000,5212.0610,N,00005.9755,E,1,06,1.32,7.8,M,47.0,M,,*6A

$GPGSA,A,3,05,07,30,02,09,29,,,,,,,1.60,1.32,0.90*0D
$GPRMC,151908.000,A,5212.0610,N,00005.9755,E,0.20,331.19,11
1118,,,A*60
$GPVTG,331.19,T,,M,0.20,N,0.37,K,A*32

$PMTKLOG,0,1,a,31,15,0,0,1,0,0*11
$PMTK001,183,3*3A
$PMTK869,2,1*36

$GPGGA,151909.000,5212.0611,N,00005.9755,E,1,06,1.32,7.8,M,47.0,M,,*6A
$GPGSA,A,3,05,07,30,0
2,09,29,,,,,,,1.60,1.32,0.90*0D
$GPRMC,151909.000,A,5212.0611,N,00005.9755,E,0.18,269.29,111118,,,A*64
$GPVT
G,269.29,T,,M,0.18,N,0.34,K,A*35

$PMTKLOG,0,1,a,31,15,0,0,1,
0,0*11
$PMTK001,183,3*3A
$PMTK869,2,1*36

$GPGGA,151910.000,5212.0611,N,00005.9754,E,1,06,1.32,7.8,M,47.0,M,,*63
$GPGSA,A,3,
05,07,30,02,09,29,,,,,,,1.60,1.32,0.90*0D
$GPGSV,3,1,10,07,64,092,29,30,58,171,34,05,52,294,37,02,34,237,31*79
$
GPGSV,3,2,10,09,31,081,34,13,20,258,25,29,05,304,24,43,,,*4C
$GPGSV,3,3,10,06,,,22,16,,,18*70
$GPRMC,151910.000,
A,5212.0611,N,00005.9754,E,0.10,299.67,111118,,,A*60
$GPVTG,299.67,T,,M,0.10,N,0.19,K,A*37

$PMTKLOG,0,1,a,31,15,0,0,1,0,0*11
$PMTK001,183,3*3A
$PMTK869,2,1*36

$GPGGA,151911.000,5212.0611,N,00005.9754,E,1,06,1.32,7.9,M,47.0,M,,*63
$GPGSA,A,3,05,07,30,02,09,29,
,,,,,,1.60,1.32,0.90*0D
$GPRMC,151911.000,A,5212.0611,N,00005.9754,E,0.04,37.82,111118,,,A*59
$GPVTG,37.82,T,,M,0.04,N,0
.07,K,A*00

$PMTKLOG,0,1,a,31,15,0
,0,1,0,0*11
$PMTK001,183,3*3A
$PMTK869,2,1*36

$GPGGA,151912.000,5212.0611,N,00005.9754,E,1,06,1.32,7.9,M,47.0,M,,*60
$GPGSA,A,3,05,07,30,02,09,29,,
,,,,,1.60,1.32,0.90*0D
$GPRMC,151912.000,A,5212.0611,N,00005.9754,E,0.08,281.99,111118,,,A*63

$GPVTG,281.99,T,,M,0.08,N,0.15,K,A*3A

$PMTKLOG,0,1,a,31,15,0
,0,1,0,0*11
$PMTK001,183,3*3A
$PMTK869,2,1*36
$GP
GGA,151913.000,5212.0611,N,00005.9753,E,1,06,1.32,7.9,M,47.0,M,,*66
$GPGSA,A,3,05,07,30,02,09,29,,,,,,,1.60,1.32,0.89*05

$GPRMC,151913.000,A,5212.0611,N,00005.9753,E,0.13,153.26,111118,,,A*67
$GPVTG,153.26,T,,M,0.13,N,0.24,K,A*3A

$PMTKLOG,0,1,a,31,15,0,0
,1,0,0*11
$PMTK001,183,3*3A
$PMTK869,2,1*36

$GPGGA,151914.000,5212.0611,N,00005.9754,E,1,06,1.32,7.9,M,47.0,M,,*66
$GPGSA,A,3,05,07,30,02,09,29,,,,,,,1.60
,1.32,0.90*0D
$GPRMC,151914.000,A,5212.0611,N,00005.9754,E,0.07,77.68,111118,,,A*5F
$GPVTG,77
.68,T,,M,0.07,N,0.12,K,A*07

$PMTKLOG,0,1,a,31,15,
0,0,1,0,0*11
$PMTK001,183,3*3A
$PMTK869,2,1*36

$GPGGA,151915.000,5212.0611,N,00005.9754,E,1,06,1.32,7.9,M,47.0,M,,*67
$GPGSA,A,3,05,07,30,02,09,29,,,
,,,,1.60,1.32,0.90*0D
$GPGSV,3,1,10,07,64,092,29,30,58,171,35,05,52,294,37,02,34,237,32*7B
$GPGSV,3,2,10,09,31,081,34,13,20,258,26,29,05,304,26,45,,,*4
B
$GPGSV,3,3,10,06,,,23,16,,,19*70
$GPRMC,151915.000,A,5212.0611,N,00
005.9754,E,0.11,79.81,111118,,,A*50
$GPVTG,79.81,T,,M,0.11,N,0.20,K,A*08

$PMTKLOG,0,1,a,31,15,0,0,1,0,0*11
$PMTK001,183,3*3A
$PMTK869,2,1*36

$GPGGA,151916.000,5212.0611,N,00005.9755,E,1,06,1.32,7.9,M,47.0,M,,*65
$GP
GSA,A,3,05,07,30,02,09,29,,,,,,,1.60,1.32,0.89*05
$GPRMC,151916.000,A,5212.0611,N,00005.9755,E,0.03,323.99,11
1118,,,A*64
$GPVTG,323.99,T,,M,0.03,N,0.06,K,A*3A

$PMTKLOG,0,1,a,31,15,0,0,
1,0,0*11
$PMTK001,183,3*3A
$PMTK869,2,1*36
$GPGGA,151917.000,5212.0611,N
,00005.9754,E,1,06,1.32,7.9,M,47.0,M,,*65
$GPGSA,A,3,05,07,30,02,09,29,,,,,,,1.60,1.32,0.89*05
$
GPRMC,151917.000,A,5212.0611,N,00005.9754,E,0.06,208.30,111118,,,A*6A
$GPVTG,208.30,T,,M,0.06,N,0.10,K,A*33

$PMTKLOG,0,1,a,31,15,
0,0,1,0,0*11
$PMTK001,183,3*3A
$PMTK869,2,1*36
$GPGGA,151918.000,5212.0611,N,0
0005.9754,E,1,06,1.32,7.9,M,47.0,M,,*6A
$GPGSA,A,3,05,07,30,02,09,29,,,,,,,1.60,1.32,0.89*05
$GPRMC,151918.000,A
,5212.0611,N,00005.9754,E,0.12,246.04,111118,,,A*6D
$GPVTG,246.04,T,,M,0.12,N,0.22,K,A*3A

$PMTKLOG,0,1,a,31,15,0
,0,1,0,0*11
$PMTK001,183,3*3A
$PMTK869,2,1*36
$GPGGA,151919.000,5212.0
611,N,00005.9754,E,1,06,1.32,7.9,M,47.0,M,,*6B
$GPGSA,A,3,05,07,30,02,09,29,,,,,,,1.60,1.32,0.89*
05
$GPRMC,151919.000,A,5212.0611,N,00005.9754,E,0.08,0.21,111118,,,A*60
$GPVTG,0.21,T,,M,0.08,N,0.14,K,A*33

$PMTKLOG,0,1,a,31,15,0,
0,1,0,0*11
$PMTK001,183,3*3A
$PMTK869,2,1*36
$GPGGA,151920.000,5212.0611,N,00005.9
754,E,1,06,1.50,7.9,M,47.0,M,,*65
$GPGSA,A,3,05,07,30,02,09,29,,,,,,,2.50,1.50,2.00*02
$GPGSV
,3,1,10,07,64,092,29,30,58,171,35,05,52,294,37,02,34,237,32*7B
$GPGSV,3,2,10,09,31,081,34,13,20,258,26,29,05,304,
28,45,,,*45
$GPGSV,3,3,10,06,,,22,16,,,19*71
$GPRMC,151920.000,A,5212.0611,N,00005.9754,E,0.20,13.16,111118,
,,A*56
$GPVTG,13.16,T,,M,0.20,N,0.38,K,A*01

$PMTKLOG,0,1,a,31,15,0,0,1,0,0*11
$PMTK001,183,3*3A
$PMTK869,2,1*36

$GPGGA,151921.000,5212.0612,N,00005.9754,E,1,06,1.50,7.9,M,47.0,M,,*67
$GPGSA,A,3,05,
07,30,02,09,29,,,,,,,2.50,1.50,2.00*02
$GPRMC,151921.000,A,5212.0612,N,00005.9754,E,0.09,296.63,111118,,,A*62
$GPVTG
,296.63,T,,M,0.09,N,0.18,K,A*35

$PMTKLOG,0,1,a,31,15,0,
0,1,0,0*11
$PMTK001,183,3*3A
$PMTK869,2,1*36
$GPGGA,151922.000,5212.0612,N
,00005.9754,E,1,06,1.32,7.9,M,47.0,M,,*60
$GPGSA,A,3,05,07,30,02,09,29,,,,,,,1.60,1.32,0.89*05
$GPRMC,151922.000,A,5212.
0612,N,00005.9754,E,0.17,247.41,111118,,,A*62
$GPVTG,247.41,T,,M,0.17,N,0.32,K,A*3E

$PMTKLOG,0,1,a,31,15,0,0,1,0,0*11
$P
MTK001,183,3*3A
$PMTK869,2,1*36
