$GPGGA,145529.097,,,,,0,00,,,M,,M,,*78
$GPGSA,A,1,,,,,,,,,,,,,,,*1E
$GPGSV,2,1,05,06,,,29,09,,,34,05,,,38,07,,,38*7E
$GPGSV,2,2,05,02,,,29*75
$GPRMC,145529.097,
V,,,,,0.00,0.00,060180,,,N*42
$GPVTG,0.00,T,,M,0.00,N,0.00,K,N*32
$PMTKLOG,0,1,a,31,15,0,0,1,0,0*11
$PMTK001,183,
3*3A
$PMTK869,2,1*36

$GPGGA,145530.097,,,,,0,00,,,M,,M,,*70
$GPGSA,A,1,,,,,,,,,,,,,,,*1E
$GPRMC,145530.097,V,,,,,0.00,0.00,060180,,,N*4A
$GPVTG,0.00,T,,M,0.00,N,0.00,K,N*32
$PMTKLOG,0,1,a,31,15,0,0,1,0,0*11
$PMTK001,183,3*3A
$P
MTK869,2,1*36

$GPGGA
,145531.097,,,,,0,00,,,M,,M,,*71
$GPGSA,A,1,,,,,,,,,,,,,,,*1E
$GPRMC,145531.097,V,,,,,0.00,0.00,060180,,,N*4B
$GPVTG,0.00,T,,M,0.00,N,0.00,K,N*32
$PMTKLOG,0,1,a,31,15,0,
0,1,0,0*11
$PMTK001,183,3*3A
$PMTK869,2,1*36

$GPGGA,145532.097,,,,,0,00,,,M,,M,,*72
$GPGSA,A,1,,,,,,,,,,,,,,,*1E
$GPRMC,145532.097,V,,,,,0.00,0.00,060180,,,N*48
$GPVTG,0.00,T,,M,0.00,N,0.00,K,N*32
$PMTKLOG,0,1,a,31,15,0,0
,1,0,0*11
$PMTK001,183,3*3A
$PMTK869,2,1*36

$GPGGA,145533.097,,,,,0,00,,,M,,M,,*73
$GPGSA,A,1,,,,,,,,,,,,,,,*1E
$GPRMC,145533.097,V,,,,,0.00,0.00,060180,,,N*49
$GPVTG,0.00,T,,M,0.00,N,0.00,K,N*32
$PMTKLOG,0,1,a,31,15
,0,0,1,0,0*11
$PMTK001,183,3*3A
$PMTK869,2,1*36

$GPGGA,145534.097
,,,,,0,00,,,M,,M,,*74
$GPGSA,A,1,,,,,,,,,,,,,,,*1E
$GPGSV,2,1,06,06,,,29,09,,,39,05,,,39,07,,,40*7E
$GPGSV,2,2,06,02,,,32,30,,,35*79
$GPRMC,145534.097,V,,,,,0.00,0.00,060180,,,N*4E
$GPVTG,0.00,T,,M,0.00,N,0.00,K,N
*32
$PMTKLOG,0,1,a,31,15,0,0,1,0,0*11
$PMTK001,183,3*3A
$PMTK869,2,1*36

$GPGGA,145535.097,,,,,0,00,,,M,,M,,*75
$GPGSA,A,
1,,,,,,,,,,,,,,,*1E
$GPRMC,145535.097,V,,,,,0.00,0.00,060180,,,N*4F
$GPVTG,0.00,T,,M,0.00,N,0.00,K,N*32
$PMTKLOG,0,1,a,31,15,0,0,1,0,0*11
$PMTK001,183,3*3A
$PMTK869,
2,1*36

$GPGGA,145536.086,,,,,0,00,,,M,,M,,*76
$GPGSA,A,1,,,,,,
,,,,,,,,,*1E
$GPRMC,145536.086,V,,,,,0.00,0.00,060180,,,N*4C
$GPVTG,0.00,T,,M,0.00,N,0.00,K,N*32
$GPGGA,145536.307,,,,,0,00,,,M,,M,,*7C

$GPGSA,A,1,,,,,,,,,,,,,,,*1E
$GPRMC,145536.307,V,,,,,0.00,0.00,060180,,,N*46
$GPVTG,0.00,T,,M,0.00,N
,0.00,K,N*32
$PMTKLOG,0,1,a,31,15,0,0,1,0,0*11
$PMTK001,183,3*3A
$PMTK869,2,1*36

$GPGGA,145537.307,,,,,0,00,,,M,,M,,*7D
$GPGSA,A,1,,,,,,,,
,,,,,,,*1E
$GPRMC,145537.307,V,,,,,0.00,0.00,060180,,,N*47
$GPVTG,0.00,T,,M,0.00,N,0.00,K,N*32
$PMTKL
OG,0,1,a,31,15,0,0,1,0,0*11
$PMTK001,183,3*3A
$PMTK869,2,1*36

$GPGGA,145538.307,,,,,0,00,,,M,,M,,*72
$GPGSA,A,1,,,,,,,,,,,,,,,*1E
$GPGSV,2,1,0
6,06,,,27,09,,,40,05,,,39,07,,,44*7A
$GPGSV,2,2,06,02,,,31,30,,,38*77
$GPRMC,145538.307,V,,,,,0.00,0.00,060180,
,,N*48
$GPVTG,0.00,T,,M,0.00,N,0.00,K,N*32
$PMTKLOG,0,1,a,31,15,0,0,1,0,0*11
$PMTK001,183,3*3A
$P
MTK869,2,1*36

$GPGGA,145539.307,,,,,0,00,,,M,,M,,*73
$GPGSA,A,1,,,,,,,,,,,,,,,*1E
$GPRMC,145539.307,V,
,,,,0.00,0.00,060180,,,N*49
$GPVTG,0.00,T,,M,0.00,N,0.00,K,N*32
$PMTKLOG,0,1,a,31,15,0,0,1,0,0*11
$PMTK001,183,3*3
A
$PMTK869,2,1*36

$GPGGA,145540.307,,,,,0,00,,,M,,M,,*7D
$GPGSA,A,1,,,,,,,,,,,,,,,*1E
$GPRMC,145540.307,V,,,,,0.00,0.00,060180,,,N*47
$GPVTG,0.00,T,,M,0.00,N,0.00
,K,N*32
$PMTKLOG,0,1,a,31,15,0,0,1,0,0*11
$PMTK001,183,3*3A
$PMTK869,2,1*36

$GPGGA,145541.307,,,,,0,00,,,M,,M,,*7C
$GPGSA,A,1,,,,,,,,,,,,,,,*1E
$GPRMC,145541.307,V,,,
,,0.00,0.00,060180,,,N*46
$GPVTG,0.00,T,,M,0.00,N,0.00,K,N*32
$PMTKLOG,0,1,a,31,15,0,0,1,0,0*11
$PMTK001,183,3
*3A
$PMTK869,2,1*36

$GPGGA,145542.095,,,,,0,00,,,M,,M,,*77
$GPGSA,A,1,,,,,,,,,,,,,,,*1E
$GPRMC,145542.095,V,
,,,,0.00,0.00,060180,,,N*4D
$GPVTG,0.00,T,,M,0.00,N,0.00,K,N*32
$PMTKLOG,0,1,a,
31,15,0,0,1,0,0*11
$PMTK001,183,3*3A
$PMTK869,2,1*36

$GPGGA,145543.095,,,,,0,00,,,M,,M,,*76
$GPGSA,A,1,,,,,,,,,,,,,,,*1E
$GPGSV,2,1,
07,06,,,28,09,,,40,05,,,39,07,,,44*74
$GPGSV,2,2,07,02,,,31,30,,,38,23,,,23*76
$GPRMC,145543.095,V,,,,,0.00,0.00,060180,,,N*4C
$GPVTG,0.00,T,,M,0.00,N,0.00,K,N*32
$PMTKLOG,0,1,a,31,15,0,0,1,0,0*
11
$PMTK001,183,3*3A
$PMTK869,2,1*36

$GPGGA,145544.095,,,,,0,00,,,M,,M,,*71
$GPGSA,A,1,,,,,,,,,,,,,,,*1E
$GPRMC,145544.095,V,,,,,0.00,0.00,060180
,,,N*4B
$GPVTG,0.00,T,,M,0.00,N,0.00,K,N*32
$PMTKLOG,0,1,a,31,15,0,0,1,0,0*11

$PMTK001,183,3*3A
$PMTK869,2,1*36

$GPGGA,145545.095,,,,
,0,00,,,M,,M,,*70
$GPGSA,A,1,,,,,,,,,,,,,,,*1E
$GPRMC,145545.095,V,,,,,0.00,0.00,060180,,,N*4A

$GPVTG,0.00,T,,M,0.00,N,0.00,K,N*32
$PMTKLOG,0,1,a,31,15,0,0,1,0,0*11
$PMTK001,183,3*3A
$PMTK869,2,1
*36

$GPGGA,145546.095,,,,,0,00,,,M,,M,,*73
$GPGSA,A,1,,
,,,,,,,,,,,,,*1E
$GPRMC,145546.095,V,,,,,0.00,0.00,060180,,,N*49
$GPVTG,0.00,T,,M,0.00,N,0.00,K,N*3
2
$PMTKLOG,0,1,a,31,15,0,0,1,0,0*11

$PMTK001,183,3*3A
$PMTK869,2,1*36

$GPGGA,145547.095,,,,,0,00,,,M,,M,,*72
$GP
GSA,A,1,,,,,,,,,,,,,,,*1E
$GPRMC,145547.095,V,,,,,0.00,0.00,060180,,,N*48
$GPVTG,0.00,T,,M,0.00,N,0.00,K,N*32

$PMTKLOG,0,1,a,31,15,0,0,1,0,0*11
$P
MTK001,183,3*3A
$PMTK869,2,1*36

$GPGGA,145548.089,,,,,0,05,,,M,,M,,*75
$GPGSA,A,1,,,,,,,,,,,,,,,*1E
$GPGSV,2,1,07,06,,,28,09,,,4
0,05,,,39,07,,,44*74
$GPGSV,2,2,07,02,,,31,30,,,38,23,,,27*72
$GPRMC,145548.089,V,,,,,0.21,213.87,111118,,,N
*40
$GPVTG,213.87,T,,M,0.21,N,0.40,K,N*3A
$PMTKLOG,0,1,a,31,15,0,0,1,0,0*11
$PMTK001,183,3*3A
$PMTK869,2,1*36

$GPGGA,145549.089,5212.0941,N,00005.9572,E,1,05,1.34,25.6,M,47.0,M,,*50

$GPGSA,A,3,06,09,05,07,02,,,,,,,,1.65,1.34,0.96*06
$GPRMC,145549.089,A,5212.0941,N,00005.9572,E,0.14,
15.65,111118,,,A*58
$GPVTG,15.65,T,,M,0.14,N,0.25,K,A*08

$PMTKLOG,0,1,a,31,15,0,0,1,0,0*11
$PMTK001,183,3*3A
$PMTK869,2,1*36

$PMTKLOG,0,1,a,31,15,0,0,1,0,0*11
$PMTK001,183,3*3A
$PMTK869,2,1*36

$GPGGA,145551.000
,5212.0942,N,00005.9571,E,1,05,1.34,25.6,M,47.0,M,,*58
$GPGSA,A,3,06,09,05,07,02,,,,,,,,1.65,1.34,0.9
6*06
$GPRMC,145551.000,A,5212.0942,N,00005.9571,E,0.19,1.86,111118,,,A*65
$GPVTG,1.86,T,,M,0.19,N,0.35,K,A*3C

$PMTKLOG,0,1,a,31,15,0,0,1,0,0*11
$PMTK001,183,3*3A
$PMTK869,2,1*36

$GPGGA,145552.000,5212.0943,N,00005.9568,E,1,05,1.51,26.6,M,47
.0,M,,*52
$GPGSA,A,3,06,09,05,07,02,,,,,,,,3.73,1.51,3.41*09
$GPRMC,145552.000,A,5212.0943,N,00005.9
568,E,0.26,326.89,111118,,,A*6A
$GPVTG,326.89,T,,M,0.26,N,0.47,K,A*3C

$PMTKLOG,0,1,a,31,15,0,0,1,0,0*11
$PMTK001,183,3*3A
$PMTK869,2,1*36

$GPGGA,145553.000,5212.0944,N,00005.9568,E,1,05,1.34,26.6,M,47.0,M,,*5
7
$GPGSA,A,3,06,09,05,07,02,,,,,,,,1.65,1.34,0.96*06
$GPRMC,145553.000,A,5212.0944,N,00005.9568,E,0.26,8.57,1111
18,,,A*60
$GPVTG,8.57,T,,M,0.26,N,0.49,K,A*3E

$PMTKLOG,0,1,a,31,15,0,0,1,0,0*11
$PMTK001,183,3*3A
$PMTK869,2,1*36

$GPGGA,145554.000,5212.0946,N,00005.9567,E,1,05,1.51,26.5,M,47.0,M,,*
5D
$GPGSA,A,3,06,09,05,07,02,,,,,,,,3.73,1.51,3.41*09
$GPGSV,2,1,08,07,64,117,44,05,42,298,39,02,41,247,31,09,41,07
6,40*77
$GPGSV,2,2,08,33,28,199,,06,22,197,28,30,,,38,23,,,26*74
$GPRMC,145554.000,A,5212.0946,N,00005.9567,E,0.22,3
3.30,111118,,,A*57
$GPVTG,33.30,T,,M,0.22,N,0.40,K,A*0A
$PMTKLOG,0,1,a,31,15,0,0,1,0,0*11
$PMTK001,183,3*3A

$PMTK869,2,1*36

$GPGGA,145555.000,5212.0946,N,00005.9567,E,1,05,1.34,26.
5,M,47.0,M,,*5F
$GPGSA,A,3,06,09,05,07,02,,,,,,,,1.65,1.34,0.96*06
$GPRMC,145555.000,A,5212.0946,N,00005.9567,E,0.07
,229.81,111118,,,A*62
$GPVTG,229.81,T,,M,0.07,N,0.14,K,A*3F

$PMTKLOG,0,1,a,31,15,0,0,1,0,0*11
$PMTK001,183,3*3A
$PMTK869,2,1*36

$
GPGGA,145556.000,5212.0946,N,00005.9569,E,1,05,1.34,26.1,M,47.0,M,,*56
$GPGSA,A,3,06,09,05,07,02,,,,,
,,,1.65,1.34,0.96*06
$GPRMC,145556.000,A,5212.0946,N,00005.9569,E,0.15,142.91,111118,,,A*63
$GPVTG,142.91,T,,M,0
.15,N,0.28,K,A*3C

$PMTKLOG,0,1,a,31,15,0,
0,1,0,0*11
$PMTK001,183,3*3A
$PMTK869,2,1*36

$GPGGA,145557.000,5212.0948,N,0000
5.9569,E,1,05,1.34,25.6,M,47.0,M,,*5D
$GPGSA,A,3,06,09,05,07,02,,,,,,,,1.65,1.34,0.96*06
$GPRMC,1455
57.000,A,5212.0948,N,00005.9569,E,0.12,203.24,111118,,,A*63
$GPVTG,203.24,T,,M,0.12,N,0.22,K,A
*39
$PMTKLOG,0,1,a,31,15,0,0,1,0,0*11
$PMTK001,183,3*3A
$PMTK869,2,1*
36

$GPGGA,145558.000,5212.0948,N,00005.9570,E,1,05,1.34,25
.4,M,47.0,M,,*58
$GPGSA,A,3,06,09,05,07,02,,,,,,,,1.65,1.34,0.96*06
$GPRMC,145558.000,A,5212.0948,N,
00005.9570,E,0.19,175.35,111118,,,A*6D
$GPVTG,175.35,T,,M,0.19,N,0.34,K,A*37

$PMTKLOG,0,1,a,31,15,0,0,1,0,0*11
$PMTK001,183,3*3A
$PMTK869,2,1*36

$GPGGA,145559.000,5212.0948,N,00005.9572,E,1,0
5,1.34,25.3,M,47.0,M,,*5C
$GPGSA,A,3,06,09,05,07,02,,,,,,,,1.65,1.34,0.96*06
$GPGSV,2,1,08,07,64,117
,44,05,42,297,38,02,41,247,30,09,41,076,40*78
$GPGSV,2,2,08,37,27,153,,06,22,197,28,30,,,38,23,,,27*78
$
GPRMC,145559.000,A,5212.0948,N,00005.9572,E,0.24,149.78,111118,,,A*66
$GPVTG,149.78,T,,M,0.24,N,0.44,K,A*38
$PMTKLOG,0,1,a,31,15,0,0,1,0,0*11
$PMTK001,183,3*3
A
$PMTK869,2,1*36

$GPGGA,145600.000,5212.0948,N,00005.9574,E,1,05,1.34,25.1,M,4
7.0,M,,*57
$GPGSA,A,3,06,09,05,07,02,,,,,,,,1.65,1.34,0.96*06
$GPRMC,145600.000,A,5212.0948,N,00005.9
574,E,0.15,137.25,111118,,,A*6C
$GPVTG,137.25,T,,M,0.15,N,0.27,K,A*3E

$PMTKLOG,0,1,a,31,15,0,0,1,0,0*11
$PMTK001,183,3*3A
$PMTK869,2,1*36

$GPGGA,14
5601.000,5212.0948,N,00005.9574,E,1,06,1.24,24.6,M,47.0,M,,*52
$GPGSA,A,3,06,09,05,07,02,30,,,,,,,1.56,1.24,0.95*07
$GPR
MC,145601.000,A,5212.0948,N,00005.9574,E,0.09,149.87,111118,,,A*61
$GPVTG,149.87,T,,M,0.09,N,0.16,K,A*30

$PMTKLOG,0,1,a,31,15,0,0,1,0,0*11
$PMTK001,183,3*3A
$PMTK869,2,1*36

$GPGGA,145602.000,5212.0949,N,00005.9575,E,1,06,1.24,24.3,M,47.0,M,,*54
$GPGSA,A,
3,06,09,05,07,02,30,,,,,,,1.56,1.24,0.95*07
$GPRMC,145602.000,A,5212.0949,N,00005.9575,E,0.09,43.37,111118,,,A*52

$GPVTG,43.37,T,,M,0.09,N,0.17,K,A*01

$PMTKLOG,0,1,a,31,15,0,0,1,0,0*11
$PMTK001,1
83,3*3A
$PMTK869,2,1*36

$GPGGA,145603.000,5212.0950,N,00005.9574,E,1,06,1.24,24.4,M,47.
0,M,,*5B
$GPGSA,A,3,06,09,05,07,02,30,,,,,,,1.56,1.24,0.95*07
$GPRMC,145603.000,A,5212.0950,N,00005.
9574,E,0.09,329.93,111118,,,A*6B
$GPVTG,329.93,T,,M,0.09,N,0.16,K,A*31

$PMTKLOG,0,1,a,31,15,0,0,1,0,0*11
$PMTK001,183,3*3A
$PMTK869,2,1*36

$GPGGA,145604.000,5212.0951,N,00005.9574,E,1,06,1.24,24.6,M,47.0,M
,,*5F
$GPGSA,A,3,06,09,05,07,02,30,,,,,,,1.56,1.24,0.95*07
$GPGSV,2,1,08,07,64,117,44,30,47,176,38,05,42
,297,38,02,41,247,29*72
$GPGSV,2,2,08,09,41,076,40,37,27,153,,06,22,197,28,23,,,26*48
$GPRMC,145604.000,A,52
12.0951,N,00005.9574,E,0.04,233.88,111118,,,A*60
$GPVTG,233.88,T,,M,0.04,N,0.08,K,A*33

$PMTKLOG,0,1,a,31,15,0,0,1,0,0*11
$PMTK001,183,
3*3A
$PMTK869,2,1*36

$GPGGA,145605.000,5212.0952,N,00005.9575,
E,1,06,1.24,24.6,M,47.0,M,,*5C
$GPGSA,A,3,06,09,05,07,02,30,,,,,,,1.56,1.24,0.95*07
$GPRMC,145605.000,A,5212
.0952,N,00005.9575,E,0.06,273.19,111118,,,A*6D
$GPVTG,273.19,T,,M,0.06,N,0.12,K,A*36

$PMTKLOG,0,1,a,31,15,0,0,1,0,0
*11
$PMTK001,183,3*3A
$PMTK869,2,1*36

$GPGGA,145606.000,5212.0952,N,00005.9575,E,1,06,1.24,24.8,M,47.0,M,,*51
$GPGSA,A,3,06,09,05,07,02,
30,,,,,,,1.56,1.24,0.95*07
$GPRMC,145606.000,A,5212.0952,N,00005.9575,E,0.12,194.41,111118,,,A*6C
$GP
VTG,194.41,T,,M,0.12,N,0.23,K,A*36

$PMTKLOG,0,1,a,31,15,0,0,1,0,0*11
$PMTK001,183,3*3A
$PMTK869,2,1*
36

$GPGGA,145607.000,5212.0951,N,00005.9576,E,1,06,
1.24,24.3,M,47.0,M,,*5B
$GPGSA,A,3,06,09,05,07,02,30,,,,,,,1.56,1.24,0.95*07
$GPRMC,145607.000,A,521
2.0951,N,00005.9576,E,0.15,160.17,111118,,,A*62
$GPVTG,160.17,T,,M,0.15,N,0.27,K,A*3D

$PMTKLOG,0,1,a,31,15,0,0,1,0,0*11
$PMTK001,183,3*3A
$PMTK869,2,1*36

$GPGGA,145608.000,5212.0951,N,00005.9575,E,1,06,1.24,24.1,M,47.0,M,
,*55
$GPGSA,A,3,06,09,05,07,02,30,,,,,,,1.56,1.24,0.95*07
$GPRMC,145608.000,A,5212.0951,N,00005.9575
,E,0.23,191.02,111118,,,A*61
$GPVTG,191.02,T,,M,0.23,N,0.43,K,A*30

$PMTKLOG,0,1,a,31,15,0,0,1,0,0*11
$PMTK001,183,3*3A
$PMTK869,2,1*36

$GPGGA,145609.000,5212.0951,N,00005.9577,E,1,06,1.24,23.6,M,47.0,M,,*56

$GPGSA,A,3,06,09,05,07,02,30,,,,,,,1.56,1.24,0.95*07
$GPGSV,2,1,08,07,64,117,44,30,47,176,38,05,42,29
7,38,02,41,247,29*72
$GPGSV,2,2,08,09,41,076,41,39,25,149,,06,22,197,28,23,,,26*4E
$GPRMC,145609.000,A,5212.
0951,N,00005.9577,E,0.16,193.98,111118,,,A*65
$GPVTG,193.98,T,,M,0.16,N,0.29,K,A*3B
$PMTKLOG,0,1,a,31,15,0,0,1,0,0*11
$PMTK001,183,3*3A
$PMTK869,2,1*36

$GPGGA,145610.000,5212.0951,N,00005.9577,E,1,06,1.24,23.7,M,47.0,M,,*5F
$GPGSA,A,3,06,09,05,07,0
2,30,,,,,,,1.56,1.24,0.95*07
$GPRMC,145610.000,A,5212.0951,N,00005.9577,E,0.11,219.52,111118,,,A*6D
$GPVTG,219.52,T,
,M,0.11,N,0.21,K,A*33

$PMTKLOG,0,1,a,31,15,0,0,1,0,0*11
$PMTK001,183,3*3A
$PMTK869,2,1*36

$GPGGA,145611.000,5212.0950,N,00005.9577,E,1,06,1.24,23.8
,M,47.0,M,,*50
$GPGSA,A,3,06,09,05,07,02,30,,,,,,,1.56,1.24,0.95*07
$GPRMC,145611.000,A,5212.0950,N,00005.9577,E,0.2
0,166.93,111118,,,A*69
$GPVTG,166.93,T,,M,0.20,N,0.38,K,A*3F

$PMTKLOG,0,1,a,31,15,0,0,1,0,0*11
$PMTK001,183,3*3A
$PMTK869,2,1*36

$GPGGA,145612.000,5212.0949,N,00005.9576,E,1,06,1.24,23.9,M,47.0,M,,*5B
$GPGSA,A,
3,06,09,05,07,02,30,,,,,,,1.56,1.24,0.95*07
$GPRMC,145612.000,A,5212.0949,N,00005.9576,E,0.28,199.56,1
11118,,,A*62
$GPVTG,199.56,T,,M,0.28,N,0.51,K,A*31

$PMTKLOG,0,1,a,31,15,0,0,1,0,0*11

$PMTK001,183,3*3A
$PMTK869,2,1*36

$GPGGA,145613.000,5212.0948,N,00005.9574,E,1,06,1.24,23.8,M,47.0,M,,*58
$GPGS
A,A,3,06,09,05,07,02,30,,,,,,,1.56,1.24,0.95*07
$GPRMC,145613.000,A,5212.0948,N,00005.9574,E,0.16,231
.68,111118,,,A*61
$GPVTG,231.68,T,,M,0.16,N,0.30,K,A*37

$PMTKLOG,0,1,a,31,15,0,0,1,0,0*11
$PMTK001,183,3*3A
$PMTK869,2,1*36

$GPGGA,145614.000,5212.0948,N,00005.9573,E,1,06,1.24,23.8,M,47.0,M,,*58
$GPGSA,A,3,06,09,05,07,02,30,,,,,
,,1.56,1.24,0.95*07
$GPGSV,2,1,08,07,64,117,44,30,47,176,38,05,42,297,38,02,41,247,29*72
$GPGSV,2,2,08,09,41,076,41,
39,25,149,,06,22,197,28,23,,,26*4E
$GPRMC,145614.000,A,5212.0948,N,00005.9573,E,0.03,229.20,11111
8,,,A*60
$GPVTG,229.20,T,,M,0.03,N,0.05,K,A*30
$PMTKLOG,0,1,a,31,15,0,0,1,0,0
*11
$PMTK001,183,3*3A
$PMTK869,2,1*36

$GPGGA,145615.000,5212.0948,N,00005.9574,E,1,06,1.24,23.8,M,47.0,M,,*5E
$GPGSA,A,3,06,09,05,07,02
,30,,,,,,,1.56,1.24,0.95*07
$GPRMC,145615.000,A,5212.0948,N,00005.9574,E,0.10,154.27,111118,,,A*6A
$
GPVTG,154.27,T,,M,0.10,N,0.18,K,A*30

$PMTKLOG,0,1,a,31,15,0,0,1,0,0*11
$PMTK001,183,3*3A
$PMTK869,2,1*36

$GPGGA,145616.000,5212.0947,N,00005.9574,E,1,06,1.24,23.8,
M,47.0,M,,*52
$GPGSA,A,3,06,09,05,07,02,30,,,,,,,1.56,1.24,0.95*07
$GPRMC,145616.000,A,5212.0947,N,00005.9574,E,0.12
,159.78,111118,,,A*63
$GPVTG,159.78,T,,M,0.12,N,0.22,K,A*3C

$PMTKLOG,0,1,a,31,15,0,0,1,0,0*11
$PMTK001,183,3*3A
$PMTK869,2,1*36

$GPGGA,145617.000,5212.0947,N,00005.9574,E,1,06,1.24,23.7,M,47.0,M,,*5C
$GPGSA,A,3,06,09,05,07
,02,30,,,,,,,1.56,1.24,0.95*07
$GPRMC,145617.000,A,5212.0947,N,00005.9574,E,0.10,168.83,111118,,,A*66
$GPVTG,168.83,
T,,M,0.10,N,0.19,K,A*30

$PMTKLOG,0,1
,a,31,15,0,0,1,0,0*11
$PMTK001,183,3*3A
$PMTK869,2,1*36

$GPGGA,145618.000,5212.094
7,N,00005.9575,E,1,06,1.24,23.6,M,47.0,M,,*53
$GPGSA,A,3,06,09,05,07,02,30,,,,,,,1.56,1.24,0.95*07
$
GPRMC,145618.000,A,5212.0947,N,00005.9575,E,0.09,141.21,111118,,,A*63
$GPVTG,141.21,T,,M,0.09,N,0.16,K,A*34

$PMTKLOG,0,1,a,31,15,0,0,1,0,0*11
$PMTK001,183,3*3A
$PMTK869,2,1*36

$GPGGA,145619.000,5212.0946,N,00005.9575,E,1,06,1.24,23.4,M,47.0,M,,*51
$GPGSA,A,3,06,09,05,07,
02,30,,,,,,,1.56,1.24,0.95*07
$GPGSV,2,1,08,07,64,117,44,30,47,176,38,05,42,297,38,02,41,247,29*72
$G
PGSV,2,2,08,09,41,076,41,06,22,197,27,40,07,111,,23,,,25*41
$GPRMC,145619.000,A,5212.0946,N,00005.9575,E,0.17,177.87,111118,,
,A*65
$GPVTG,177.87,T,,M,0.17,N,0.32,K,A*34
$PMTKLOG,0,1,a,31,15,0,0,1,0,0*11
$PMTK001,183,3*3A
$PMTK869,2,1*36


$GPGGA,14562
0.000,5212.0946,N,00005.9576,E,1,06,1.24,23.2,M,47.0,M,,*5E
$GPGSA,A,3,06,09,05,07,02,30,,,,,,,1.56,1.
24,0.95*07
$GPRMC,145620.000,A,5212.0946,N,00005.9576,E,0.15,132.19,111118,,,A*68
$GPVTG,132.19,T,,M,0.15,N,0.27,K,A*34

$PMTKLOG,0,1,a,31,15,0,0,1,0,0*11
$PMTK001,183,3*3A
$PMTK869,2,1*36

$GPGGA,145621.000,5212.0946,N,00005.9576,E,1,06,1.24,23.1,M,47.0,M,,*5C
$GPGSA,A,3,06,09,05
,07,02,30,,,,,,,1.56,1.24,0.95*07
$GPRMC,145621.000,A,5212.0946,N,00005.9576,E,0.03,107.50,111118,,,A
*65
$GPVTG,107.50,T,,M,0.03,N,0.06,K,A*3B

$PMTKLOG,0,1,
a,31,15,0,0,1,0,0*11
$PMTK001,183,3*3A
$PMTK869,2,1*36

$G
PGGA,145622.000,5212.0947,N,00005.9575,E,1,06,1.24,23.0,M,47.0,M,,*5C
$GPGSA,A,3,06,09,05,07,02,30,,,
,,,,1.56,1.24,0.95*07
$GPRMC,145622.000,A,5212.0947,N,00005.9575,E,0.12,296.31,111118,,,A*68
$GPVTG,296.31,T,,M,
0.12,N,0.23,K,A*30

$PMTKLOG,0,1,a,31,15,0,0,1,0,0*11
$PMTK001
,183,3*3A
$PMTK869,2,1*36

$GPGGA,145623.000,5212.0947,N,00005.9575,E,1,06,1.24,2
3.0,M,47.0,M,,*5D
$GPGSA,A,3,06,09,05,07,02,30,,,,,,,1.56,1.24,0.95*07
$GPRMC,145623.000,A,5212.0947
,N,00005.9575,E,0.11,267.21,111118,,,A*65
$GPVTG,267.21,T,,M,0.11,N,0.20,K,A*3F

$PMTKLOG,0,1
,a,31,15,0,0,1,0,0*11
$PMTK001,183,3*3A
$PMTK869,2,1*36

$GPGGA,145624.000,5212
.0947,N,00005.9574,E,1,06,1.24,23.0,M,47.0,M,,*5B
$GPGSA,A,3,06,09,05,07,02,30,,,,,,,1.56,1.24,0.95*0
7
$GPGSV,2,1,08,07,64,117,44,30,47,176,38,05,42,297,38,02,41,247,30*7A
$GPGSV,2,2,08,09,41,076,41,06,22,197,27,4
0,07,111,,23,,,25*41
$GPRMC,145624.000,A,5212.0947,N,00005.9574,E,0.08,345.16,111118,,,A*6E
$GPVTG,345.16,T,,M,0.08,
N,0.14,K,A*35
$PMTKLOG,0,1,a,31,15,0,0,1,0,0*11
$PMTK001,183,3*3A
$PMTK869,2,1*36

$GPGGA,145625.000,5212.
0947,N,00005.9574,E,1,06,1.33,23.0,M,47.0,M,,*5C
$GPGSA,A,3,06,09,05,07,02,30,,,,,,,3.32,1.33,3.04*0A

$GPRMC,145625.000,A,5212.0947,N,00005.9574,E,0.10,148.90,111118,,,A*67
$GPVTG,148.90,T,,M,0
.10,N,0.18,K,A*31

$PMTKLOG,0,1,a,31,15,0,0,1,0,0*11
$PMTK001,183,3*3A
$PMTK869,2,1*36

$GPGGA,145626.000,5212.0947,N,00005.9575,E,1,06,1.24,23.0,M,47.0,M,,*58
$GPGS
A,A,3,06,09,05,07,02,30,,,,,,,1.56,1.24,0.95*07
$GPRMC,145626.000,A,5212.0947,N,00005.9575,E,0.03,316.40,111118,,,A*6
3
$GPVTG,316.40,T,,M,0.03,N,0.05,K,A*3B

$PMTKLOG,0,1,a,31,15,0,0,1,0,0*11
$PMTK001,183,3*3A
$
PMTK869,2,1*36

$GPGGA,145627.000,5212.
0947,N,00005.9574,E,1,06,1.24,23.0,M,47.0,M,,*58
$GPGSA,A,3,06,09,05,07,02,30,,,,,,,1.56,1.24,0.95*07
$GPRMC,145627.000,A,5212.0
947,N,00005.9574,E,0.07,340.33,111118,,,A*60
$GPVTG,340.33,T,,M,0.07,N,0.13,K,A*3F

$PMTKLOG,0,1,a,31,15,0,0,1,0,0*11
$PMTK0
01,183,3*3A
$PMTK869,2,1*36

$GPGGA,145628.000,5212.0947,N,00005.9574,
E,1,06,1.24,23.0,M,47.0,M,,*57
$GPGSA,A,3,06,09,05,07,02,30,,,,,,,1.56,1.24,0.95*07
$GPRMC,145628.00
0,A,5212.0947,N,00005.9574,E,0.03,182.91,111118,,,A*6F
$GPVTG,182.91,T,,M,0.03,N,0.05,K,A*38

$PMTKLOG,0,1,a,31,15,0,0,1,0,0*11
$PMTK001,183,3*3A
$PMTK869,2,1*36

$GPGGA,145629.000,5212.0947,N,00005.9574,E,1,06,1.24,23
.0,M,47.0,M,,*56
$GPGSA,A,3,06,09,05,07,02,30,,,,,,,1.56,1.24,0.95*07
$GPGSV,2,1,08,07,64,117,44,30,
47,176,38,05,42,297,38,02,41,247,31*7B
$GPGSV,2,2,08,09,41,076,41,06,22,197,28,44,06,109,,23,,,25*42
$GPRMC,1456
29.000,A,5212.0947,N,00005.9574,E,0.10,62.32,111118,,,A*5A
$GPVTG,62.32,T,,M,0.10,N,0.18,K,A*0
0

$PMTKLOG,0,1,a,31,15,0,0,1,0,0*11
$PMTK001,183,3*3
A
$PMTK869,2,1*36

$GPGGA,145630.000,5212.0947,N,00005.9575,E,1,06,1.24,23.0,M,4
7.0,M,,*5F
$GPGSA,A,3,06,09,05,07,02,30,,,,,,,1.56,1.24,0.95*07
$GPRMC,145630.000,A,5212.0947,N,0000
5.9575,E,0.24,33.36,111118,,,A*54
$GPVTG,33.36,T,,M,0.24,N,0.44,K,A*0E

$PMTKLOG,0,1,a,31,15,0,0,1,0,0*11
$PMTK001,183,3*3A
$PMTK869,2,1*36

$GPGGA,145631.000,5212.0948,N,00005.9575,E,1,06,1.24,23.0,M,47.0,M,,*51
$GPGSA,A,3,06,09,05,07,02,30,
,,,,,,1.56,1.24,0.95*07
$GPRMC,145631.000,A,5212.0948,N,00005.9575,E,0.02,267.16,111118,,,A*6F
$GPVTG
,267.16,T,,M,0.02,N,0.03,K,A*38

$PMTKLOG,0,1,a,31,15,0,0,1,0,0*11
$PMTK001,183,3*3A

$PMTK869,2,1*36


$GPGGA,145632.000,5212.0948,N,00005.9575,E,1,06,1.24,23.0,M,
47.0,M,,*52
$GPGSA,A,3,06,09,05,07,02,30,,,,,,,1.56,1.24,0.95*07
$GPRMC,145632.000,A,5212.0948,N,000
05.9575,E,0.16,64.86,111118,,,A*51
$GPVTG,64.86,T,,M,0.16,N,0.30,K,A*05

$PMTKLOG,0,1,a,31,15,0,0,1,0,0*11
$PMTK001,183,3*3A

$PMTK869,2,1*36

$GPGGA,145633.000,5212.0948,N,00005.9576,E,1,06,1.24,2
3.0,M,47.0,M,,*50
$GPGSA,A,3,06,09,05,07,02,30,,,,,,,1.56,1.24,0.95*07
$GPRMC,145633.000,A,5212.0948,N,00005.9576,E,
0.17,4.59,111118,,,A*66
$GPVTG,4.59,T,,M,0.17,N,0.31,K,A*31

$PMTKLOG,0,1,a,31,15,0,0,1,0,0*11
$PMTK001,183,3*3A
$PMTK869,2,1*36

$GPGGA,145634.000,5212.0948,N,00005.9576,E,1,06,1.33,23.0,M,4
7.0,M,,*51
$GPGSA,A,3,06,09,05,07,02,30,,,,,,,3.31,1.33,3.04*09
$GPGSV,2,1,08,07,65,116,44,30,47,176,38,05,42,297,38,02,41,2
47,30*7A
$GPGSV,2,2,08,09,41,076,41,06,22,197,28,44,06,109,,23,,,25*42
$GPRMC,145634.000,A,5212.0948,N,00005
.9576,E,0.12,246.91,111118,,,A*64
$GPVTG,246.91,T,,M,0.12,N,0.23,K,A*37

$PMTKLOG,0,1,a,31,15,0,0,1,0,0*11
$PMTK001,183,3*3A
$PMTK869,2,1*36

$GPGGA,145635.000,5212.0948,N,00005.9576,E,1,06,1.24,23.0,M,47.0,M,,*56
$GPGSA,A,3,0
6,09,05,07,02,30,,,,,,,1.56,1.24,0.95*07
$GPRMC,145635.000,A,5212.0948,N,00005.9576,E,0.09,264.03,111118,
,,A*64
$GPVTG,264.03,T,,M,0.09,N,0.16,K,A*30

$PMTKLOG,0,1,a,31,15,0,0,1,0,0*11
$PMTK001,183,3*3A
$PMTK869,2,1*36

$GPGGA,145636.
000,5212.0948,N,00005.9575,E,1,06,1.24,23.0,M,47.0,M,,*56
$GPGSA,A,3,06,09,05,07,02,30,,,,,,,1.56,1.24,0.
95*07
$GPRMC,145636.000,A,5212.0948,N,00005.9575,E,0.13,165.96,111118,,,A*61
$GPVTG,165.96,T,,M,0.13
,N,0.24,K,A*34

$PMTKLOG,0,1,a,31,15,0,0,1,0,0*11
$PMTK001,183
,3*3A
$PMTK869,2,1*36

$GPGGA,145637.000,5212.0948,N,0
0005.9575,E,1,06,1.24,23.0,M,47.0,M,,*57
$GPGSA,A,3,06,09,05,07,02,30,,,,,,,1.56,1.24,0.95*07
$GPRMC
,145637.000,A,5212.0948,N,00005.9575,E,0.27,185.25,111118,,,A*61
$GPVTG,185.25,T,,M,0.27,N,0.50,K,A*36

$PMTKLOG,0,1,a,31,15,0,0,1,0,0*
11
$PMTK001,183,3*3A
$PMTK869,2,1*36

$GPGGA,145638.000,5212.0947,N,00005.9575,E,1,06,1.24,23.0,M,47.0,M,,*57
$GPGSA
,A,3,06,09,05,07,02,30,,,,,,,1.56,1.24,0.95*07
$GPRMC,145638.000,A,5212.0947,N,00005.9575,E,0.19,196.3
7,111118,,,A*6D
$GPVTG,196.37,T,,M,0.19,N,0.36,K,A*3A

$PMTKLOG,0,1,a,31,15,0,0,1,0,0*11
$PMTK001,183,3*3A
$PMTK
869,2,1*36

$GPGGA,145639.000,5212.0946,N,00005.9575,E,1,06,1.24,23.0,M
,47.0,M,,*57
$GPGSA,A,3,06,09,05,07,02,30,,,,,,,1.56,1.24,0.95*07
$GPGSV,2,1,08,07,65,116,44,30,47,17
6,38,05,42,297,38,02,41,247,30*7A
$GPGSV,2,2,08,09,41,076,41,33,28,199,,06,22,197,28,23,,,25*47
$GPRMC,145639.00
0,A,5212.0946,N,00005.9575,E,0.18,128.22,111118,,,A*6D
$GPVTG,128.22,T,,M,0.18,N,0.34,K,A*38

$PMTKLOG,0,1,a,31,15,0,0,1,0,0*11
$PMTK001,183,3*3A
$PMTK869,2,1*36

$GPGGA,145640.000,5212.0946,N,00005.9576,E,1,06,1.24,23.0,M,47.0,M,,*5
A
$GPGSA,A,3,06,09,05,07,02,30,,,,,,,1.56,1.24,0.95*07
$GPRMC,145640.000,A,5212.0946,N,00005.9576,E,0
.05,128.60,111118,,,A*6A
$GPVTG,128.60,T,,M,0.05,N,0.10,K,A*34

$PMTKLOG,0,1,a,31,15,0,0,1,0,0*11
$PMTK001,183,3*3A
$PMTK869,2,1*36

$GPGGA,145641.000,5212.0946,N,00005.9576,E
,1,06,1.24,23.0,M,47.0,M,,*5B
$GPGSA,A,3,06,09,05,07,02,30,,,,,,,1.56,1.24,0.95*07
$GPRMC,145641.000
,A,5212.0946,N,00005.9576,E,0.13,37.18,111118,,,A*5C
$GPVTG,37.18,T,,M,0.13,N,0.25,K,A*05

$PMTKLOG,0,1,a,31,15,0,0,1,0,0*11
$PMTK001,183,3*3A
$PMTK869,2,1*36

$GPGGA,145642.000,5212.0946,N,00005.9576,E,1,06,1.24,23.0,M,47.0,M,,*58
$GPGSA,A,3,06,09
,05,07,02,30,,,,,,,1.56,1.24,0.95*07
$GPRMC,145642.000,A,5212.0946,N,00005.9576,E,0.01,177.84,111118,
,,A*6C
$GPVTG,177.84,T,,M,0.01,N,0.02,K,A*33

$PMTKLOG,0,1,a,31,15,0,0,1,0,0*11
$PMTK001,183,3*3A
$PMTK869,2,1*36

$GPGGA,145643.000,5212.0946,N,00005.9576,E,1,06,1.24,23.0,M,47.0,M,,*59
$GPGS
A,A,3,06,09,05,07,02,30,,,,,,,1.56,1.24,0.95*07
$GPRMC,145643.000,A,5212.0946,N,00005.9576,E,0.15,51.
60,111118,,,A*57
$GPVTG,51.60,T,,M,0.15,N,0.28,K,A*01

$PMTKLOG,0,1,a,31,15,0,0,1,0,0*11
$PMTK001,183,3*3A
$PMTK869,2,1*36

$GPGGA,145644.000,5212.0947,N,00005.9577,E,1,06,1.24,23.0,M,47.0,M,,*5E
$GPGSA,A,3
,06,09,05,07,02,30,,,,,,,1.56,1.24,0.95*07
$GPGSV,2,1,08,07,65,116,44,30,47,176,38,05,42,297,38,02,41,247,30*7A
$GPG
SV,2,2,08,09,41,076,41,33,28,199,,06,22,197,28,23,,,25*47
$GPRMC,145644.000,A,5212.0947,N,0000
5.9577,E,0.09,28.75,111118,,,A*57
$GPVTG,28.75,T,,M,0.09,N,0.16,K,A*0B

$PMTKLOG,0,1,a,31,15,0,0,1,0,0*11
$PMTK001,183,3*3A
$
PMTK869,2,1*36

$GPGGA,145645.000,5212.0947,N,00005.9577,E,1,06,1.24,23.0,M,47.0,M,,*5F
$GPGSA,A,3,06,09,05,07
,02,30,,,,,,,1.56,1.24,0.95*07
$GPRMC,145645.000,A,5212.0947,N,00005.9577,E,0.02,259.74,111118,,,A*68

$GPVTG,259.74,T,,M,0.02,N,0.04,K,A*36

$PMTKLOG,0,1,a,31,15,0,0,1,0,0*11
$PMTK001,183,3*3A
$PMTK869,2,1*36

$GPGGA,145646.000,5212.0947,N
,00005.9577,E,1,06,1.24,23.0,M,47.0,M,,*5C
$GPGSA,A,3,06,09,05,07,02,30,,,,,,,1.56,1.24,0.95*07
$GPRMC,145646.000,A,
5212.0947,N,00005.9577,E,0.09,148.65,111118,,,A*63
$GPVTG,148.65,T,,M,0.09,N,0.17,K,A*3C

$PMTKLOG,0,1,a,31,15,0,0,1,0,0*11
$PMTK001,183,3*3A
$PMTK869,2,1*36

$GPGGA,145647.000,5212.0947,N,00005.9577,E,1,06,1.24,23.0,M,47.0,M,,*5D

$GPGSA,A,3,06,09,05,07,02,30,,,,,,,1.56,1.24,0.95*07
$GPRMC,145647.000,A,5212.0947,N,00005.9577,E,0.06
,130.04,111118,,,A*65
$GPVTG,130.04,T,,M,0.06,N,0.11,K,A*3D

$PMTKLOG,0,1,a,31,15,0,0,1,0,0*11
$PMTK001,183,3*3A
$PMTK869,2,1*36

$GPGGA,145648.000,5212.0947,N,00005.9577,E,1,06,1.24,23.0,M,47.0,M,,*
52
$GPGSA,A,3,06,09,05,07,02,30,,,,,,,1.56,1.24,0.95*07
$GPRMC,145648.000,A,5212.0947,N,00005.9577,E,0.04,286.49,111118,
,,A*6F
$GPVTG,286.49,T,,M,0.04,N,0.08,K,A*30

$PMTKLOG,0,1,a,31,15,0,0,1,0,0*11
$PMTK001,183,3*3A
$PMTK869,2,1*36

$GPGGA,145649.000,5212.0947,N,00005.9577,E,1,06,1.24,23.0,M,47.0,M,,*53
$GP
GSA,A,3,06,09,05,07,02,30,,,,,,,1.56,1.24,0.95*07
$GPGSV,2,1,08,07,65,116,44,30,47,176,38,05,42,2
97,38,02,41,247,29*72
$GPGSV,2,2,08,09,41,076,41,37,27,153,,06,22,197,28,23,,,24*4B
$GPRMC,145649.000,A,5212.0947,N,
00005.9577,E,0.14,201.19,111118,,,A*65
$GPVTG,201.19,T,,M,0.14,N,0.25,K,A*34

$PMTKLOG,0,1,a,31,15,0,0,1,0,0*11
$PMTK001,183,3*3A
$PMTK869,2,1*36

$GPGGA,145650.000,5212.0946,N,00005.
9577,E,1,06,1.24,23.0,M,47.0,M,,*5A
$GPGSA,A,3,06,09,05,07,02,30,,,,,,,1.56,1.24,0.95*07
$GPRMC,145650.000,A,5212.09
46,N,00005.9577,E,0.30,172.91,111118,,,A*6D
$GPVTG,172.91,T,,M,0.30,N,0.56,K,A*31

$PMTKLOG,0,1,a,3
1,15,0,0,1,0,0*11
$PMTK001,183,3*3A
$PMTK869,2,1*36

$GPGGA,145651.000,5212.0945,N,00005.9577
,E,1,06,1.24,23.0,M,47.0,M,,*58
$GPGSA,A,3,06,09,05,07,02,30,,,,,,,1.56,1.24,0.95*07
$GPRMC,145651.00
0,A,5212.0945,N,00005.9577,E,0.18,184.42,111118,,,A*62
$GPVTG,184.42,T,,M,0.18,N,0.33,K,A*3F

$PMTKLOG,0,1,a,31,15,0,0,1,0,0*11
$PMTK001,183,3*3A
$PMTK869,2,1*36


$GPGGA,145652.000,5212.0945,N,00005.9577,E,1,06,1.24,23.0,M,47.0,M,,*5B
$GPGSA,A,3,06,09,0
5,07,02,30,,,,,,,1.56,1.24,0.95*07
$GPRMC,145652.000,A,5212.0945,N,00005.9577,E,0.24,136.62,111118,,,A*65
$GPVTG,136
.62,T,,M,0.24,N,0.45,K,A*3A

$PMTKLOG,0,1,a,31,15,0,0,1,0,0*11
$PMTK001,183,3*3A

$PMTK86
9,2,1*36

$GPGGA,145653.000,5212.0944,N,00005.9578,E,1,06,1.24,23.0,M,47.0,M,,*54
$GPGSA,A,3,06,09,05,07,02,30,,,,,
,,1.56,1.24,0.95*07
$GPRMC,145653.000,A,5212.0944,N,00005.9578,E,0.09,109.37,111118,,,A*69
$GPVTG,109.37,T,,M,0.09,N
,0.16,K,A*3F

$PMTKLOG,0,1,a,31,15,
0,0,1,0,0*11
$PMTK001,183,3*3A
$PMTK869,2,1*36

$GP
GGA,145654.000,5212.0944,N,00005.9578,E,1,06,1.24,23.0,M,47.0,M,,*53
$GPGSA,A,3,06,09,05,07,02,30,,,,
,,,1.56,1.24,0.95*07
$GPGSV,2,1,08,07,65,116,44,30,47,176,38,05,42,297,38,02,41,247,29*72
$GPGSV
,2,2,08,09,41,076,41,37,27,153,,06,22,197,28,23,,,23*4C
$GPRMC,145654.000,A,5212.0944,N,00005.9578,E,0.09,180.54,
111118,,,A*6A
$GPVTG,180.54,T,,M,0.09,N,0.18,K,A*35

$PMTKLOG,0,1,a,31,15,0,0,1,0,0*11
$PMTK001,183,3*3A

$PMTK869,2,1*36

$GPGGA,145655.000,5212.0944,N,00005.9578,E,1,06,1.24,23.0,M,47.0,M,,*52
$GPGSA,A,3,06,09,05,07,02,30,,,,,,,1.56
,1.24,0.95*07
$GPRMC,145655.000,A,5212.0944,N,00005.9578,E,0.02,321.99,111118,,,A*68
$GPVTG,321.99,T,,M,0.02,N,0.03,
K,A*3C

$PMTKLOG,0,1,a,31,15,0,0,1,0,0*11
$PMTK001,183,3*3A
$P
MTK869,2,1*36

$GPGGA,145656.000,5212.0944,N,00005.
9578,E,1,06,1.24,23.0,M,47.0,M,,*51
$GPGSA,A,3,06,09,05,07,02,30,,,,,,,1.56,1.24,0.95*07
$GPRMC,145656.000,A,5212.0944,N
,00005.9578,E,0.08,279.97,111118,,,A*63
$GPVTG,279.97,T,,M,0.08,N,0.15,K,A*33

$PMTKLOG,0,1,a,31,15,0,
0,1,0,0*11
$PMTK001,183,3*3A
$PMTK869,2,1*36

$GPGGA,145657.000,5212.0944,N,00005.9578,E,1,06,1.24,23.0,M,47.0,M,,*50
$GPGSA,A,3,06,09,05,07,02
,30,,,,,,,1.56,1.24,0.95*07
$GPRMC,145657.000,A,5212.0944,N,00005.9578,E,0.14,137.77,111118,,,A*68
$
GPVTG,137.77,T,,M,0.14,N,0.26,K,A*39

$PMTKLOG,0,1,a,31,15,0,0,1,0,0*11
$PMTK001,183,3*3A
$PMTK869,2,1*36


$GPG
GA,145658.000,5212.0944,N,00005.9578,E,1,06,1.24,23.0,M,47.0,M,,*5F
$GPGSA,A,3,06,09,05,07,02,30,,,,,,,1.5
6,1.24,0.95*07
$GPRMC,145658.000,A,5212.0944,N,00005.9578,E,0.18,182.51,111118,,,A*61
$GPVTG,182.51,T,,M,0.1
8,N,0.34,K,A*3C

$PMTKLOG,0,1,a,31,15,
0,0,1,0,0*11
$PMTK001,183,3*3A
$PMTK869,2,1*36

$GPG
GA,145659.000,5212.0943,N,00005.9578,E,1,06,1.24,23.0,M,47.0,M,,*59
$GPGSA,A,3,06,09,05,07,02,30,,,,,,,1.
56,1.24,0.95*07
$GPGSV,2,1,08,07,65,116,44,30,48,176,38,05,42,297,38,02,41,247,29*7D
$GPGSV,2,2,08,09,41,076,41,
39,25,149,,06,22,197,27,23,,,22*45
$GPRMC,145659.000,A,5212.0943,N,00005.9578,E,0.15,128.88,111118,,,A*6E
$G
PVTG,128.88,T,,M,0.15,N,0.27,K,A*37

$PMTKLOG,0,1,a,31,15,0,0,1,0,0
*11
$PMTK001,183,3*3A
$PMTK869,2,1*36

$GPGGA,145700.000,5212.0943,N,00005.9578,E,1,06,1.24,23.0,M,47.0,M,,*54
$GPGSA,A,3,06,09,05
,07,02,30,,,,,,,1.56,1.24,0.95*07
$GPRMC,145700.000,A,5212.0943,N,00005.9578,E,0.15,210.52,111118,,,A
*6C
$GPVTG,210.52,T,,M,0.15,N,0.27,K,A*38

$PMTKLOG,0,1,a,31,15,0,0,1,0,0*11

$PMTK001,183,3*3A
$PMTK869,2,1*36

$GPGGA,145701.000,5212.094
3,N,00005.9578,E,1,07,1.13,23.0,M,47.0,M,,*50
$GPGSA,A,3,06,09,05,07,02,30,23,,,,,,1.44,1.13,0.88*0D

$GPRMC,145701.000,A,5212.0943,N,00005.9578,E,0.09,193.49,111118,,,A*62
$GPVTG,193.49,T,,M,0.09,N
,0.17,K,A*34

$PMTKLOG,0,1,a,31,15,0,0,1,0,0*11
$PMTK001,183,3*3A
$PMTK869,2,1*36

$GPGGA,145702.000,5212.0943,N,00005.9578,E,1,07,1.13,23.0,M,47.0,M,,*
53
$GPGSA,A,3,06,09,05,07,02,30,23,,,,,,1.44,1.13,0.88*0D
$GPRMC,145702.000,A,5212.0943,N,00005.9578,E,0.07,135.20,1
11118,,,A*6C
$GPVTG,135.20,T,,M,0.07,N,0.13,K,A*3D

$PMTKL
OG,0,1,a,31,15,0,0,1,0,0*11
$PMTK001,183,3*3A
$PMTK869,2,1*36

$GPGGA,145703.000,5212.0942,N,00005.9578,E,1,07,1.13,23.0,M,47.0,M,,*53
$GPGSA,A,3,06,09,0
5,07,02,30,23,,,,,,1.44,1.13,0.88*0D
$GPRMC,145703.000,A,5212.0942,N,00005.9578,E,0.15,143.71,111118,,,A*6A
$GPV
TG,143.71,T,,M,0.15,N,0.29,K,A*32

$PMTKLOG,0,1,a,
31,15,0,0,1,0,0*11
$PMTK001,183,3*3A
$PMTK869,2,1*36

$GPGGA,145704.000,5212.0942,N,00005.9579,E,1,07,1.13,23.0,M,47.0,M,,*55
$GPGSA,A,3,06,09,05,07,02,30
,23,,,,,,1.44,1.13,0.88*0D
$GPGSV,2,1,08,07,65,116,44,30,48,176,38,05,42,297,38,02,41,247,29*7D
$GPG
SV,2,2,08,09,41,076,41,39,25,149,,06,22,197,28,23,15,078,22*71
$GPRMC,145704.000,A,5212.0942,N,00005.9579,E,0.14,
170.69,111118,,,A*64
$GPVTG,170.69,T,,M,0.14,N,0.26,K,A*35

$PMTKLOG,0,1,a,31,15,0,0,1,0,0*11
$PMTK001,183,3*3A
$PMTK869,2,1*36

$GPGGA,145705.000,5212.0942,N,00005.9579,E,1,07,1.13,23.0,M,47.0,M,,*54
$GPGSA,A,3,06,09,05,
07,02,30,23,,,,,,1.44,1.13,0.88*0D
$GPRMC,145705.000,A,5212.0942,N,00005.9579,E,0.07,291.38,111118,,,A*6F
$GPVTG,291
.38,T,,M,0.07,N,0.12,K,A*38

$PMTKLOG,0,1,a,31,15,0,0,1,0,0*11
$PMTK001,183,3*3A
$PMTK869,2,1*36

$GPGGA,145706.000,5212.0942,N,00005.9579,E,1,07,1.
13,23.0,M,47.0,M,,*57
$GPGSA,A,3,06,09,05,07,02,30,23,,,,,,1.44,1.13,0.88*0D
$GPRMC,145706.000,A,521
2.0942,N,00005.9579,E,0.09,212.99,111118,,,A*62
$GPVTG,212.99,T,,M,0.09,N,0.16,K,A*32

$PMTKLOG,0,1,a,31,15,0,0,1,0,0*11
$PMTK001,1
83,3*3A
$PMTK869,2,1*36

$
GPGGA,145707.000,5212.0942,N,00005.9578,E,1,07,1.13,23.0,M,47.0,M,,*57
$GPGSA,A,3,06,09,05,07,02,30,23
,,,,,,1.44,1.13,0.88*0D
$GPRMC,145707.000,A,5212.0942,N,00005.9578,E,0.12,130.94,111118,,,A*66
$GPVTG,130.94,T,,
M,0.12,N,0.22,K,A*31

$PMTKLOG,0,1,a,31,15,0,0,1,0,0*
11
$PMTK001,183,3*3A
$PMTK869,2,1*36

$GPG
GA,145708.000,5212.0941,N,00005.9579,E,1,07,1.13,23.0,M,47.0,M,,*5A
$GPGSA,A,3,06,09,05,07,02,30,23,,,,,,1.44,1.1
3,0.88*0D
$GPRMC,145708.000,A,5212.0941,N,00005.9579,E,0.11,206.90,111118,,,A*6A
$GPVTG,206.90,T
,,M,0.11,N,0.20,K,A*32

$PMTKLOG,0,1,a,31,15,
0,0,1,0,0*11
$PMTK001,183,3*3A
$PMTK869,2,1*36

$GPGGA,145709.000,5
212.0941,N,00005.9579,E,1,07,1.13,23.0,M,47.0,M,,*5B
$GPGSA,A,3,06,09,05,07,02,30,23,,,,,,1.44,1.13,0.88*0
D
$GPGSV,2,1,08,07,65,116,43,30,48,176,38,05,43,297,38,02,41,246,29*7A
$GPGSV,2,2,08,09,41,076,41,06,22,197,27,2
3,15,078,21,40,07,111,*7E
$GPRMC,145709.000,A,5212.0941,N,00005.9579,E,0.08,258.09,111118,,,A
*68
$GPVTG,258.09,T,,M,0.08,N,0.15,K,A*37

$PMTKLOG,0,1,a,31,15
,0,0,1,0,0*11
$PMTK001,183,3*3A
$PMTK869,2,1*36

$GPGGA,145710.0
00,5212.0941,N,00005.9578,E,1,07,1.13,23.0,M,47.0,M,,*52
$GPGSA,A,3,06,09,05,07,02,30,23,,,,,,
1.44,1.13,0.88*0D
$GPRMC,145710.000,A,5212.0941,N,00005.9578,E,0.09,198.55,111118,,,A*66
$GPVTG,198.55,T,,M,0.09,N,0
.17,K,A*32

$PMTKLOG,0,1,a,31,15,0,0,1,0,0*11
$PMTK001,183,3*3A
$PMTK869,2,1*36


$GPGGA,145711.000,5212.0941,N,00005.9578,E,1,07,1.13,23.0,M,47.0,M,,*5
3
$GPGSA,A,3,06,09,05,07,02,30,23,,,,,,1.44,1.13,0.88*0D
$GPRMC,145711.000,A,5212.0941,N,00005.9578,
E,0.09,101.49,111118,,,A*6A
$GPVTG,101.49,T,,M,0.09,N,0.17,K,A*3F

$PMTKLOG,0,1,a,31,15,0,0,1,0,0*11
$PMTK001,183,3*3A
$PMTK869,2,1*36

$G
PGGA,145712.000,5212.0941,N,00005.9578,E,1,07,1.13,23.0,M,47.0,M,,*50
$GPGSA,A,3,06,09,05,07,02,30,23,
,,,,,1.44,1.13,0.88*0D
$GPRMC,145712.000,A,5212.0941,N,00005.9578,E,0.10,127.14,111118,,,A*6D
$GPVTG,127.14,
T,,M,0.10,N,0.19,K,A*35

$PMTKLOG,0,1,a,31,15,0,0,1,0,0*11
$PMTK001,183,3*3A

$PMTK869
,2,1*36

$GPGG
A,145713.000,5212.0941,N,00005.9579,E,1,07,1.13,23.0,M,47.0,M,,*50
$GPGSA,A,3,06,09,05,07,02,30,23,,,,,,1.44,1.13,0.8
8*0D
$GPRMC,145713.000,A,5212.0941,N,00005.9579,E,0.06,205.21,111118,,,A*6F
$GPVTG,205.21,T,
,M,0.06,N,0.11,K,A*3F

$PMTKLOG,0,1
,a,31,15,0,0,1,0,0*11
$PMTK001,183,3*3A
$PMTK869,2,1*36

$GPGGA,145714.000,5212.0940,N,00005.9579,E,1,07,1.13,23.0,M,47.0,M,,*56
$GPGSA,A,3,06,09,05,07,02,30,23,,,,,,1.4
4,1.13,0.88*0D
$GPGSV,2,1,08,07,65,115,43,30,48,176,38,05,43,297,38,02,41,246,29*79
$GPGSV,2,2,08,09
,40,077,41,06,22,197,27,23,15,078,22,40,07,111,*7D
$GPRMC,145714.000,A,5212.0940,N,00005.9579
,E,0.11,161.07,111118,,,A*6A
$GPVTG,161.07,T,,M,0.11,N,0.21,K,A*3F

$PMTKLOG,0,1,a,31,15,0,0,1,0,0*11
$PMT
K001,183,3*3A
$PMTK869,2,1*36

$GPGGA,145715
.000,5212.0940,N,00005.9579,E,1,07,1.13,23.0,M,47.0,M,,*57
$GPGSA,A,3,06,09,05,07,02,30,23,,,,,,1.44,1.13,0.8
8*0D
$GPRMC,145715.000,A,5212.0940,N,00005.9579,E,0.06,358.94,111118,,,A*6F
$GPVTG,358.94,T,,M,0.06,N,0.11,K,
A*38

$PMTKLOG,0,1,a,31,15,0,0,
1,0,0*11
$PMTK001,183,3*3A
$PMTK869,2,1*36

$GPGGA,145716.000,5212.0940,N,00005.9579,E,1,07,1.15,23.0,M,47.0,M,,*52

$GPGSA,A,3,06,09,05,07,02,30,23,,,,,,2.21,1.15,1.89*0B
$GPRMC,145716.000,A,5212.0940,N,00005.9579,E,0.24
,345.60,111118,,,A*6B
$GPVTG,345.60,T,,M,0.24,N,0.45,K,A*3E

$PMTKLOG,0,1,a,31,15,0,0,1,0,0*11
$PMTK001,183,3*3A
$PMTK869,2,1*36

$GPGGA,
145717.000,5212.0941,N,00005.9579,E,1,07,1.15,23.0,M,47.0,M,,*52
$GPGSA,A,3,06,09,05,07,02,30,23,,,,,
,2.21,1.15,1.89*0B
$GPRMC,145717.000,A,5212.0941,N,00005.9579,E,0.16,349.06,111118,,,A*66
$GPVTG,
349.06,T,,M,0.16,N,0.30,K,A*31

$PMTKLOG,0,1,a,31,15,0,0,1,0,0*11
$PMTK001,183,3*3A
$PMTK869,2,1*36

$GPGGA,145718.000,5212.0941,N,00005.9578,E,1,07,1.15,23.0,M,47.0,M,,*5C
$GPGSA,A,3,06,09,05,07,0
2,30,23,,,,,,2.21,1.15,1.89*0B
$GPRMC,145718.000,A,5212.0941,N,00005.9578,E,0.07,282.24,111118,,,A*6E

$GPVTG,282.24,T,,M,0.07,N,0.13,K,A*36

$PMTKLOG,0,1,a
,31,15,0,0,1,0,0*11
$PMTK001,183,3*3A
$PMTK869,2,1*36

$GPG
GA,145719.000,5212.0942,N,00005.9578,E,1,07,1.13,23.0,M,47.0,M,,*58
$GPGSA,A,3,06,09,05,07,02,30,23,,,,,,
1.44,1.13,0.88*0D
$GPGSV,2,1,08,07,65,115,43,30,48,176,38,05,43,297,38,02,41,246,29*79
$GPGSV,2,2,08,09,40,077,41,06
,22,197,27,23,15,078,22,44,06,109,*71
$GPRMC,145719.000,A,5212.0942,N,00005.9578,E,0.07,279.62,11
1118,,,A*6A
$GPVTG,279.62,T,,M,0.07,N,0.14,K,A*37

$PMTKLOG,0,1,a,31,15,0,0,1,0,0*11
$PMTK001,183,3*
3A
$PMTK869,2,1*36

$GPGGA,145720.000,5212.0942,N,00005.95
78,E,1,07,1.13,23.0,M,47.0,M,,*52
$GPGSA,A,3,06,09,05,07,02,30,23,,,,,,1.44,1.13,0.88*0D
$GPRMC,145720.000,A
,5212.0942,N,00005.9578,E,0.12,156.57,111118,,,A*6C
$GPVTG,156.57,T,,M,0.12,N,0.22,K,A*3E

$PMTKLOG,0,1,a,31,15,0,0,1,0,0*11
$P
MTK001,183,3*3A
$PMTK869,2,1*36

$GPGGA,145721.000,5212.0941,N,00005.9578,E,1,07,1.13,23.0,M,47.0,M,,*50
$GPGSA,A
,3,06,09,05,07,02,30,23,,,,,,1.44,1.13,0.88*0D
$GPRMC,145721.000,A,5212.0941,N,00005.9578,E,0.17,147.81,11111
8,,,A*60
$GPVTG,147.81,T,,M,0.17,N,0.32,K,A*31

$PMTKLOG,0,1,a,31,15,0,0,1,0,0*11
$PMTK001,183,3*3A
$PMTK869,2,1*36

$GPGGA,145722.000,52
12.0941,N,00005.9578,E,1,07,1.13,23.0,M,47.0,M,,*53
$GPGSA,A,3,06,09,05,07,02,30,23,,,,,,1.44,1.13,0.
88*0D
$GPRMC,145722.000,A,5212.0941,N,00005.9578,E,0.09,172.61,111118,,,A*64
$GPVTG,172.61,T,,M,0
.09,N,0.16,K,A*30

$PMTKLOG,0,1,a,31,15,0,0,1,0,0*11
$PMTK001,183,3*3A
$PMTK869,2,1*36

$GPGGA,145723.00
0,5212.0941,N,00005.9578,E,1,07,1.13,23.1,M,47.0,M,,*53
$GPGSA,A,3,06,09,05,07,02,30,23,,,,,,1.44,1.13
,0.88*0D
$GPRMC,145723.000,A,5212.0941,N,00005.9578,E,0.01,304.15,111118,,,A*6D
$GPVTG,304.15,T,
,M,0.01,N,0.03,K,A*3C

$PMTKLOG,0,1,a,31
,15,0,0,1,0,0*11
$PMTK001,183,3*3A
$PMTK869,2,1*36

$GPGGA,145724.000,5212.0941
,N,00005.9578,E,1,07,1.13,23.1,M,47.0,M,,*54
$GPGSA,A,3,06,09,05,07,02,30,23,,,,,,1.44,1.13,0.88*0D
$GPGSV,2,1,08,07,65,
115,43,30,48,176,38,05,43,297,38,02,41,246,29*79
$GPGSV,2,2,08,09,40,077,41,06,22,197,27,23,15,078,21,44,06,109,*72
$GPR
MC,145724.000,A,5212.0941,N,00005.9578,E,0.14,125.94,111118,,,A*66
$GPVTG,125.94,T,,M,0.14,N,0.26,K,A*37

$PMTKLOG,0,1,a,31,15,0,0,1,0,0*11
$PMTK001,183,3*3A
$PMTK869,2,1*36

$GPGGA,145725.000,5212.09
41,N,00005.9579,E,1,07,1.13,23.1,M,47.0,M,,*54
$GPGSA,A,3,06,09,05,07,02,30,23,,,,,,1.44,1.13,0.88*0D

$GPRMC,145725.000,A,5212.0941,N,00005.9579,E,0.17,66.53,111118,,,A*58
$GPVTG,66.53,T,,M,0.17,N,0.32,K,A*0C

$PMTKLOG,0,1,a,31,15,0,0,1,0,0*11
$PMTK001,183,3*3A
$PMTK869,2,1*36

$GPGGA,145726.000,5212.0941,N,00005.9580,E,1,06,1.38,23.1,M,47.0,M,,*59
$GPGSA
,A,3,09,05,07,02,30,23,,,,,,,1.66,1.38,0.93*08
$GPRMC,145726.000,A,5212.0941,N,00005.9580,E,0.08,88.6
0,111118,,,A*53
$GPVTG,88.60,T,,M,0.08,N,0.14,K,A*06

$PMTKLOG,0,1,a,31,15
,0,0,1,0,0*11
$PMTK001,183,3*3A
$PMTK869,2,1*36

$GPGGA,145727.00
0,5212.0941,N,00005.9580,E,1,06,1.38,23.1,M,47.0,M,,*58
$GPGSA,A,3,09,05,07,02,30,23,,,,,,,1.66,1.38,
0.93*08
$GPRMC,145727.000,A,5212.0941,N,00005.9580,E,0.20,188.65,111118,,,A*6C
$GPVTG,188.65,T,,M,0.20,N,0.37,K,
A*39

$PMTKLOG,0,1,a,31,15,0,0,1,0,0*11
$
PMTK001,183,3*3A
$PMTK869,2,1*36

$GPGGA,145728.000,5212.0940
,N,00005.9580,E,1,06,1.38,23.1,M,47.0,M,,*56
$GPGSA,A,3,09,05,07,02,30,23,,,,,,,1.67,1.38,0.93*09
$GPRMC,145728.
000,A,5212.0940,N,00005.9580,E,0.05,119.44,111118,,,A*6E
$GPVTG,119.44,T,,M,0.05,N,0.09,K,A*3
8

$PMTKLOG,0,1,a,31,15,0,0
,1,0,0*11
$PMTK001,183,3*3A
$PMTK869,2,1*36

$GPGG
A,145729.000,5212.0940,N,00005.9580,E,1,07,1.13,23.1,M,47.0,M,,*5F
$GPGSA,A,3,06,09,05,07,02,30,23,,,,,,1
.44,1.13,0.88*0D
$GPGSV,2,1,08,07,65,115,43,30,48,176,36,05,43,297,38,02,41,246,29*77
$GPGSV,2,2,08,09,40,07
7,41,06,22,197,22,23,15,078,21,34,,,*4E
$GPRMC,145729.000,A,5212.0940,N,00005.9580,E,0.06,220.37,111118,,,A*61
$
GPVTG,220.37,T,,M,0.06,N,0.11,K,A*3F

$PMTKLOG,0,1,a,31,15,0,0,1,0,0*11
$PMTK001,183,3*3A
$PMTK869,2,1*36

$GPGGA,145730.000,5212.0
940,N,00005.9580,E,1,07,1.13,23.1,M,47.0,M,,*57
$GPGSA,A,3,06,09,05,07,02,30,23,,,,,,1.44,1.13,0.88*0
D
$GPRMC,145730.000,A,5212.0940,N,00005.9580,E,0.27,195.49,111118,,,A*6E
$GPVTG,195.49,T,,M,0.27,N,0.51,K,A*3C

$PMTKLOG,0,1,a,31,15,0,0,1,0,0*11
$PMTK001,183,3*3A

$PMTK869,2,1*36

$GPGGA,145731.000,5212.0939,N,00005.9579,E,1,07,1.14,23
.1,M,47.0,M,,*59
$GPGSA,A,3,06,09,05,07,02,30,23,,,,,,1.44,1.14,0.88*0A
$GPRMC,145731.000,A,5212.0939
,N,00005.9579,E,0.20,181.10,111118,,,A*69
$GPVTG,181.10,T,,M,0.20,N,0.37,K,A*32

$PMTKLOG,0,1,a,31
,15,0,0,1,0,0*11
$PMTK001,183,3*3A
$PMTK869,2,1*36

$GPGGA,145732.000,5212.
0939,N,00005.9579,E,1,07,1.13,23.1,M,47.0,M,,*5D
$GPGSA,A,3,06,09,05,07,02,30,23,,,,,,1.44,1.13,0.88*
0D
$GPRMC,145732.000,A,5212.0939,N,00005.9579,E,0.03,242.61,111118,,,A*61
$GPVTG,242.61,T,,M,0.03,N,0.05,K,A*38

$PMTKLOG,0,1,a,31,15,0,0,1,0,0*11
$PMTK001,183,3*3A
$PMTK869,2,1*36

$GPGGA
,145733.000,5212.0939,N,00005.9579,E,1,07,1.14,23.1,M,47.0,M,,*5B
$GPGSA,A,3,06,09,05,07,02,30,23,,,,
,,1.44,1.14,0.88*0A
$GPRMC,145733.000,A,5212.0939,N,00005.9579,E,0.13,6.44,111118,,,A*64
$GPVTG,6.44,T,,M,0.13,N
,0.24,K,A*3F

$PMTKLOG,0,1,a,31,15,0,0,1
,0,0*11
$PMTK001,183,3*3A
$PMTK869,2,1*36

$GPGGA,145734.000,5212.09
39,N,00005.9579,E,1,07,1.15,23.1,M,47.0,M,,*5D
$GPGSA,A,3,06,09,05,07,02,30,23,,,,,,2.21,1.15,1.89*0B
$GPGSV
,2,1,08,07,65,115,43,30,48,176,38,05,43,297,39,02,41,246,30*70
$GPGSV,2,2,08,09,40,077,36,06,22,197,28,23,15,078,
20,35,,,*44
$GPRMC,145734.000,A,5212.0939,N,00005.9579,E,0.10,3.89,111118,,,A*64
$GPVTG,3.89,T,,M,0.10,N,0.1
8,K,A*37

$PMTKLOG,0,1,a,31,15,0,0,1
,0,0*11
$PMTK001,183,3*3A
$PMTK869,2,1*36

$GPGGA,145735.000,5212.0939,N,000
05.9579,E,1,07,1.15,23.1,M,47.0,M,,*5C
$GPGSA,A,3,06,09,05,07,02,30,23,,,,,,2.21,1.15,1.89*0B

$GPRMC,145735.000,A,5212.0939,N,00005.9579,E,0.09,278.74,111118,,,A*61
$GPVTG,278.74,T,,M,0.09,N,0.17,K,A*3C

$PMTKLOG,0,1,a,31,15,0,0,1,0,0*11
$PMTK001,183,3*3A
$PMTK869,2,1*36

$GPGGA,145736.000,5212.0939,N,00005.9579,E,1,06,1.38,23.1,M,47.0,M,,*51
$GPGSA,A,3,
09,05,07,02,30,23,,,,,,,1.67,1.38,0.93*09
$GPRMC,145736.000,A,5212.0939,N,00005.9579,E,0.05,16.65,111118,,,A
*54
$GPVTG,16.65,T,,M,0.05,N,0.09,K,A*05

$PMTKLOG,0,1,a,31,15,
0,0,1,0,0*11
$PMTK001,183,3*3A
$PMTK869,2,1*36

$
GPGGA,145737.000,5212.0940,N,00005.9579,E,1,07,1.14,23.1,M,47.0,M,,*51
$GPGSA,A,3,06,09,05,07,02,30,23,,,,,,1.44,1.14,0
.88*0A
$GPRMC,145737.000,A,5212.0940,N,00005.9579,E,0.15,162.21,111118,,,A*68
$GPVTG,162.21,
T,,M,0.15,N,0.28,K,A*35
$PMTKLOG,0,1,a,3
1,15,0,0,1,0,0*11
$PMTK001,183,3*3A
$PMTK869,2,1*36

$GPGGA,145738.000,5212.0939,N,00005.9579,E,1,07,1.14,23.1,M,47.0,M,,*50
$GPGSA,A,3,06,09,05,07,02,30,23,
,,,,,1.44,1.14,0.88*0A
$GPRMC,145738.000,A,5212.0939,N,00005.9579,E,0.16,164.09,111118,,,A*66
$GPVTG,16
4.09,T,,M,0.16,N,0.30,K,A*33
$PMTKLOG,0,1,a,31,15,0,0,1,0
,0*11
$PMTK001,183,3*3A
$PMTK869,2,1*36

$GPGGA,145739.000
,5212.0939,N,00005.9579,E,1,07,1.13,23.1,M,47.0,M,,*56
$GPGSA,A,3,06,09,05,07,02,30,23,,,,,,1.44,1.1
3,0.88*0D
$GPGSV,2,1,08,07,65,115,44,30,48,176,39,05,43,297,39,02,41,246,31*77
$GPGSV,2,2,08,09,40,077,39,0
6,22,197,27,23,15,078,17,36,,,*43
$GPRMC,145739.000,A,5212.0939,N,00005.9579,E,0.02,152.49,111118,,,A*63
$GPVTG,152.49,T,,M,0.02,N,0.04,K,A*30
$PMTKLOG,0,1,a,31,15,0,0,1,0,0*11
$PMT
K001,183,3*3A
$PMTK869,2,1*36

$GPGGA,145740.000,5212.0939,N,00005.957
9,E,1,07,1.14,23.1,M,47.0,M,,*5F
$GPGSA,A,3,06,09,05,07,02,30,23,,,,,,1.44,1.14,0.88*0A
$GPRMC,145740.000,A,5212.0
939,N,00005.9579,E,0.02,185.93,111118,,,A*60
$GPVTG,185.93,T,,M,0.02,N,0.03,K,A*3A

$PMTKLOG,0,1,a,31,15,0,0,1,0,0*11
$PMTK001,183,3*3A
$PMTK869,2,1*36

$GPGGA,145741.000,5212.0939,N,00005.9579,E,1,07,1.14,23.1,M,47.0,M,,*5E
$GPGSA,A,3,06,09,
05,07,02,30,23,,,,,,1.44,1.14,0.88*0A
$GPRMC,145741.000,A,5212.0939,N,00005.9579,E,0.08,96.42,111118,,,A*54
$G
PVTG,96.42,T,,M,0.08,N,0.15,K,A*08
$PMTKLOG,0,1,a,31,15,0,0,1,0
,0*11
$PMTK001,183,3*3A
$PMTK869,2,1*36

$GPGGA,145742.000,5212.0939,N,00005.9580,E,1,07,1.14,23.1,M,47.0,M,,*5B
$GPGSA,A,3,06,09
,05,07,02,30,23,,,,,,1.44,1.14,0.88*0A
$GPRMC,145742.000,A,5212.0939,N,00005.9580,E,0.12,115.76,111118,,,A*67
$GPV
TG,115.76,T,,M,0.12,N,0.22,K,A*3A
$PMTKLOG,0,1,a,31,15,0,0
,1,0,0*11
$PMTK001,183,3*3A
$PMTK869,2,1*36

$GPGGA,145743.000,5212.0939,N,00005.9580,E,1,07,1.14,23.1,M,47.0,M,,*5
A
$GPGSA,A,3,06,09,05,07,02,30,23,,,,,,1.44,1.14,0.88*0A
$GPRMC,145743.000,A,5212.0939,N,00005.9580
,E,0.12,204.73,111118,,,A*60
$GPVTG,204.73,T,,M,0.12,N,0.22,K,A*3C
$PMTKLOG,0,1,a,31,15,0,0,1,0,0*11

$PMTK001,183,3*3A
$PMTK869,2,1*36

$GPGGA,145744.000,5212.0938,N,00005.9580,E,1,07,1.14,23.1,M
,47.0,M,,*5C
$GPGSA,A,3,06,09,05,07,02,30,23,,,,,,1.44,1.14,0.88*0A
$GPGSV,2,1,08,07,65,115,44,30,48,176,38,05,43,2
97,39,02,41,246,29*7F
$GPGSV,2,2,08,09,40,077,41,06,22,197,26,23,15,078,20,38,,,*47
$GPRMC,145744.000,A,5212.0938,N,00005.9580,E,0.05,245.54,111118,,,A*60
$GPVTG,245.54,T,,M,0.05,N,0.10,K,A*3B
$
PMTKLOG,0,1,a,31,15,0,0,1,0,0*11
$PMTK001,183,3*3A
$PMTK869,2,1*36

$GPGGA,145745.000,5212.0938,N,00005.9580,E,1,07,1.14,23.1,M,47.0,M,,*5D
$GPGSA,A,3,06,09,05
,07,02,30,23,,,,,,1.44,1.14,0.88*0A
$GPRMC,145745.000,A,5212.0938,N,00005.9580,E,0.10,163.00,111118,
,,A*63
$GPVTG,163.00,T,,M,0.10,N,0.19,K,A*30
$PMTKLOG,0,1,a,31,15,0,0,1,0,0*11
$PMTK001,183,3*3A
$PMTK869,2,1*36

$GPGGA,145746.000,5212.0938,N,00005.9580
,E,1,07,1.14,23.1,M,47.0,M,,*5E
$GPGSA,A,3,06,09,05,07,02,30,23,,,,,,1.44,1.14,0.88*0A
$GPRMC,145746.00
0,A,5212.0938,N,00005.9580,E,0.09,133.36,111118,,,A*68
$GPVTG,133.36,T,,M,0.09,N,0.17,K,A*36

$PMTKLOG,0,1,a,31,15,0,0,1,0,0*11
$PMTK
001,183,3*3A
$PMTK869,2,1*36

$GPGGA,145747.000,5212.0938,N,00005.9580,E,1,07,1.14,23.1,M,47.0,M,,*5F
$GPGSA,A
,3,06,09,05,07,02,30,23,,,,,,1.44,1.14,0.88*0A
$GPRMC,145747.000,A,5212.0938,N,00005.9580,E,
0.06,101.89,111118,,,A*63
$GPVTG,101.89,T,,M,0.06,N,0.10,K,A*3B
$PMTKLOG,0,1,a,31,15,0,0,1,0,0*11
$
PMTK001,183,3*3A
$PMTK869,2,1*36

$GPGGA,145
748.000,5212.0938,N,00005.9581,E,1,07,1.14,23.1,M,47.0,M,,*51
$GPGSA,A,3,06,09,05,07,02,30,23,,,,,,1.44,
1.14,0.88*0A
$GPRMC,145748.000,A,5212.0938,N,00005.9581,E,0.10,64.39,111118,,,A*53
$GPVTG,64
.39,T,,M,0.10,N,0.18,K,A*0D
$PMTKLOG,0,1,a,31,15,0,0,1,0,0*1
1
$PMTK001,183,3*3A
$PMTK869,2,1*36

$GPGGA,145749.000,5212.0938,N,00005.9581,E,1,07,1.14,23.1,M,47.0,M,,*50
$GPGSA,A,3,06,09,05,07,02
,30,23,,,,,,1.44,1.14,0.88*0A
$GPGSV,2,1,08,07,65,115,44,30,48,176,38,05,43,297,39,02,41,246,28*7E
$GPGSV,2,2,08,0
9,40,077,38,06,21,197,26,23,15,078,18,38,,,*41
$GPRMC,145749.000,A,5212.0938,N,00005.9581,E,0.15,70.81,111118,,,A*51
$GPVTG,70.81,T,,M,0.15,N,0.28,K,A*0D
$PMTKLOG,0,1,a,31,15
,0,0,1,0,0*11
$PMTK001,183,3*3A
$PMTK869,2,1*36

$GPGGA,145750.000,5212.0938,N,00005.9582,E,
1,07,1.14,23.1,M,47.0,M,,*5B
$GPGSA,A,3,06,09,05,07,02,30,23,,,,,,1.44,1.14,0.88*0A
$GPRMC,145750.0
00,A,5212.0938,N,00005.9582,E,0.03,292.71,111118,,,A*6C
$GPVTG,292.71,T,,M,0.03,N,0.05,K,A*34
$PMTKLOG,0,1,a,31,15,0,0,1,0,0*11
$PMTK001,183,3*3A
$PMTK869,2,1*36

$GPGGA,145751.000,5212.0938,N,00005.958
1,E,1,07,1.14,23.1,M,47.0,M,,*59
$GPGSA,A,3,06,09,05,07,02,30,23,,,,,,1.44,1.14,0.88*0A
$GPRMC,
145751.000,A,5212.0938,N,00005.9581,E,0.03,198.35,111118,,,A*67
$GPVTG,198.35,T,,M,0.03,N,0.06,K,A*3E

$PMTKLOG,0,1,a,31,15,0,0
,1,0,0*11
$PMTK001,183,3*3A
$PMTK869,2,1*36

$GPGGA,145752.000,5212.0938,N,00005.9581,E,1,07,1.14,23.1,M,47.0,M,,*5A
$
GPGSA,A,3,06,09,05,07,02,30,23,,,,,,1.44,1.14,0.88*0A
$GPRMC,145752.000,A,5212.0938,N,00005.9581,E,0
.04,310.38,111118,,,A*6C
$GPVTG,310.38,T,,M,0.04,N,0.08,K,A*38
$PMTKLOG,0,1,a,31,15,0,0,1,0,0*
11
$PMTK001,183,3*3A
$PMTK869,2,1*36

$GPGGA,145753.000,5212.0938,N,00005.9581,E,1,07,1.14,
23.1,M,47.0,M,,*5B
$GPGSA,A,3,06,09,05,07,02,30,23,,,,,,1.44,1.14,0.88*0A
$GPRMC,145753.000,A,5212.0938,N,00005
.9581,E,0.04,262.25,111118,,,A*65
$GPVTG,262.25,T,,M,0.04,N,0.07,K,A*3F
$PMTKLOG,0,1,
a,31,15,0,0,1,0,0*11
$PMTK001,183,3*3A
$PMTK869,2,1*36

$GPGGA,145754.000,5212.0938,N,00005.9581,E,1,07,1.14,23.1,M,
47.0,M,,*5C
$GPGSA,A,3,06,09,05,07,02,30,23,,,,,,1.44,1.14,0.88*0A
$GPGSV,2,1,08,07,65,115,44,30,48,176,39,05,4
3,297,39,02,41,246,27*70
$GPGSV,2,2,08,09,40,077,40,06,21,197,29,23,15,078,21,41,,,*45
$GPRMC,145754.000,A,5212.0938,N,00005.9581,E,0.11,300.06,111118,,,A*62
$GPVTG,300.06,T,,M,0.11,N,0.20,K,A*3A
$PMTKLOG,0
,1,a,31,15,0,0,1,0,0*11
$PMTK001,183,3*3A
$PMTK869,2,1*36

$
GPGGA,145755.000,5212.0938,N,00005.9581,E,1,07,1.14,23.1,M,47.0,M,,*5D
$GPGSA,A,3,06,09,05,07,02,30,
23,,,,,,1.44,1.14,0.88*0A
$GPRMC,145755.000,A,5212.0938,N,00005.9581,E,0.12,344.80,111118,,,A*6E
$GPVTG,344.80,T,,M,0.1
2,N,0.23,K,A*34
$PMTKLOG,0,1,a,31,15,0,0,1,0,0*11
$PMTK001,183,3*3A
$PMTK869,2,1*36

$GPGGA,145756.000,5212.0939,N,00005.9581,E,1,07,1.14,23.1,M,47.0,M,,*5F
$GPGSA,A,3,0
6,09,05,07,02,30,23,,,,,,1.44,1.14,0.88*0A
$GPRMC,145756.000,A,5212.0939,N,00005.9581,E,0.05,84.70,1
11118,,,A*5A
$GPVTG,84.70,T,,M,0.05,N,0.10,K,A*02

$PMTKLOG,0,1,a,31,15,0
,0,1,0,0*11
$PMTK001,183,3*3A
$PMTK869,2,1*36

$GPGGA,145757.000,5212.0939,N,00005.9581,E,1,07,1.14,23.1,M,47.0,M,,*5E
$GPGSA,A,3,06,09,05,07,02,30,23,,,,,,1.
44,1.14,0.88*0A
$GPRMC,145757.000,A,5212.0939,N,00005.9581,E,0.11,309.15,111118,,,A*6B
$GPVTG,309.15,T,,M,0.11,
N,0.20,K,A*31
$PMTKLOG,0,1,a,31,15,0,0,1,0,0*11
$PMTK
001,183,3*3A
$PMTK869,2,1*36

$GPGGA,145758
.000,5212.0939,N,00005.9580,E,1,07,1.14,23.1,M,47.0,M,,*50
$GPGSA,A,3,06,09,05,07,02,30,23,,,,,,1.44,1.1
4,0.88*0A
$GPRMC,145758.000,A,5212.0939,N,00005.9580,E,0.12,159.26,111118,,,A*61
$GPVTG,159.26,T,,M,0.12,N,0.23
,K,A*36
$PMTKLOG,0,1,a,31,15,0,0,1,0,
0*11
$PMTK001,183,3*3A
$PMTK869,2,1*36

$GPGGA,145759.000,521
2.0938,N,00005.9581,E,1,07,1.14,23.1,M,47.0,M,,*51
$GPGSA,A,3,06,09,05,07,02,30,23,,,,,,1.44,1.14,0.
88*0A
$GPGSV,2,1,08,07,65,115,44,30,48,176,39,05,43,297,39,02,41,246,25*72
$GPGSV,2,2,08,09,40,
077,41,06,21,197,29,23,15,078,23,43,,,*44
$GPRMC,145759.000,A,5212.0938,N,00005.9581,E,0.13,188.27,111118,,,A*6C
$GPVTG,188.27,T,,M,0.13,N,0.24,K,A*3D
$PMTKLOG,0,1,a,31,
15,0,0,1,0,0*11
$PMTK001,183,3*3A
$PMTK869,2,1*36

$GPGGA,145800.000,5212.0938,N,0000
5.9581,E,1,07,1.14,23.1,M,47.0,M,,*52
$GPGSA,A,3,06,09,05,07,02,30,23,,,,,,1.44,1.14,0.88*0A
$GPRMC,
145800.000,A,5212.0938,N,00005.9581,E,0.20,195.67,111118,,,A*67
$GPVTG,195.67,T,,M,0.20,N,0.38,K
,A*38
$PMTKLOG,0,1,a,31,15,0,0,1,0,0*11
$PMTK001,183,3*3A
$PMTK869,2,1*36

$GPGGA,145801.000,5212.0938,N,00005.9580,E,1,07,1.14,23.1,M,47.0,M,,*52
$GP
GSA,A,3,06,09,05,07,02,30,23,,,,,,1.44,1.14,0.88*0A
$GPRMC,145801.000,A,5212.0938,N,00005.9580,E,0.1
8,249.85,111118,,,A*62
$GPVTG,249.85,T,,M,0.18,N,0.33,K,A*36

$PMTKLOG,0,1,a,31,15,0,0,1,0,0*
11
$PMTK001,183,3*3A
$PMTK869,2,1*36

$GPGGA,145802.000,5212.0
937,N,00005.9580,E,1,07,1.14,23.1,M,47.0,M,,*5E
$GPGSA,A,3,06,09,05,07,02,30,23,,,,,,1.44,1.14,0.88*
0A
$GPRMC,145802.000,A,5212.0937,N,00005.9580,E,0.12,186.30,111118,,,A*6A
$GPVTG,186.30,T,,M,0.12,N,0.22,K,A*32

$PMTKLOG,0,1,a,31,15,0,0,1,0,0*11

$PMTK001,183,3*3A
$PMTK869,2,1*36

$GPGGA,145803.000,5212.0937,N,00005.9579,E,1,0
7,1.14,23.1,M,47.0,M,,*59
$GPGSA,A,3,06,09,05,07,02,30,23,,,,,,1.44,1.14,0.88*0A
$GPRMC,145803.000,A,5212.0937,N,0
0005.9579,E,0.05,135.85,111118,,,A*6D
$GPVTG,135.85,T,,M,0.05,N,0.09,K,A*3B

$PMTKLOG,0,1,a,31
,15,0,0,1,0,0*11
$PMTK001,183,3*3A
$PMTK869,2,1*36

$GPGGA,145804.000,5212.0937,N,00
005.9580,E,1,07,1.14,23.1,M,47.0,M,,*58
$GPGSA,A,3,06,09,05,07,02,30,23,,,,,,1.44,1.14,0.88*0A
$GPGSV,2,1,08,07,65,
115,44,30,48,176,38,05,43,297,39,02,41,246,27*71
$GPGSV,2,2,08,09,40,077,41,06,21,197,29,23,14,078,23,45,,,*43

$GPRMC,145804.000,A,5212.0937,N,00005.9580,E,0.22,326.93,111118,,,A*6E
$GPVTG,326.93,T,,M,0.22,N,0.41,K,A*35
$PMTKLOG,0,1,a,31,15,0,0,1,0,0*11
$PMTK001,
183,3*3A
$PMTK869,2,1*36

$GPGGA
,145805.000,5212.0938,N,00005.9579,E,1,07,1.14,23.1,M,47.0,M,,*50
$GPGSA,A,3,06,09,05,07,02,30,23,,,
,,,1.44,1.14,0.88*0A
$GPRMC,145805.000,A,5212.0938,N,00005.9579,E,0.28,10.13,111118,,,A*52
$GPVTG,10.13,T,,M,0.
28,N,0.51,K,A*00
$PMTKLOG,0,1,a,31,15,0,0,1,0,0*11
$PMTK001,183,3*3A
$PMTK869,2,1*36

$GPGGA,145806.000,5212.0938,N,00005.9579,E,1,07,1.15,23.1,M,47.0,M,,*52
$GPGSA,A,3,06,09,05,
07,02,30,23,,,,,,2.20,1.15,1.87*04
$GPRMC,145806.000,A,5212.0938,N,00005.9579,E,0.20,54.05,111118,,,A*5E
$GPVTG,54.
05,T,,M,0.20,N,0.38,K,A*00

$PMTKLOG,0,1,
a,31,15,0,0,1,0,0*11
$PMTK001,183,3*3A
$PMTK869,2,1*36

$GPGGA,145807.000,5212.0939,N,0000
5.9580,E,1,07,1.14,23.1,M,47.0,M,,*55
$GPGSA,A,3,06,09,05,07,02,30,23,,,,,,1.44,1.14,0.88*0A
$GPRMC,
145807.000,A,5212.0939,N,00005.9580,E,0.08,254.20,111118,,,A*67
$GPVTG,254.20,T,,M,0.08,N,0.15,K,A*30

$PMTKLOG,0,1,a,31,15
,0,0,1,0,0*11
$PMTK001,183,3*3A
$PMTK869,2,1*36

$GPGGA,145808.000,5212.0939,N,00005.9580,E,1,07,1.14,23.1,M,47.0,M,,*5A
$GPGSA,A,3,06,09,05,07,02,30,23,,,,,,
1.44,1.14,0.88*0A
$GPRMC,145808.000,A,5212.0939,N,00005.9580,E,0.08,214.73,111118,,,A*6A
$GPVTG,214.73,
T,,M,0.08,N,0.16,K,A*31
$PMTKLOG,0,1,a,31,15,0,0,1,0,0*11
$P
MTK001,183,3*3A
$PMTK869,2,1*36

$GPGGA,145809.000,5212.0938,N,00005.9579,E,1,07,1.14,23.
1,M,47.0,M,,*5C
$GPGSA,A,3,06,09,05,07,02,30,23,,,,,,1.44,1.14,0.88*0A
$GPGSV,2,1,08,07,65,115,44,3
0,48,176,38,05,43,297,39,02,41,246,27*71
$GPGSV,2,2,08,09,40,077,41,06,21,197,29,23,14,078,22,46,
,,*41
$GPRMC,145809.000,A,5212.0938,N,00005.9579,E,0.10,299.81,111118,,,A*6D
$GPVTG,299.81,T,,M,0.10,N,0.18,K,A*3E
$PMTKLOG,0,1,a,31,15,0,0,1,
0,0*11
$PMTK001,183,3*3A
$PMTK869,2,1*36

$GPGGA,145810.000,5212.0939,N,00005.9579,E,1,07,1.14,23.1
,M,47.0,M,,*55
$GPGSA,A,3,06,09,05,07,02,30,23,,,,,,1.44,1.14,0.88*0A
$GPRMC,145810.000,A,5212.0939,N,0
0005.9579,E,0.10,310.69,111118,,,A*62
$GPVTG,310.69,T,,M,0.10,N,0.19,K,A*39

$PMTKLOG,0,1,a,31,15,0,0,1,0,0*11
$PMTK001,183,3*3A
$PMTK869,2,1*36

$GPGGA,145811.000,5212.0939,N,00005.9579,E,1,07,1.14,23.1,M,47.0,M,
,*54
$GPGSA,A,3,06,09,05,07,02,30,23,,,,,,1.44,1.14,0.88*0A
$GPRMC,145811.000,A,5212.0939,N,
00005.9579,E,0.11,227.08,111118,,,A*60
$GPVTG,227.08,T,,M,0.11,N,0.20,K,A*30

$PMTKLOG,0,1
,a,31,15,0,0,1,0,0*11
$PMTK001,183,3*3A
$PMTK869,2,1*36

$GPGGA,145812.000,5212.0938,
N,00005.9579,E,1,07,1.14,23.0,M,47.0,M,,*57
$GPGSA,A,3,06,09,05,07,02,30,23,,,,,,1.44,1.14,0.88*0A

$GPRMC,145812.000,A,5212.0938,N,00005.9579,E,0.08,166.03,111118,,,A*67
$GPVTG,166.03,T,,M,0.08,N,0.16,K,A*30

$PMTKLOG,0,1,a,31,15,0,0,1,0,0*
11
$PMTK001,183,3*3A
$PMTK869,2,1*36

$GPGGA,145813.000,5212.0937,N,00005.9579,E,1,07
,1.14,22.9,M,47.0,M,,*51
$GPGSA,A,3,06,09,05,07,02,30,23,,,,,,1.44,1.14,0.88*0A
$GPRMC,145813.000,A,521
2.0937,N,00005.9579,E,0.26,170.75,111118,,,A*63
$GPVTG,170.75,T,,M,0.26,N,0.48,K,A*31

$PMTKLOG,0,1,a,31,15,0,0,1,
0,0*11
$PMTK001,183,3*3A
$PMTK869,2,1*36

$GPGGA,145814.000,5
212.0936,N,00005.9579,E,1,07,1.14,22.8,M,47.0,M,,*56
$GPGSA,A,3,06,09,05,07,02,30,23,,,,,,1.44,1.14,
0.88*0A
$GPGSV,2,1,08,07,65,115,44,30,48,176,38,05,43,297,39,02,41,246,28*7E
$GPGSV,2,2,08,09,40,077,41,06,21,1
97,29,23,14,078,22,46,,,*41
$GPRMC,145814.000,A,5212.0936,N,00005.9579,E,0.24,198.28,111118,,,A*69
$GPVTG,198.28,T,,M,0.24,N,0.45,K,A*30
$PMTKLOG,0,1,a,31,15,0,0,1,0,0*1
1
$PMTK001,183,3*3A
$PMTK869,2,1*36

$GPGGA,145815.000,5212.
0936,N,00005.9580,E,1,07,1.14,22.7,M,47.0,M,,*5E
$GPGSA,A,3,06,09,05,07,02,30,23,,,,,,1.44,1.14,0.88
*0A
$GPRMC,145815.000,A,5212.0936,N,00005.9580,E,0.20,165.93,111118,,,A*68
$GPVTG,165.93,T,,M,0.20,N,0.38,K
,A*3C
$PMTKLOG,0,1,a,31,15,0,0,1,0,0*11
$PMTK001,183,3*3A
$PMTK869,2,1*36

$GPGGA,145816.000,5212.0935,N,00005.9580,E,1,07,1.14,22.7,M,47.0,M,,*5E
$GPGSA,A,3,06,09,05,0
7,02,30,23,,,,,,1.44,1.14,0.88*0A
$GPRMC,145816.000,A,5212.0935,N,00005.9580,E,0.17,166.12,111118,,,
A*66
$GPVTG,166.12,T,,M,0.17,N,0.31,K,A*3B

$PMTKLOG,0,1,a,31,15,0,0,1,
0,0*11
$PMTK001,183,3*3A
$PMTK869,2,1*36

$GPGGA,145817.000,5212.0935,N,00005.9580,E,1,07,1.14,22.7,M,47.0,M,
,*5F
$GPGSA,A,3,06,09,05,07,02,30,23,,,,,,1.44,1.14,0.88*0A
$GPRMC,145817.000,A,5212.0935,N,00005.9
580,E,0.10,289.28,111118,,,A*6B
$GPVTG,289.28,T,,M,0.10,N,0.18,K,A*3C

$PMTKLOG,0,1,a,
31,15,0,0,1,0,0*11
$PMTK001,183,3*3A
$PMTK869,2,1*36

$GPGGA,145818.000,5212.0935,N,0
0005.9580,E,1,07,1.14,22.7,M,47.0,M,,*50
$GPGSA,A,3,06,09,05,07,02,30,23,,,,,,1.44,1.14,0.88*0A
$GP
RMC,145818.000,A,5212.0935,N,00005.9580,E,0.03,327.82,111118,,,A*63
$GPVTG,327.82,T,,M,0.03,N,0.05,K,A*37

$PMTKLOG,0,1,a,31,15,0,0,1
,0,0*11
$PMTK001,183,3*3A
$PMTK869,2,1*36

$GPGGA,145819.000,5212.0935,N,00005.9579,E,1,07,1.14,22.7,M,47.0,
M,,*57
$GPGSA,A,3,06,09,05,07,02,30,23,,,,,,1.44,1.14,0.88*0A
$GPGSV,2,1,08,07,65,115,44,30,48,176,38,05,43,29
7,39,02,41,246,29*7F
$GPGSV,2,2,08,09,40,077,41,06,21,197,29,23,14,078,19,47,,,*48
$GPRMC,145819.000
,A,5212.0935,N,00005.9579,E,0.20,252.82,111118,,,A*66
$GPVTG,252.82,T,,M,0.20,N,0.38,K,A*3B
$PMTKLOG,0,1,a,31,15,0,0,1,0,0*11
$
PMTK001,183,3*3A
$PMTK869,2,1*36

$GPGGA,145820.000,5212.0935,N,00005.9579,E,1,07,1.14,22.7,M,47.0,M,,*5D
$GPGSA,A,3,06,09,05
,07,02,30,23,,,,,,1.44,1.14,0.88*0A
$GPRMC,145820.000,A,5212.0935,N,00005.9579,E,0.06,220.68,111118,
,,A*69
$GPVTG,220.68,T,,M,0.06,N,0.12,K,A*36

$PMTKLOG,0,1,a,31,15,0,0,1,0,0*11
$PMTK001,183,3*3A
$PMTK869,2,1*36

$GPGGA,145821.000,5212.0935,N,00005.9578,E,1,07,
1.14,22.7,M,47.0,M,,*5D
$GPGSA,A,3,06,09,05,07,02,30,23,,,,,,1.44,1.14,0.88*0A
$GPRMC,145821.000,A,5212.0935,N,0000
5.9578,E,0.07,308.38,111118,,,A*66
$GPVTG,308.38,T,,M,0.07,N,0.13,K,A*38

$PMTKLOG,0,1,a,31,15,
0,0,1,0,0*11
$PMTK001,183,3*3A
$PMTK869,2,1*36

$GPGGA,145822.000,5212.0935,N,00005.9578,E,1,07,1.14,22.7,M,47.0,M,,*5E
$GPGSA,
A,3,06,09,05,07,02,30,23,,,,,,1.44,1.14,0.88*0A
$GPRMC,145822.000,A,5212.0935,N,00005.9578,E,0.11,162.84
,111118,,,A*6B
$GPVTG,162.84,T,,M,0.11,N,0.20,K,A*36

$PMTKLOG,0,1,a,31,15,0,0,1,0,0*11
$
PMTK001,183,3*3A
$PMTK869,2,1*36

$GPGGA,1
45823.000,5212.0935,N,00005.9578,E,1,07,1.14,22.7,M,47.0,M,,*5F
$GPGSA,A,3,06,09,05,07,02,30,23,,,,,,1.44,1.14,0.88*0A

$GPRMC,145823.000,A,5212.0935,N,00005.9578,E,0.07,230.34,111118,,,A*62
$GPVTG,230.34,T,,M,0.07,N,0.14,K,A*39

$PMTKLOG,0,1,a,31
,15,0,0,1,0,0*11
$PMTK001,183,3*3A
$PMTK869,2,1*36

$GPGGA,145824.000,5212.0935,N,00005.9578,E,1,07,1.14,22.7,M,47.0,M,,*58
$GPGSA,A,3,06,09,05,07,02,30,23
,,,,,,1.44,1.14,0.88*0A
$GPGSV,2,1,08,07,65,114,44,30,48,176,38,05,43,297,39,02,41,246,28*7F
$GPGSV,2,2,08,
09,40,077,41,06,21,197,29,23,14,078,18,49,,,*47
$GPRMC,145824.000,A,5212.0935,N,00005.9578,E,0.09,243.60
,111118,,,A*6E
$GPVTG,243.60,T,,M,0.09,N,0.16,K,A*30
$PMTKLOG,0,1,a,31,15,0,0,1,0,0*11
$PMTK0
01,183,3*3A
$PMTK869,2,1*36

$GPGGA,14582
5.000,5212.0934,N,00005.9578,E,1,07,1.14,22.7,M,47.0,M,,*58
$GPGSA,A,3,06,09,05,07,02,30,23,,,,,,1.44,1.
14,0.88*0A
$GPRMC,145825.000,A,5212.0934,N,00005.9578,E,0.10,351.97,111118,,,A*6C
$GPVTG,351.97,T,,M,0.10,N,0.1
9,K,A*3D

$PMTKLOG,0,1,a,31,15,0,0,1,0,0*11
$PMTK001,183,3*3A
$PMTK869,2,1*36

$GPGG
A,145826.000,5212.0935,N,00005.9578,E,1,07,1.15,22.7,M,47.0,M,,*5B
$GPGSA,A,3,06,09,05,07,02,30,23,,,,,,
2.19,1.15,1.86*0F
$GPRMC,145826.000,A,5212.0935,N,00005.9578,E,0.06,338.74,111118,,,A*6B
$GP
VTG,338.74,T,,M,0.06,N,0.12,K,A*33

$PMTKLOG,0,1
,a,31,15,0,0,1,0,0*11
$PMTK001,183,3*3A
$PMTK869,2,1*36

$GPGGA,145827.000,5212.0935,N,00005.9578,E,1,07,1.14,22.7,M,47.0,M,,*5B
$GPGSA,A,3,06,09,0
5,07,02,30,23,,,,,,1.44,1.14,0.88*0A
$GPRMC,145827.000,A,5212.0935,N,00005.9578,E,0.12,64.01,111118,,
,A*57
$GPVTG,64.01,T,,M,0.12,N,0.23,K,A*0C

$PMTKLOG,0,1,a,31,15,0,0,1,0,0*11
$PMT
K001,183,3*3A
$PMTK869,2,1*36

$GPGGA,145828.000,5212.0935,N,00005.9578,E,1,07,1.14,22.7,M,47.0,M,,*54
