$GPRMC,145629.000,A,5212.0484,N,00005.9451,E,2.31,185.70,111118,,,A*61

$GPGGA,145630.000,5212.0481,N,00005.9450,E,1,10,0.81,4.3,M,47.0,M,,*61

$GPRMC,145632.000,A,5212.0481,N,00005.9450,E,0.05,16.37,111118,,,A*52

$GPGGA,145633.000,5212.0481,N,00005.9450,E,1,10,0.81,4.3,M,47.0,M,,*62

$GPRMC,145635.000,A,5212.0481,N,00005.9450,E,0.02,49.78,111118,,,A*53

$GPGGA,145636.000,5212.0481,N,00005.9450,E,1,10,0.81,4.3,M,47.0,M,,*67

$GPRMC,145638.000,A,5212.0481,N,00005.9450,E,0.01,219.03,111118,,,A*66

$GPGGA,145639.000,5212.0481,N,00005.9450,E,1,10,0.81,4.3,M,47.0,M,,*68

$GPRMC,145641.000,A,5212.0481,N,00005.9450,E,0.02,340.47,111118,,,A*66

$GPGGA,145642.000,5212.0481,N,00005.9450,E,1,10,0.81,4.3,M,47.0,M,,*64

$GPRMC,145644.000,A,5212.0481,N,00005.9450,E,0.02,340.90,111118,,,A*69

$GPGGA,145645.000,5212.0481,N,00005.9450,E,1,10,0.81,4.2,M,47.0,M,,*62

$GPRMC,145647.000,A,5212.0481,N,00005.9450,E,0.01,22.21,111118,,,A*54

$GPGGA,145648.000,5212.0481,N,00005.9450,E,1,10,0.84,4.2,M,47.0,M,,*6A

$GPRMC,145650.000,A,5212.0481,N,00005.9450,E,0.02,212.30,111118,,,A*60

$GPGGA,145651.000,5212.0481,N,00005.9450,E,1,10,0.84,4.2,M,47.0,M,,*62

$GPRMC,145653.000,A,5212.0481,N,00005.9450,E,0.01,203.04,111118,,,A*67

$GPGGA,145654.000,5212.0481,N,00005.9450,E,1,10,0.84,4.2,M,47.0,M,,*67

$GPRMC,145656.000,A,5212.0481,N,00005.9450,E,0.00,112.71,111118,,,A*62

$GPGGA,145657.000,5212.0481,N,00005.9450,E,1,10,0.84,4.2,M,47.0,M,,*64

$GPRMC,145659.000,A,5212.0481,N,00005.9450,E,0.00,303.23,111118,,,A*68

$GPGGA,145700.000,5212.0481,N,00005.9450,E,1,10,0.84,4.2,M,47.0,M,,*67

$GPRMC,145702.000,A,5212.0481,N,00005.9450,E,0.01,273.74,111118,,,A*62

$GPGGA,145703.000,5212.0481,N,00005.9450,E,1,10,0.84,4.2,M,47.0,M,,*64

$GPRMC,145705.000,A,5212.0481,N,00005.9450,E,0.01,248.06,111118,,,A*68

$GPGGA,145706.000,5212.0481,N,00005.9450,E,1,10,0.84,4.2,M,47.0,M,,*61

$GPRMC,145708.000,A,5212.0481,N,00005.9450,E,0.01,243.53,111118,,,A*6E

$GPGGA,145709.000,5212.0481,N,00005.9450,E,1,10,0.84,4.2,M,47.0,M,,*6E

$GPRMC,145711.000,A,5212.0481,N,00005.9450,E,0.01,217.93,111118,,,A*6B

$GPGGA,145712.000,5212.0481,N,00005.9450,E,1,10,0.84,4.2,M,47.0,M,,*64

$GPRMC,145714.000,A,5212.0481,N,00005.9450,E,0.02,262.80,111118,,,A*6D

$GPGGA,145715.000,5212.0481,N,00005.9450,E,1,10,0.84,4.2,M,47.0,M,,*63

$GPRMC,145717.000,A,5212.0481,N,00005.9450,E,0.01,81.25,111118,,,A*5D

$GPGGA,145718.000,5212.0481,N,00005.9450,E,1,10,0.84,4.2,M,47.0,M,,*6E

$GPRMC,145720.000,A,5212.0481,N,00005.9450,E,0.02,85.71,111118,,,A*5F

$GPGGA,145721.000,5212.0481,N,00005.9450,E,1,10,0.84,4.2,M,47.0,M,,*64

$GPRMC,145723.000,A,5212.0481,N,00005.9450,E,0.02,272.07,111118,,,A*67

$GPGGA,145724.000,5212.0481,N,00005.9450,E,1,10,0.84,4.2,M,47.0,M,,*61

$GPRMC,145726.000,A,5212.0481,N,00005.9450,E,0.01,315.18,111118,,,A*6F

$GPGGA,145727.000,5212.0481,N,00005.9450,E,1,10,0.84,4.2,M,47.0,M,,*62

$GPRMC,145729.000,A,5212.0481,N,00005.9450,E,0.00,3.59,111118,,,A*60

$GPGGA,145730.000,5212.0481,N,00005.9450,E,1,10,0.84,4.2,M,47.0,M,,*64

$GPRMC,145732.000,A,5212.0481,N,00005.9450,E,0.01,193.17,111118,,,A*69

$GPGGA,145733.000,5212.0481,N,00005.9450,E,1,10,0.84,4.2,M,47.0,M,,*67

$GPRMC,145735.000,A,5212.0481,N,00005.9450,E,0.01,309.76,111118,,,A*68

$GPGGA,145736.000,5212.0481,N,00005.9450,E,1,10,0.84,4.2,M,47.0,M,,*62

$GPRMC,145738.000,A,5212.0481,N,00005.9450,E,0.00,162.23,111118,,,A*6B

$GPGGA,145739.000,5212.0481,N,00005.9450,E,1,10,0.84,4.2,M,47.0,M,,*6D

$GPRMC,145741.000,A,5212.0481,N,00005.9450,E,0.01,125.36,111118,,,A*63

$GPGGA,145742.000,5212.0481,N,00005.9450,E,1,10,0.84,4.2,M,47.0,M,,*61

$GPRMC,145744.000,A,5212.0481,N,00005.9450,E,0.01,105.74,111118,,,A*62

$GPGGA,145745.000,5212.0481,N,00005.9450,E,1,10,0.84,4.2,M,47.0,M,,*66

$GPRMC,145747.000,A,5212.0481,N,00005.9450,E,0.01,275.52,111118,,,A*61

$GPGGA,145748.000,5212.0481,N,00005.9450,E,1,10,0.84,4.2,M,47.0,M,,*6B

$GPRMC,145750.000,A,5212.0481,N,00005.9450,E,0.01,208.57,111118,,,A*68

$GPGGA,145751.000,5212.0481,N,00005.9450,E,1,10,0.84,4.2,M,47.0,M,,*63

$GPRMC,145753.000,A,5212.0481,N,00005.9450,E,0.01,215.65,111118,,,A*66

$GPGGA,145754.000,5212.0481,N,00005.9450,E,1,10,0.84,4.2,M,47.0,M,,*66

$GPRMC,145756.000,A,5212.0481,N,00005.9450,E,0.01,31.58,111118,,,A*59

$GPGGA,145757.000,5212.0481,N,00005.9450,E,1,10,0.84,4.2,M,47.0,M,,*65

$GPRMC,145759.000,A,5212.0481,N,00005.9450,E,0.01,179.73,111118,,,A*62

$GPGGA,145800.000,5212.0481,N,00005.9450,E,1,10,0.84,4.2,M,47.0,M,,*68

$GPRMC,145802.000,A,5212.0481,N,00005.9450,E,0.00,64.87,111118,,,A*54

$GPGGA,145803.000,5212.0481,N,00005.9450,E,1,10,0.84,4.2,M,47.0,M,,*6B

$GPRMC,145805.000,A,5212.0481,N,00005.9450,E,0.01,42.05,111118,,,A*5C

$GPGGA,145806.000,5212.0481,N,00005.9450,E,1,10,0.84,4.2,M,47.0,M,,*6E

$GPRMC,145808.000,A,5212.0481,N,00005.9450,E,0.01,264.39,111118,,,A*68

$GPGGA,145809.000,5212.0481,N,00005.9450,E,1,10,0.84,4.2,M,47.0,M,,*61

$GPRMC,145811.000,A,5212.0481,N,00005.9450,E,0.00,63.17,111118,,,A*58

$GPGGA,145812.000,5212.0481,N,00005.9450,E,1,10,0.84,4.2,M,47.0,M,,*6B

$GPRMC,145814.000,A,5212.0481,N,00005.9450,E,0.01,245.35,111118,,,A*6A

$GPGGA,145815.000,5212.0481,N,00005.9450,E,1,10,0.84,4.2,M,47.0,M,,*6C

$GPRMC,145817.000,A,5212.0481,N,00005.9450,E,0.01,39.73,111118,,,A*52

$GPGGA,145818.000,5212.0481,N,00005.9450,E,1,10,0.84,4.2,M,47.0,M,,*61

$GPRMC,145820.000,A,5212.0481,N,00005.9450,E,0.00,225.38,111118,,,A*67

$GPGGA,145821.000,5212.0481,N,00005.9450,E,1,10,0.84,4.2,M,47.0,M,,*6B

$GPRMC,145823.000,A,5212.0481,N,00005.9450,E,0.00,179.99,111118,,,A*65

$GPGGA,145824.000,5212.0481,N,00005.9450,E,1,10,0.84,4.2,M,47.0,M,,*6E

$GPRMC,145826.000,A,5212.0481,N,00005.9450,E,0.01,311.71,111118,,,A*6B

$GPGGA,145827.000,5212.0481,N,00005.9450,E,1,10,0.84,4.2,M,47.0,M,,*6D

$GPRMC,145829.000,A,5212.0481,N,00005.9450,E,0.01,3.60,111118,,,A*64

$GPGGA,145830.000,5212.0481,N,00005.9450,E,1,10,0.84,4.2,M,47.0,M,,*6B

$GPRMC,145832.000,A,5212.0481,N,00005.9450,E,0.02,26.07,111118,,,A*5B

$GPGGA,145833.000,5212.0481,N,00005.9450,E,1,10,0.84,4.2,M,47.0,M,,*68

$GPRMC,145835.000,A,5212.0481,N,00005.9450,E,0.01,52.38,111118,,,A*50

$GPGGA,145836.000,5212.0481,N,00005.9450,E,1,10,0.84,4.2,M,47.0,M,,*6D

$GPRMC,145838.000,A,5212.0481,N,00005.9450,E,0.00,337.19,111118,,,A*6F

$GPGGA,145839.000,5212.0481,N,00005.9450,E,1,10,0.84,4.2,M,47.0,M,,*62

$GPRMC,145841.000,A,5212.0481,N,00005.9450,E,0.01,293.02,111118,,,A*65

$GPGGA,145842.000,5212.0481,N,00005.9450,E,1,10,0.84,4.2,M,47.0,M,,*6E

$GPRMC,145844.000,A,5212.0481,N,00005.9450,E,0.01,146.91,111118,,,A*61

$GPGGA,145845.000,5212.0481,N,00005.9450,E,1,10,0.84,4.2,M,47.0,M,,*69

$GPRMC,145847.000,A,5212.0481,N,00005.9450,E,0.00,52.24,111118,,,A*59

$GPGGA,145848.000,5212.0481,N,00005.9450,E,1,10,0.84,4.2,M,47.0,M,,*64

$GPRMC,145850.000,A,5212.0481,N,00005.9450,E,0.01,65.71,111118,,,A*5A

$GPGGA,145851.000,5212.0481,N,00005.9450,E,1,10,0.84,4.2,M,47.0,M,,*6C

$GPRMC,145853.000,A,5212.0481,N,00005.9450,E,0.01,36.44,111118,,,A*59

$GPGGA,145854.000,5212.0481,N,00005.9450,E,1,10,0.84,4.2,M,47.0,M,,*69

$GPRMC,145856.000,A,5212.0481,N,00005.9450,E,0.01,200.54,111118,,,A*6A

$GPGGA,145857.000,5212.0481,N,00005.9450,E,1,10,0.84,4.2,M,47.0,M,,*6A

$GPRMC,145859.000,A,5212.0481,N,00005.9450,E,0.01,291.33,111118,,,A*6C

$GPGGA,145900.000,5212.0481,N,00005.9450,E,1,10,0.84,4.2,M,47.0,M,,*69

$GPRMC,145902.000,A,5212.0481,N,00005.9450,E,0.02,222.49,111118,,,A*65

$GPGGA,145903.000,5212.0481,N,00005.9450,E,1,10,0.84,4.2,M,47.0,M,,*6A

$GPRMC,145905.000,A,5212.0481,N,00005.9450,E,0.01,28.83,111118,,,A*5F

$GPGGA,145906.000,5212.0481,N,00005.9450,E,1,10,0.84,4.2,M,47.0,M,,*6F

$GPRMC,145908.000,A,5212.0481,N,00005.9450,E,0.03,291.45,111118,,,A*6A

$GPGGA,145909.000,5212.0481,N,00005.9450,E,1,10,0.84,4.2,M,47.0,M,,*60

$GPRMC,145911.000,A,5212.0481,N,00005.9450,E,0.01,212.75,111118,,,A*68

$GPGGA,145912.000,5212.0481,N,00005.9450,E,1,10,0.84,4.2,M,47.0,M,,*6A

$GPRMC,145914.000,A,5212.0481,N,00005.9450,E,0.02,8.35,111118,,,A*63

$GPGGA,145915.000,5212.0481,N,00005.9450,E,1,10,0.84,4.2,M,47.0,M,,*6D

$GPRMC,145917.000,A,5212.0481,N,00005.9450,E,0.00,88.32,111118,,,A*5D

$GPGGA,145918.000,5212.0481,N,00005.9450,E,1,10,0.84,4.2,M,47.0,M,,*60

$GPRMC,145920.000,A,5212.0481,N,00005.9450,E,0.00,279.64,111118,,,A*66

$GPGGA,145921.000,5212.0481,N,00005.9450,E,1,10,0.84,4.2,M,47.0,M,,*6A

$GPRMC,145923.000,A,5212.0481,N,00005.9450,E,0.01,244.37,111118,,,A*6C

$GPGGA,145924.000,5212.0481,N,00005.9450,E,1,10,0.84,4.2,M,47.0,M,,*6F

$GPRMC,145926.000,A,5212.0481,N,00005.9450,E,0.03,0.08,111118,,,A*65

$GPGGA,145927.000,5212.0481,N,00005.9450,E,1,10,0.84,4.2,M,47.0,M,,*6C

$GPRMC,145929.000,A,5212.0481,N,00005.9450,E,0.02,354.72,111118,,,A*64

$GPGGA,145930.000,5212.0481,N,00005.9450,E,1,10,0.84,4.2,M,47.0,M,,*6A

$GPRMC,145932.000,A,5212.0481,N,00005.9450,E,0.02,160.72,111118,,,A*6B

$GPGGA,145933.000,5212.0481,N,00005.9450,E,1,10,0.84,4.2,M,47.0,M,,*69

$GPRMC,145935.000,A,5212.0481,N,00005.9450,E,0.01,240.40,111118,,,A*6F

$GPGGA,145936.000,5212.0481,N,00005.9450,E,1,10,0.84,4.1,M,47.0,M,,*6F

$GPRMC,145938.000,A,5212.0481,N,00005.9450,E,0.01,51.10,111118,,,A*55

$GPGGA,145939.000,5212.0481,N,00005.9450,E,1,10,0.84,4.1,M,47.0,M,,*60

$GPRMC,145941.000,A,5212.0481,N,00005.9450,E,0.01,83.24,111118,,,A*53

$GPGGA,145942.000,5212.0481,N,00005.9450,E,1,10,0.84,4.1,M,47.0,M,,*6C

$GPRMC,145944.000,A,5212.0481,N,00005.9450,E,0.01,67.01,111118,,,A*5B

$GPGGA,145945.000,5212.0481,N,00005.9450,E,1,10,0.84,4.1,M,47.0,M,,*6B

$GPRMC,145947.000,A,5212.0481,N,00005.9450,E,0.01,141.23,111118,,,A*6D

$GPGGA,145948.000,5212.0481,N,00005.9450,E,1,10,0.84,4.1,M,47.0,M,,*66

$GPRMC,145950.000,A,5212.0481,N,00005.9450,E,0.01,147.99,111118,,,A*6C

$GPGGA,145951.000,5212.0481,N,00005.9450,E,1,10,0.84,4.1,M,47.0,M,,*6E

$GPRMC,145953.000,A,5212.0481,N,00005.9450,E,0.00,2.62,111118,,,A*6A

$GPGGA,145954.000,5212.0481,N,00005.9450,E,1,10,0.84,4.1,M,47.0,M,,*6B

$GPRMC,145956.000,A,5212.0481,N,00005.9450,E,0.00,10.14,111118,,,A*5D

$GPGGA,145957.000,5212.0481,N,00005.9450,E,1,10,0.84,4.1,M,47.0,M,,*68

$GPRMC,145959.000,A,5212.0481,N,00005.9450,E,0.02,96.63,111118,,,A*5E

$GPGGA,150000.000,5212.0481,N,00005.9450,E,1,10,0.84,4.1,M,47.0,M,,*67

$GPRMC,150002.000,A,5212.0481,N,00005.9450,E,0.01,359.66,111118,,,A*6B

$GPGGA,150003.000,5212.0481,N,00005.9450,E,1,10,0.84,4.1,M,47.0,M,,*64

$GPRMC,150005.000,A,5212.0481,N,00005.9450,E,0.02,300.25,111118,,,A*64

$GPGGA,150006.000,5212.0481,N,00005.9450,E,1,10,0.84,4.1,M,47.0,M,,*61

$GPRMC,150008.000,A,5212.0481,N,00005.9450,E,0.02,193.29,111118,,,A*6D

$GPGGA,150009.000,5212.0481,N,00005.9450,E,1,10,0.84,4.1,M,47.0,M,,*6E

$GPRMC,150011.000,A,5212.0481,N,00005.9450,E,0.01,82.73,111118,,,A*58

$GPGGA,150012.000,5212.0481,N,00005.9450,E,1,10,0.84,4.1,M,47.0,M,,*64

$GPRMC,150014.000,A,5212.0481,N,00005.9450,E,0.00,358.06,111118,,,A*6A

$GPGGA,150015.000,5212.0481,N,00005.9450,E,1,10,0.84,4.1,M,47.0,M,,*63

$GPRMC,150017.000,A,5212.0481,N,00005.9450,E,0.01,320.61,111118,,,A*66

$GPGGA,150018.000,5212.0481,N,00005.9450,E,1,10,0.84,4.1,M,47.0,M,,*6E

$GPRMC,150020.000,A,5212.0481,N,00005.9450,E,0.01,357.11,111118,,,A*65

$GPGGA,150021.000,5212.0481,N,00005.9450,E,1,10,0.84,4.1,M,47.0,M,,*64

$GPRMC,150023.000,A,5212.0481,N,00005.9450,E,0.00,135.89,111118,,,A*60

$GPGGA,150024.000,5212.0481,N,00005.9450,E,1,10,0.84,4.1,M,47.0,M,,*61

$GPRMC,150026.000,A,5212.0481,N,00005.9450,E,0.01,310.24,111118,,,A*66

$GPGGA,150027.000,5212.0481,N,00005.9450,E,1,10,0.84,4.1,M,47.0,M,,*62

$GPRMC,150029.000,A,5212.0481,N,00005.9450,E,0.01,172.30,111118,,,A*6A

$GPGGA,150030.000,5212.0481,N,00005.9450,E,1,10,0.84,4.1,M,47.0,M,,*64

$GPRMC,150032.000,A,5212.0481,N,00005.9450,E,0.01,174.79,111118,,,A*6B

$GPGGA,150033.000,5212.0481,N,00005.9450,E,1,10,0.84,4.1,M,47.0,M,,*67

$GPRMC,150035.000,A,5212.0481,N,00005.9450,E,0.01,358.61,111118,,,A*69

$GPGGA,150036.000,5212.0481,N,00005.9450,E,1,10,0.84,4.1,M,47.0,M,,*62

$GPRMC,150038.000,A,5212.0481,N,00005.9450,E,0.00,133.47,111118,,,A*6E

$GPGGA,150039.000,5212.0481,N,00005.9450,E,1,10,0.84,4.1,M,47.0,M,,*6D

$GPRMC,150041.000,A,5212.0481,N,00005.9450,E,0.02,344.69,111118,,,A*6C

$GPGGA,150042.000,5212.0481,N,00005.9450,E,1,10,0.84,4.1,M,47.0,M,,*61

$GPRMC,150044.000,A,5212.0481,N,00005.9450,E,0.01,126.14,111118,,,A*66

$GPGGA,150045.000,5212.0481,N,00005.9450,E,1,10,0.84,4.1,M,47.0,M,,*66

$GPRMC,150047.000,A,5212.0481,N,00005.9450,E,0.02,316.63,111118,,,A*67

$GPGGA,150048.000,5212.0481,N,00005.9450,E,1,10,0.84,4.1,M,47.0,M,,*6B

$GPRMC,150050.000,A,5212.0481,N,00005.9450,E,0.00,348.93,111118,,,A*67

$GPGGA,150051.000,5212.0481,N,00005.9450,E,1,10,0.84,4.1,M,47.0,M,,*63

$GPRMC,150053.000,A,5212.0481,N,00005.9450,E,0.02,307.73,111118,,,A*63

$GPGGA,150054.000,5212.0481,N,00005.9450,E,1,10,0.84,4.1,M,47.0,M,,*66

$GPRMC,150056.000,A,5212.0481,N,00005.9450,E,0.02,2.20,111118,,,A*66

$GPGGA,150057.000,5212.0481,N,00005.9450,E,1,10,0.84,4.1,M,47.0,M,,*65

$GPRMC,150059.000,A,5212.0481,N,00005.9450,E,0.01,342.01,111118,,,A*6E

$GPGGA,150100.000,5212.0481,N,00005.9450,E,1,10,0.84,4.1,M,47.0,M,,*66

$GPRMC,150102.000,A,5212.0481,N,00005.9450,E,0.02,359.56,111118,,,A*6A

$GPGGA,150103.000,5212.0481,N,00005.9450,E,1,10,0.84,4.1,M,47.0,M,,*65

$GPRMC,150105.000,A,5212.0481,N,00005.9450,E,0.02,304.02,111118,,,A*64

$GPGGA,150106.000,5212.0481,N,00005.9450,E,1,10,0.84,4.1,M,47.0,M,,*60

$GPRMC,150108.000,A,5212.0481,N,00005.9450,E,0.01,15.10,111118,,,A*5A

$GPGGA,150109.000,5212.0481,N,00005.9450,E,1,10,0.84,4.1,M,47.0,M,,*6F

$GPRMC,150111.000,A,5212.0481,N,00005.9450,E,0.00,138.89,111118,,,A*6D

$GPGGA,150112.000,5212.0481,N,00005.9450,E,1,10,0.84,4.1,M,47.0,M,,*65

$GPRMC,150114.000,A,5212.0481,N,00005.9450,E,0.01,29.79,111118,,,A*57

$GPGGA,150115.000,5212.0481,N,00005.9450,E,1,10,0.84,4.1,M,47.0,M,,*62

$GPRMC,150117.000,A,5212.0481,N,00005.9450,E,0.01,352.07,111118,,,A*62

$GPGGA,150118.000,5212.0481,N,00005.9450,E,1,10,0.84,4.1,M,47.0,M,,*6F

$GPRMC,150120.000,A,5212.0481,N,00005.9450,E,0.03,204.84,111118,,,A*6D

$GPGGA,150121.000,5212.0481,N,00005.9450,E,1,10,0.84,4.1,M,47.0,M,,*65

$GPRMC,150123.000,A,5212.0481,N,00005.9450,E,0.03,76.10,111118,,,A*54

$GPGGA,150124.000,5212.0481,N,00005.9450,E,1,10,0.84,4.1,M,47.0,M,,*60

$GPRMC,150126.000,A,5212.0481,N,00005.9450,E,0.01,149.36,111118,,,A*6A

$GPGGA,150127.000,5212.0481,N,00005.9450,E,1,10,0.84,4.1,M,47.0,M,,*63

$GPRMC,150129.000,A,5212.0481,N,00005.9450,E,0.00,240.56,111118,,,A*68

$GPGGA,150130.000,5212.0481,N,00005.9450,E,1,10,0.84,4.1,M,47.0,M,,*65

$GPRMC,150132.000,A,5212.0481,N,00005.9450,E,0.01,176.60,111118,,,A*60

$GPGGA,150133.000,5212.0481,N,00005.9450,E,1,10,0.84,4.1,M,47.0,M,,*66

$GPRMC,150135.000,A,5212.0481,N,00005.9450,E,0.02,128.06,111118,,,A*6F

$GPGGA,150136.000,5212.0481,N,00005.9450,E,1,10,0.84,4.1,M,47.0,M,,*63

$GPRMC,150138.000,A,5212.0481,N,00005.9450,E,0.01,348.26,111118,,,A*67

$GPGGA,150139.000,5212.0481,N,00005.9450,E,1,10,0.84,4.1,M,47.0,M,,*6C

$GPRMC,150141.000,A,5212.0481,N,00005.9450,E,0.01,14.48,111118,,,A*5B

$GPGGA,150142.000,5212.0481,N,00005.9450,E,1,10,0.84,4.1,M,47.0,M,,*60

$GPRMC,150144.000,A,5212.0481,N,00005.9450,E,0.01,47.93,111118,,,A*5E

$GPGGA,150145.000,5212.0481,N,00005.9450,E,1,10,0.84,4.1,M,47.0,M,,*67

$GPRMC,150147.000,A,5212.0481,N,00005.9450,E,0.01,323.73,111118,,,A*62

$GPGGA,150148.000,5212.0481,N,00005.9450,E,1,10,0.84,4.1,M,47.0,M,,*6A

$GPRMC,150150.000,A,5212.0481,N,00005.9450,E,0.01,180.78,111118,,,A*64

$GPGGA,150151.000,5212.0481,N,00005.9450,E,1,10,0.84,4.1,M,47.0,M,,*62

$GPRMC,150153.000,A,5212.0481,N,00005.9450,E,0.01,22.04,111118,,,A*55

$GPGGA,150154.000,5212.0481,N,00005.9450,E,1,10,0.84,4.1,M,47.0,M,,*67

$GPRMC,150156.000,A,5212.0481,N,00005.9450,E,0.00,351.32,111118,,,A*63

$GPGGA,150157.000,5212.0481,N,00005.9450,E,1,10,0.84,4.1,M,47.0,M,,*64

$GPRMC,150159.000,A,5212.0481,N,00005.9450,E,0.01,359.20,111118,,,A*66

$GPGGA,150200.000,5212.0481,N,00005.9450,E,1,10,0.84,4.1,M,47.0,M,,*65

$GPRMC,150202.000,A,5212.0481,N,00005.9450,E,0.00,51.01,111118,,,A*52

$GPGGA,150203.000,5212.0481,N,00005.9450,E,1,10,0.84,4.1,M,47.0,M,,*66

$GPRMC,150205.000,A,5212.0481,N,00005.9450,E,0.01,147.05,111118,,,A*66

$GPGGA,150206.000,5212.0481,N,00005.9450,E,1,10,0.84,4.1,M,47.0,M,,*63

$GPRMC,150208.000,A,5212.0481,N,00005.9450,E,0.00,200.07,111118,,,A*68

$GPGGA,150209.000,5212.0481,N,00005.9450,E,1,10,0.84,4.1,M,47.0,M,,*6C

$GPRMC,150211.000,A,5212.0481,N,00005.9450,E,0.02,94.76,111118,,,A*5B

$GPGGA,150212.000,5212.0481,N,00005.9450,E,1,10,0.84,4.1,M,47.0,M,,*66

$GPRMC,150214.000,A,5212.0481,N,00005.9450,E,0.02,138.70,111118,,,A*6F

$GPGGA,150215.000,5212.0481,N,00005.9450,E,1,10,0.84,4.1,M,47.0,M,,*61

$GPRMC,150217.000,A,5212.0481,N,00005.9450,E,0.01,40.58,111118,,,A*5B

$GPGGA,150218.000,5212.0481,N,00005.9450,E,1,10,0.84,4.1,M,47.0,M,,*6C

$GPRMC,150220.000,A,5212.0481,N,00005.9450,E,0.01,115.53,111118,,,A*65

$GPGGA,150221.000,5212.0481,N,00005.9450,E,1,10,0.84,4.1,M,47.0,M,,*66

$GPRMC,150223.000,A,5212.0481,N,00005.9450,E,0.02,328.09,111118,,,A*66

$GPGGA,150224.000,5212.0481,N,00005.9450,E,1,10,0.84,4.1,M,47.0,M,,*63

$GPRMC,150226.000,A,5212.0481,N,00005.9450,E,0.01,179.93,111118,,,A*65

$GPGGA,150227.000,5212.0481,N,00005.9450,E,1,10,0.84,4.1,M,47.0,M,,*60

$GPRMC,150229.000,A,5212.0481,N,00005.9450,E,0.01,104.11,111118,,,A*6A

$GPGGA,150230.000,5212.0481,N,00005.9450,E,1,10,0.84,4.1,M,47.0,M,,*66

$GPRMC,150232.000,A,5212.0481,N,00005.9450,E,0.03,6.13,111118,,,A*63

$GPGGA,150233.000,5212.0481,N,00005.9450,E,1,10,0.84,4.1,M,47.0,M,,*65

$GPRMC,150235.000,A,5212.0481,N,00005.9450,E,0.01,177.81,111118,,,A*6A

$GPGGA,150236.000,5212.0481,N,00005.9450,E,1,10,0.84,4.1,M,47.0,M,,*60

$GPRMC,150238.000,A,5212.0481,N,00005.9450,E,0.02,344.11,111118,,,A*6F

$GPGGA,150239.000,5212.0481,N,00005.9450,E,1,10,0.84,4.1,M,47.0,M,,*6F

$GPRMC,150241.000,A,5212.0481,N,00005.9450,E,0.02,48.08,111118,,,A*56

$GPGGA,150242.000,5212.0481,N,00005.9450,E,1,10,0.84,4.1,M,47.0,M,,*63

$GPRMC,150244.000,A,5212.0481,N,00005.9450,E,0.00,135.09,111118,,,A*6B

$GPGGA,150245.000,5212.0481,N,00005.9450,E,1,10,0.84,4.1,M,47.0,M,,*64

$GPRMC,150247.000,A,5212.0481,N,00005.9450,E,0.01,267.04,111118,,,A*60

$GPGGA,150248.000,5212.0481,N,00005.9450,E,1,10,0.84,4.1,M,47.0,M,,*69

$GPRMC,150250.000,A,5212.0481,N,00005.9450,E,0.01,322.78,111118,,,A*6D

$GPGGA,150251.000,5212.0481,N,00005.9450,E,1,10,0.83,4.1,M,47.0,M,,*66

$GPRMC,150253.000,A,5212.0481,N,00005.9450,E,0.02,323.96,111118,,,A*6C

$GPGGA,150254.000,5212.0481,N,00005.9450,E,1,10,0.84,4.1,M,47.0,M,,*64

$GPRMC,150256.000,A,5212.0481,N,00005.9450,E,0.00,125.10,111118,,,A*61

$GPGGA,150257.000,5212.0481,N,00005.9450,E,1,10,0.83,4.1,M,47.0,M,,*60

$GPRMC,150259.000,A,5212.0481,N,00005.9450,E,0.02,331.06,111118,,,A*6C

$GPGGA,150300.000,5212.0481,N,00005.9450,E,1,10,0.83,4.1,M,47.0,M,,*63

$GPRMC,150302.000,A,5212.0481,N,00005.9450,E,0.00,85.50,111118,,,A*5E

$GPGGA,150303.000,5212.0481,N,00005.9450,E,1,10,0.83,4.1,M,47.0,M,,*60

$GPRMC,150305.000,A,5212.0481,N,00005.9450,E,0.01,347.07,111118,,,A*67

$GPGGA,150306.000,5212.0481,N,00005.9450,E,1,10,0.83,4.1,M,47.0,M,,*65

$GPRMC,150308.000,A,5212.0481,N,00005.9450,E,0.01,137.50,111118,,,A*6D

$GPGGA,150309.000,5212.0481,N,00005.9450,E,1,10,0.83,4.1,M,47.0,M,,*6A

$GPRMC,150311.000,A,5212.0481,N,00005.9450,E,0.01,295.35,111118,,,A*6D

$GPGGA,150312.000,5212.0481,N,00005.9450,E,1,10,0.83,4.1,M,47.0,M,,*60

$GPRMC,150314.000,A,5212.0481,N,00005.9450,E,0.01,173.88,111118,,,A*65

$GPGGA,150315.000,5212.0481,N,00005.9450,E,1,10,0.83,4.1,M,47.0,M,,*67

$GPRMC,150317.000,A,5212.0481,N,00005.9450,E,0.00,325.07,111118,,,A*61

$GPGGA,150318.000,5212.0481,N,00005.9450,E,1,10,0.83,4.1,M,47.0,M,,*6A

$GPRMC,150320.000,A,5212.0481,N,00005.9450,E,0.01,275.81,111118,,,A*6E

$GPGGA,150321.000,5212.0481,N,00005.9450,E,1,10,0.83,4.1,M,47.0,M,,*60

$GPRMC,150323.000,A,5212.0481,N,00005.9450,E,0.00,249.15,111118,,,A*6E

$GPGGA,150324.000,5212.0481,N,00005.9450,E,1,10,0.83,4.1,M,47.0,M,,*65

$GPRMC,150326.000,A,5212.0481,N,00005.9450,E,0.03,151.74,111118,,,A*65

$GPGGA,150327.000,5212.0481,N,00005.9450,E,1,10,0.83,4.1,M,47.0,M,,*66

$GPRMC,150329.000,A,5212.0481,N,00005.9450,E,0.01,354.03,111118,,,A*6F

$GPGGA,150330.000,5212.0481,N,00005.9450,E,1,10,0.83,4.1,M,47.0,M,,*60

$GPRMC,150332.000,A,5212.0481,N,00005.9450,E,0.01,51.69,111118,,,A*5F

$GPGGA,150333.000,5212.0481,N,00005.9450,E,1,10,0.83,4.1,M,47.0,M,,*63

$GPRMC,150335.000,A,5212.0481,N,00005.9450,E,0.01,89.18,111118,,,A*5B

$GPGGA,150336.000,5212.0481,N,00005.9450,E,1,10,0.83,4.1,M,47.0,M,,*66

$GPRMC,150338.000,A,5212.0481,N,00005.9450,E,0.01,27.54,111118,,,A*5A

$GPGGA,150339.000,5212.0481,N,00005.9450,E,1,10,0.83,4.1,M,47.0,M,,*69

$GPRMC,150341.000,A,5212.0481,N,00005.9450,E,0.02,221.89,111118,,,A*63

$GPGGA,150342.000,5212.0481,N,00005.9450,E,1,10,0.83,4.1,M,47.0,M,,*65

$GPRMC,150344.000,A,5212.0481,N,00005.9450,E,0.01,304.22,111118,,,A*62

$GPGGA,150345.000,5212.0481,N,00005.9450,E,1,10,0.83,4.1,M,47.0,M,,*62

$GPRMC,150347.000,A,5212.0481,N,00005.9450,E,0.01,351.50,111118,,,A*64

$GPGGA,150348.000,5212.0481,N,00005.9450,E,1,10,0.83,4.1,M,47.0,M,,*6F

$GPRMC,150350.000,A,5212.0481,N,00005.9450,E,0.01,0.43,111118,,,A*67

$GPGGA,150351.000,5212.0481,N,00005.9450,E,1,10,0.83,4.1,M,47.0,M,,*67

$GPRMC,150353.000,A,5212.0481,N,00005.9450,E,0.02,21.16,111118,,,A*54

$GPGGA,150354.000,5212.0481,N,00005.9450,E,1,10,0.83,4.1,M,47.0,M,,*62

$GPRMC,150356.000,A,5212.0481,N,00005.9450,E,0.01,325.96,111118,,,A*6D

$GPGGA,150357.000,5212.0481,N,00005.9450,E,1,10,0.83,4.1,M,47.0,M,,*61

$GPRMC,150359.000,A,5212.0481,N,00005.9450,E,0.01,198.92,111118,,,A*62

$GPGGA,150400.000,5212.0481,N,00005.9450,E,1,10,0.83,4.1,M,47.0,M,,*64

$GPRMC,150402.000,A,5212.0481,N,00005.9450,E,0.01,2.85,111118,,,A*6F

$GPGGA,150403.000,5212.0481,N,00005.9450,E,1,10,0.83,4.1,M,47.0,M,,*67

$GPRMC,150405.000,A,5212.0481,N,00005.9450,E,0.01,11.51,111118,,,A*53

$GPGGA,150406.000,5212.0481,N,00005.9450,E,1,10,0.83,4.1,M,47.0,M,,*62

$GPRMC,150408.000,A,5212.0481,N,00005.9450,E,0.01,150.81,111118,,,A*67

$GPGGA,150409.000,5212.0481,N,00005.9450,E,1,10,0.83,4.1,M,47.0,M,,*6D

$GPRMC,150411.000,A,5212.0481,N,00005.9450,E,0.01,320.20,111118,,,A*61

$GPGGA,150412.000,5212.0481,N,00005.9450,E,1,10,0.83,4.1,M,47.0,M,,*67

$GPRMC,150414.000,A,5212.0481,N,00005.9450,E,0.02,3.02,111118,,,A*65

$GPGGA,150415.000,5212.0481,N,00005.9450,E,1,10,0.83,4.1,M,47.0,M,,*60

$GPRMC,150417.000,A,5212.0481,N,00005.9450,E,0.03,350.80,111118,,,A*68

$GPGGA,150418.000,5212.0481,N,00005.9450,E,1,10,0.83,4.1,M,47.0,M,,*6D

$GPRMC,150420.000,A,5212.0481,N,00005.9450,E,0.02,153.76,111118,,,A*65

$GPGGA,150421.000,5212.0481,N,00005.9450,E,1,10,0.83,4.1,M,47.0,M,,*67

$GPRMC,150423.000,A,5212.0481,N,00005.9450,E,0.02,144.36,111118,,,A*64

$GPGGA,150424.000,5212.0481,N,00005.9450,E,1,10,0.83,4.1,M,47.0,M,,*62

$GPRMC,150426.000,A,5212.0481,N,00005.9450,E,0.01,157.35,111118,,,A*63

$GPGGA,150427.000,5212.0481,N,00005.9450,E,1,10,0.83,4.1,M,47.0,M,,*61

$GPRMC,150429.000,A,5212.0481,N,00005.9450,E,0.02,163.81,111118,,,A*67

$GPGGA,150430.000,5212.0481,N,00005.9450,E,1,10,0.83,4.1,M,47.0,M,,*67

$GPRMC,150432.000,A,5212.0481,N,00005.9450,E,0.01,99.92,111118,,,A*58

$GPGGA,150433.000,5212.0481,N,00005.9450,E,1,10,0.83,4.1,M,47.0,M,,*64

$GPRMC,150435.000,A,5212.0481,N,00005.9450,E,0.00,235.37,111118,,,A*65

$GPGGA,150436.000,5212.0481,N,00005.9450,E,1,10,0.83,4.1,M,47.0,M,,*61

$GPRMC,150438.000,A,5212.0481,N,00005.9450,E,0.01,320.30,111118,,,A*6B

$GPGGA,150439.000,5212.0481,N,00005.9450,E,1,10,0.83,4.1,M,47.0,M,,*6E

$GPRMC,150441.000,A,5212.0481,N,00005.9450,E,0.01,357.72,111118,,,A*63

$GPGGA,150442.000,5212.0481,N,00005.9450,E,1,10,0.83,4.1,M,47.0,M,,*62

$GPRMC,150444.000,A,5212.0481,N,00005.9450,E,0.03,341.89,111118,,,A*67

$GPGGA,150445.000,5212.0481,N,00005.9450,E,1,10,0.83,4.1,M,47.0,M,,*65

$GPRMC,150447.000,A,5212.0481,N,00005.9450,E,0.01,33.68,111118,,,A*5F

$GPGGA,150448.000,5212.0481,N,00005.9450,E,1,10,0.83,4.1,M,47.0,M,,*68

$GPRMC,150450.000,A,5212.0481,N,00005.9450,E,0.02,325.25,111118,,,A*67

$GPGGA,150451.000,5212.0481,N,00005.9450,E,1,10,0.83,4.1,M,47.0,M,,*60

$GPRMC,150453.000,A,5212.0481,N,00005.9450,E,0.00,153.75,111118,,,A*60

$GPGGA,150454.000,5212.0481,N,00005.9450,E,1,10,0.83,4.1,M,47.0,M,,*65

$GPRMC,150456.000,A,5212.0481,N,00005.9450,E,0.01,18.50,111118,,,A*5D

$GPGGA,150457.000,5212.0481,N,00005.9450,E,1,10,0.83,4.1,M,47.0,M,,*66

$GPRMC,150459.000,A,5212.0481,N,00005.9450,E,0.01,326.17,111118,,,A*6F

$GPGGA,150500.000,5212.0481,N,00005.9450,E,1,10,0.83,4.1,M,47.0,M,,*65

$GPRMC,150502.000,A,5212.0481,N,00005.9450,E,0.01,186.21,111118,,,A*6D

$GPGGA,150503.000,5212.0481,N,00005.9450,E,1,10,0.83,4.1,M,47.0,M,,*66

$GPRMC,150505.000,A,5212.0481,N,00005.9450,E,0.01,202.81,111118,,,A*6F

$GPGGA,150506.000,5212.0481,N,00005.9450,E,1,10,0.83,4.1,M,47.0,M,,*63

$GPRMC,150508.000,A,5212.0481,N,00005.9450,E,0.00,100.73,111118,,,A*6F

$GPGGA,150509.000,5212.0481,N,00005.9450,E,1,10,0.83,4.1,M,47.0,M,,*6C

$GPRMC,150511.000,A,5212.0481,N,00005.9450,E,0.01,221.29,111118,,,A*69

$GPGGA,150512.000,5212.0481,N,00005.9450,E,1,10,0.83,4.1,M,47.0,M,,*66

$GPRMC,150514.000,A,5212.0481,N,00005.9450,E,0.01,343.33,111118,,,A*62

$GPGGA,150515.000,5212.0481,N,00005.9450,E,1,10,0.83,4.1,M,47.0,M,,*61

$GPRMC,150517.000,A,5212.0481,N,00005.9450,E,0.00,30.71,111118,,,A*51

$GPGGA,150518.000,5212.0481,N,00005.9450,E,1,10,0.83,4.1,M,47.0,M,,*6C

$GPRMC,150520.000,A,5212.0481,N,00005.9450,E,0.01,206.29,111118,,,A*6E

$GPGGA,150521.000,5212.0481,N,00005.9450,E,1,10,0.83,4.1,M,47.0,M,,*66

$GPRMC,150523.000,A,5212.0481,N,00005.9450,E,0.01,356.33,111118,,,A*62

$GPGGA,150524.000,5212.0481,N,00005.9450,E,1,10,0.83,4.1,M,47.0,M,,*63

$GPRMC,150526.000,A,5212.0481,N,00005.9450,E,0.02,31.30,111118,,,A*55

$GPGGA,150527.000,5212.0481,N,00005.9450,E,1,10,0.83,4.1,M,47.0,M,,*60

$GPRMC,150529.000,A,5212.0481,N,00005.9450,E,0.02,185.23,111118,,,A*66

$GPGGA,150530.000,5212.0481,N,00005.9450,E,1,10,0.83,4.1,M,47.0,M,,*66

$GPRMC,150532.000,A,5212.0481,N,00005.9450,E,0.02,343.95,111118,,,A*69

$GPGGA,150533.000,5212.0481,N,00005.9450,E,1,10,0.83,4.1,M,47.0,M,,*65

$GPRMC,150535.000,A,5212.0481,N,00005.9450,E,0.01,12.72,111118,,,A*53

$GPGGA,150536.000,5212.0481,N,00005.9450,E,1,10,0.83,4.1,M,47.0,M,,*60

$GPRMC,150538.000,A,5212.0481,N,00005.9450,E,0.01,182.77,111118,,,A*63

$GPGGA,150539.000,5212.0481,N,00005.9450,E,1,10,0.83,4.1,M,47.0,M,,*6F

$GPRMC,150541.000,A,5212.0481,N,00005.9450,E,0.02,240.81,111118,,,A*6A

$GPGGA,150542.000,5212.0481,N,00005.9450,E,1,10,0.83,4.1,M,47.0,M,,*63

$GPRMC,150544.000,A,5212.0481,N,00005.9450,E,0.02,28.12,111118,,,A*59

$GPGGA,150545.000,5212.0481,N,00005.9450,E,1,10,0.83,4.1,M,47.0,M,,*64

$GPRMC,150547.000,A,5212.0481,N,00005.9450,E,0.01,356.32,111118,,,A*61

$GPGGA,150548.000,5212.0481,N,00005.9450,E,1,10,0.83,4.1,M,47.0,M,,*69

$GPRMC,150550.000,A,5212.0481,N,00005.9450,E,0.01,204.41,111118,,,A*65

$GPGGA,150551.000,5212.0481,N,00005.9450,E,1,10,0.83,4.1,M,47.0,M,,*61

$GPRMC,150553.000,A,5212.0481,N,00005.9450,E,0.01,327.87,111118,,,A*6C

$GPGGA,150554.000,5212.0481,N,00005.9450,E,1,10,0.83,4.1,M,47.0,M,,*64

$GPRMC,150556.000,A,5212.0481,N,00005.9450,E,0.01,29.03,111118,,,A*58

$GPGGA,150557.000,5212.0481,N,00005.9450,E,1,10,0.83,4.1,M,47.0,M,,*67

$GPRMC,150559.000,A,5212.0481,N,00005.9450,E,0.01,283.34,111118,,,A*61

$GPGGA,150600.000,5212.0481,N,00005.9450,E,1,10,0.83,4.1,M,47.0,M,,*66

$GPRMC,150602.000,A,5212.0481,N,00005.9450,E,0.01,293.59,111118,,,A*66

$GPGGA,150603.000,5212.0481,N,00005.9450,E,1,10,0.83,4.1,M,47.0,M,,*65

$GPRMC,150605.000,A,5212.0481,N,00005.9450,E,0.01,55.12,111118,,,A*56

$GPGGA,150606.000,5212.0481,N,00005.9450,E,1,10,0.83,4.1,M,47.0,M,,*60

$GPRMC,150608.000,A,5212.0481,N,00005.9450,E,0.01,93.84,111118,,,A*5E

$GPGGA,150609.000,5212.0481,N,00005.9450,E,1,10,0.83,4.1,M,47.0,M,,*6F

$GPRMC,150611.000,A,5212.0481,N,00005.9450,E,0.01,259.66,111118,,,A*6E

$GPGGA,150612.000,5212.0481,N,00005.9450,E,1,10,0.83,4.1,M,47.0,M,,*65

$GPRMC,150614.000,A,5212.0481,N,00005.9450,E,0.00,192.86,111118,,,A*60

$GPGGA,150615.000,5212.0481,N,00005.9450,E,1,10,0.83,4.1,M,47.0,M,,*62

$GPRMC,150617.000,A,5212.0481,N,00005.9450,E,0.01,40.66,111118,,,A*52

$GPGGA,150618.000,5212.0481,N,00005.9450,E,1,10,0.83,4.1,M,47.0,M,,*6F

$GPRMC,150620.000,A,5212.0481,N,00005.9450,E,0.01,326.15,111118,,,A*61

$GPGGA,150621.000,5212.0481,N,00005.9450,E,1,10,0.83,4.1,M,47.0,M,,*65

$GPRMC,150623.000,A,5212.0481,N,00005.9450,E,0.01,344.34,111118,,,A*65

$GPGGA,150624.000,5212.0481,N,00005.9450,E,1,10,0.83,4.1,M,47.0,M,,*60

$GPRMC,150626.000,A,5212.0481,N,00005.9450,E,0.01,36.51,111118,,,A*55

$GPGGA,150627.000,5212.0481,N,00005.9450,E,1,10,0.83,4.1,M,47.0,M,,*63

$GPRMC,150629.000,A,5212.0481,N,00005.9450,E,0.01,9.81,111118,,,A*6B

$GPGGA,150630.000,5212.0481,N,00005.9450,E,1,10,0.83,4.1,M,47.0,M,,*65

$GPRMC,150632.000,A,5212.0481,N,00005.9450,E,0.01,273.57,111118,,,A*65

$GPGGA,150633.000,5212.0481,N,00005.9450,E,1,10,0.83,4.1,M,47.0,M,,*66

$GPRMC,150635.000,A,5212.0481,N,00005.9450,E,0.01,180.33,111118,,,A*6F

$GPGGA,150636.000,5212.0481,N,00005.9450,E,1,10,0.83,4.1,M,47.0,M,,*63

$GPRMC,150638.000,A,5212.0481,N,00005.9450,E,0.00,295.68,111118,,,A*6A

$GPGGA,150639.000,5212.0481,N,00005.9450,E,1,10,0.83,4.1,M,47.0,M,,*6C

$GPRMC,150641.000,A,5212.0481,N,00005.9450,E,0.01,56.36,111118,,,A*53

$GPGGA,150642.000,5212.0481,N,00005.9450,E,1,10,0.83,4.1,M,47.0,M,,*60

$GPRMC,150644.000,A,5212.0481,N,00005.9450,E,0.01,305.20,111118,,,A*64

$GPGGA,150645.000,5212.0481,N,00005.9450,E,1,10,0.83,4.1,M,47.0,M,,*67

$GPRMC,150647.000,A,5212.0481,N,00005.9450,E,0.02,216.84,111118,,,A*69

$GPGGA,150648.000,5212.0481,N,00005.9450,E,1,10,0.83,4.1,M,47.0,M,,*6A

$GPRMC,150650.000,A,5212.0481,N,00005.9450,E,0.02,245.43,111118,,,A*62

$GPGGA,150651.000,5212.0481,N,00005.9450,E,1,10,0.83,4.1,M,47.0,M,,*62

$GPRMC,150653.000,A,5212.0481,N,00005.9450,E,0.01,209.72,111118,,,A*68

$GPGGA,150654.000,5212.0481,N,00005.9450,E,1,10,0.83,4.1,M,47.0,M,,*67

$GPRMC,150656.000,A,5212.0481,N,00005.9450,E,0.01,220.37,111118,,,A*67

$GPGGA,150657.000,5212.0481,N,00005.9450,E,1,10,0.83,4.1,M,47.0,M,,*64

$GPRMC,150659.000,A,5212.0481,N,00005.9450,E,0.00,5.65,111118,,,A*6B

$GPGGA,150700.000,5212.0481,N,00005.9450,E,1,10,0.83,4.1,M,47.0,M,,*67

$GPRMC,150702.000,A,5212.0481,N,00005.9450,E,0.01,36.42,111118,,,A*50

$GPGGA,150703.000,5212.0481,N,00005.9450,E,1,10,0.83,4.1,M,47.0,M,,*64

$GPRMC,150705.000,A,5212.0481,N,00005.9450,E,0.02,250.63,111118,,,A*65

$GPGGA,150706.000,5212.0481,N,00005.9450,E,1,10,0.83,4.1,M,47.0,M,,*61

$GPRMC,150708.000,A,5212.0481,N,00005.9450,E,0.01,334.80,111118,,,A*65

$GPGGA,150709.000,5212.0481,N,00005.9450,E,1,10,0.83,4.1,M,47.0,M,,*6E

$GPRMC,150711.000,A,5212.0481,N,00005.9449,E,0.00,291.36,111118,,,A*67

$GPGGA,150712.000,5212.0481,N,00005.9449,E,1,10,0.83,4.1,M,47.0,M,,*6C

$GPRMC,150714.000,A,5212.0481,N,00005.9449,E,0.01,82.61,111118,,,A*51

$GPGGA,150715.000,5212.0481,N,00005.9449,E,1,10,0.83,4.1,M,47.0,M,,*6B

$GPRMC,150717.000,A,5212.0481,N,00005.9449,E,0.02,59.66,111118,,,A*50

$GPGGA,150718.000,5212.0481,N,00005.9449,E,1,10,0.83,4.1,M,47.0,M,,*66

$GPRMC,150720.000,A,5212.0481,N,00005.9449,E,0.01,181.58,111118,,,A*6E

$GPGGA,150721.000,5212.0481,N,00005.9449,E,1,10,0.83,4.1,M,47.0,M,,*6C

$GPRMC,150723.000,A,5212.0481,N,00005.9449,E,0.00,216.65,111118,,,A*6F

$GPGGA,150724.000,5212.0481,N,00005.9449,E,1,10,0.83,4.1,M,47.0,M,,*69

$GPRMC,150726.000,A,5212.0481,N,00005.9449,E,0.01,22.33,111118,,,A*5D

$GPGGA,150727.000,5212.0481,N,00005.9449,E,1,10,0.83,4.1,M,47.0,M,,*6A

$GPRMC,150729.000,A,5212.0481,N,00005.9449,E,0.00,168.95,111118,,,A*60

$GPGGA,150730.000,5212.0481,N,00005.9449,E,1,10,0.83,4.1,M,47.0,M,,*6C

$GPRMC,150732.000,A,5212.0481,N,00005.9449,E,0.01,268.71,111118,,,A*62

$GPGGA,150733.000,5212.0481,N,00005.9449,E,1,10,0.83,4.1,M,47.0,M,,*6F

$GPRMC,150735.000,A,5212.0481,N,00005.9449,E,0.01,189.24,111118,,,A*69

$GPGGA,150736.000,5212.0481,N,00005.9449,E,1,10,0.83,4.1,M,47.0,M,,*6A

$GPRMC,150738.000,A,5212.0481,N,00005.9449,E,0.01,128.26,111118,,,A*6D

$GPGGA,150739.000,5212.0481,N,00005.9449,E,1,10,0.83,4.1,M,47.0,M,,*65

$GPRMC,150741.000,A,5212.0481,N,00005.9449,E,0.02,22.65,111118,,,A*5C

$GPGGA,150742.000,5212.0481,N,00005.9449,E,1,10,0.83,4.1,M,47.0,M,,*69

$GPRMC,150744.000,A,5212.0481,N,00005.9449,E,0.00,356.26,111118,,,A*6C

$GPGGA,150745.000,5212.0481,N,00005.9449,E,1,10,0.83,4.1,M,47.0,M,,*6E

$GPRMC,150747.000,A,5212.0481,N,00005.9449,E,0.00,118.76,111118,,,A*62

$GPGGA,150748.000,5212.0481,N,00005.9449,E,1,10,0.83,4.1,M,47.0,M,,*63

$GPRMC,150750.000,A,5212.0481,N,00005.9449,E,0.01,109.80,111118,,,A*6C

$GPGGA,150751.000,5212.0481,N,00005.9449,E,1,10,0.83,4.1,M,47.0,M,,*6B

$GPRMC,150753.000,A,5212.0481,N,00005.9449,E,0.01,350.65,111118,,,A*6A

$GPGGA,150754.000,5212.0481,N,00005.9449,E,1,10,0.83,4.1,M,47.0,M,,*6E

$GPRMC,150756.000,A,5212.0481,N,00005.9449,E,0.01,197.74,111118,,,A*66

$GPGGA,150757.000,5212.0481,N,00005.9449,E,1,10,0.83,4.1,M,47.0,M,,*6D

$GPRMC,150759.000,A,5212.0481,N,00005.9449,E,0.01,12.65,111118,,,A*55

$GPGGA,150800.000,5212.0481,N,00005.9449,E,1,10,0.83,4.1,M,47.0,M,,*60

$GPRMC,150802.000,A,5212.0481,N,00005.9449,E,0.01,151.39,111118,,,A*6B

$GPGGA,150803.000,5212.0481,N,00005.9449,E,1,10,0.83,4.1,M,47.0,M,,*63

$GPRMC,150805.000,A,5212.0481,N,00005.9449,E,0.01,280.51,111118,,,A*6D

$GPGGA,150806.000,5212.0481,N,00005.9449,E,1,10,0.83,4.1,M,47.0,M,,*66

$GPRMC,150808.000,A,5212.0481,N,00005.9449,E,0.01,110.85,111118,,,A*63

$GPGGA,150809.000,5212.0481,N,00005.9449,E,1,10,0.83,4.1,M,47.0,M,,*69

$GPRMC,150811.000,A,5212.0481,N,00005.9449,E,0.01,42.62,111118,,,A*54

$GPGGA,150812.000,5212.0481,N,00005.9449,E,1,10,0.83,4.1,M,47.0,M,,*63

$GPRMC,150814.000,A,5212.0481,N,00005.9449,E,0.01,333.58,111118,,,A*6D

$GPGGA,150815.000,5212.0481,N,00005.9449,E,1,10,0.83,4.1,M,47.0,M,,*64

$GPRMC,150817.000,A,5212.0481,N,00005.9449,E,0.01,143.46,111118,,,A*64

$GPGGA,150818.000,5212.0481,N,00005.9449,E,1,10,0.83,4.1,M,47.0,M,,*69

$GPRMC,150820.000,A,5212.0481,N,00005.9449,E,0.01,201.69,111118,,,A*68

$GPGGA,150821.000,5212.0481,N,00005.9449,E,1,10,0.83,4.1,M,47.0,M,,*63

$GPRMC,150823.000,A,5212.0481,N,00005.9449,E,0.01,342.45,111118,,,A*63

$GPGGA,150824.000,5212.0481,N,00005.9449,E,1,10,0.83,4.1,M,47.0,M,,*66

$GPRMC,150826.000,A,5212.0481,N,00005.9449,E,0.00,345.84,111118,,,A*6D

$GPGGA,150827.000,5212.0481,N,00005.9449,E,1,10,0.83,4.1,M,47.0,M,,*65

$GPRMC,150829.000,A,5212.0481,N,00005.9449,E,0.01,163.39,111118,,,A*63

$GPGGA,150830.000,5212.0481,N,00005.9449,E,1,10,0.83,4.1,M,47.0,M,,*63

$GPRMC,150832.000,A,5212.0481,N,00005.9449,E,0.00,293.74,111118,,,A*6D

$GPGGA,150833.000,5212.0481,N,00005.9449,E,1,10,0.83,4.1,M,47.0,M,,*60

$GPRMC,150835.000,A,5212.0481,N,00005.9449,E,0.00,275.14,111118,,,A*64

$GPGGA,150836.000,5212.0481,N,00005.9449,E,1,10,0.83,4.1,M,47.0,M,,*65

$GPRMC,150838.000,A,5212.0481,N,00005.9449,E,0.01,346.91,111118,,,A*64

$GPGGA,150839.000,5212.0481,N,00005.9449,E,1,10,0.83,4.1,M,47.0,M,,*6A

$GPRMC,150841.000,A,5212.0481,N,00005.9449,E,0.00,140.78,111118,,,A*68

$GPGGA,150842.000,5212.0481,N,00005.9449,E,1,10,0.83,4.1,M,47.0,M,,*66

$GPRMC,150844.000,A,5212.0481,N,00005.9449,E,0.01,88.91,111118,,,A*5E

$GPGGA,150845.000,5212.0481,N,00005.9449,E,1,10,0.83,4.1,M,47.0,M,,*61

$GPRMC,150847.000,A,5212.0481,N,00005.9449,E,0.01,290.28,111118,,,A*64

$GPGGA,150848.000,5212.0481,N,00005.9449,E,1,10,0.83,4.1,M,47.0,M,,*6C

$GPRMC,150850.000,A,5212.0481,N,00005.9449,E,0.02,35.09,111118,,,A*5F

$GPGGA,150851.000,5212.0481,N,00005.9449,E,1,10,0.83,4.1,M,47.0,M,,*64

$GPRMC,150853.000,A,5212.0481,N,00005.9449,E,0.03,198.00,111118,,,A*62

$GPGGA,150854.000,5212.0481,N,00005.9449,E,1,10,0.83,4.1,M,47.0,M,,*61

$GPRMC,150856.000,A,5212.0481,N,00005.9449,E,0.01,170.83,111118,,,A*68

$GPGGA,150857.000,5212.0481,N,00005.9449,E,1,10,0.83,4.1,M,47.0,M,,*62

$GPRMC,150859.000,A,5212.0481,N,00005.9449,E,0.01,139.28,111118,,,A*6B

$GPGGA,150900.000,5212.0481,N,00005.9449,E,1,10,0.83,4.1,M,47.0,M,,*61

$GPRMC,150902.000,A,5212.0481,N,00005.9449,E,0.01,25.10,111118,,,A*53

$GPGGA,150903.000,5212.0481,N,00005.9449,E,1,10,0.83,4.1,M,47.0,M,,*62

$GPRMC,150905.000,A,5212.0481,N,00005.9449,E,0.01,214.82,111118,,,A*6F

$GPGGA,150906.000,5212.0481,N,00005.9449,E,1,10,0.83,4.1,M,47.0,M,,*67

$GPRMC,150908.000,A,5212.0481,N,00005.9449,E,0.00,169.72,111118,,,A*65

$GPGGA,150909.000,5212.0481,N,00005.9449,E,1,10,0.83,4.1,M,47.0,M,,*68

$GPRMC,150911.000,A,5212.0481,N,00005.9449,E,0.00,9.83,111118,,,A*64

$GPGGA,150912.000,5212.0481,N,00005.9449,E,1,10,0.83,4.1,M,47.0,M,,*62

$GPRMC,150914.000,A,5212.0481,N,00005.9449,E,0.01,27.50,111118,,,A*52

$GPGGA,150915.000,5212.0481,N,00005.9449,E,1,10,0.83,4.1,M,47.0,M,,*65

$GPRMC,150917.000,A,5212.0481,N,00005.9449,E,0.01,317.06,111118,,,A*62

$GPGGA,150918.000,5212.0481,N,00005.9449,E,1,10,0.83,4.1,M,47.0,M,,*68

$GPRMC,150920.000,A,5212.0481,N,00005.9449,E,0.01,355.24,111118,,,A*60

$GPGGA,150921.000,5212.0481,N,00005.9449,E,1,10,0.83,4.1,M,47.0,M,,*62

$GPRMC,150923.000,A,5212.0481,N,00005.9449,E,0.01,121.08,111118,,,A*6C

$GPGGA,150924.000,5212.0481,N,00005.9449,E,1,10,0.83,4.1,M,47.0,M,,*67

$GPRMC,150926.000,A,5212.0481,N,00005.9449,E,0.01,328.80,111118,,,A*62

$GPGGA,150927.000,5212.0481,N,00005.9449,E,1,10,0.83,4.1,M,47.0,M,,*64

$GPRMC,150929.000,A,5212.0481,N,00005.9449,E,0.01,350.13,111118,,,A*68

$GPGGA,150930.000,5212.0481,N,00005.9449,E,1,10,0.83,4.1,M,47.0,M,,*62

$GPRMC,150932.000,A,5212.0481,N,00005.9449,E,0.01,34.58,111118,,,A*5C

$GPGGA,150933.000,5212.0481,N,00005.9449,E,1,10,0.83,4.1,M,47.0,M,,*61

$GPRMC,150935.000,A,5212.0481,N,00005.9449,E,0.01,237.66,111118,,,A*67

$GPGGA,150936.000,5212.0481,N,00005.9449,E,1,10,0.83,4.1,M,47.0,M,,*64

$GPRMC,150938.000,A,5212.0481,N,00005.9449,E,0.01,247.25,111118,,,A*6A

$GPGGA,150939.000,5212.0481,N,00005.9449,E,1,10,0.83,4.1,M,47.0,M,,*6B

$GPRMC,150941.000,A,5212.0481,N,00005.9449,E,0.00,237.47,111118,,,A*66

$GPGGA,150942.000,5212.0481,N,00005.9449,E,1,10,0.83,4.0,M,47.0,M,,*66
