$GPGGA,124720.400,5212.0841,N,00005.9598,E,2,07,1.17,16.1,M,47.0,M,0000,0000*5D
$GPGSA,A,3,24,15,21,30,05,28,13,,,,,,2.01,1.17,1.63*0D
$GPRMC,124720.400,A,5212.0841,N,00005.9598,E,0.01,229.83,270119,,,D*63
$GPVTG,229.83,T,,M,0.01,N,0.02,K,D*39
$GPGGA,124720.500,5212.0841,N,00005.9598,E,2,07,1.17,16.1,M,47.0,M,0000,0000*5C
$GPGSA,A,3,24,15,21,30,05,28,13,,,,,,2.01,1.17,1.63*0D
$GPRMC,124720.500,A,5212.0841,N,00005.9598,E,0.01,229.83,270119,,,D*62
$GPVTG,229.83,T,,M,0.01,N,0.01,K,D*3A
$PMTKLOG,0,1,a,31,15,0,0,1,0,0*11
$PMTK001,183,3*3A
$PMTK869,2,0*37
$PMTKLOG,0,1,a,31,15,0,0,1,0,0*11
$PMTK001,183,3*3A
$PMTK869,2,0*37
$GPGGA,124720.600,5212.0841,N,00005.9598,E,2,07,1.17,16.1,M,47.0,M,0000,0000*5F
$GPGSA,A,3,24,15,21,30,05,28,13,,,,,,2.01,1.17,1.63*0D
$GPRMC,124720.600,A,5212.0841,N,00005.9598,E,0.00,229.83,270119,,,D*60
$GPVTG,229.83,T,,M,0.00,N,0.01,K,D*3B

$GPGGA,124720.700,5212.0841,N,00005.9598,E,2,07,1.17,16.1,M,47.0,M,0000,0000*5E
$GPGSA,A,3,24,15,21,30,05,28,13,,,,,,2.01,1.17,1.63*0D
$GPRMC,124720.700,A,5212.0841,N,00005.9598,E,0.00,229.83,270119,,,D*61
$GPVTG,229.83,T,,M,0.00,N,0.00,K,D*3A
$PMTKLOG,0,1,a,31,15,0,0,1,0,0*11
$PMTK001,183,3*3A
$PMTK869,2,0*37

$GPGGA,124720.800,5212.0841,N,00005.9598,E,2,07,1.17,16.1,M,47.0,M,0000,0000*51
$GPGSA,A,3,24,15,21,30,05,28,13,,,,,,2.01,1.17,1.63*0D
$GPGSV,3,1,11,13,88,084,40,15,54,290,44,28,52,089,38,30,32,067,35*7D
$GPGSV,3,2,11,05,29,187,40,36,23,142,35,24,20,249,36,20,14,322,26*77
$GPGSV,3,3,11,21,11,291,32,08,07,019,,07,02,067,*42
$GPRMC,124720.800,A,5212.0841,N,00005.9598,E,0.00,229.83,270119,,,D*6E
$GPVTG,229.83,T,,M,0.00,N,0.00,K,D*3A
$PMTKLOG,0,1,a,31,15,0,0,1,0,0*11
$PMTK001,183,3*3A
$PMTK869,2,0*37
$GPGGA,124720.900,5212.0841,N,00005.9598,E,2,07,1.17
,16.1,M,47.0,M,0000,0000*50
$GPGSA,A,3,24,15,21,30,05,28,13,,,,,,2.01,1.17,1.63*0D
$GPRMC,124720.900,A,5212.0841,N,00005.9598,E,0.00,229.83,270119,,,D*6F
$GPVTG,229.83,T,,M,0.00,N,0.00,K,D*3A
$PMTKLOG,0,1,a,31,15,0,0,1,0,0*11
$PMTK001,183,3*3A
$PMTK869,2,0*37
$GPGGA,124721.000,5212.0841,N,00005.9598,E,2,07,1.17,16.1,M,47.0,M,0000,0000*58
$GPGSA,A,3,24,15,21,30,05,28,13,,,,,,2.01,1.17,1.63*0D
$GPRMC,1247
21.000,A,5212.0841,N,00005.9598,E,0.00,229.83,270119,,,D*67
$GPVTG,229.83,T,,M,0.00,N,0.01,K,D*3B
$PMTKLOG,0,1,a,31,15,0,0,1,0,0*11
$PMTK001,183,3*3A
$PMTK869,2,0*37
$GPGGA,124721.100,5212.0841,N,00005.9598,E,2,07,1.17,16.1,M,47.0,M,0000,0000*59
$GPGSA,A,3,24,15,21,30,05,28,13,,,,,,2.01,1.17,1.63*0D
$GPRMC,124721.100,A,5212.0841,N,00005.9598,E,0.00,229.83,270119,,,D*66
$GPVTG,229.83,T,,M,0.00,N,0.01,K,D*3B
$PMTKLOG,0,1,a,31,15,0,0,1,0,0*11
$PMTK001,183,3*3A
$PMTK869,2,0*37

$GPGGA,124721.200,5212.0841,N,00005.9598,E,2,07,1.17,16.1,M,47.0,M,0000,0000*5A
$GPGSA,A,3,24,15,21,30,05,28,13,,,,,,2.01,1.17,1.63*0D
$GPRMC,124721.200,A,5212.0841,N,00005.9598,E,0.00,229.83,270119,,,D*65
$GPVTG,229.83,T,,M,0.00,N,0.01,K,D*3B
$PMTKLOG,0,1,a,31,15,0,0,1,0,0*11
$PMTK001,183,3*3A
$PMTK869,2,0*37

$GPGGA,124721.300,5212.0841,N,00005.9598,E,2,07,1.17,16.1,M,47.0,M,0000,0000*5B
$GPGSA,A,3,24,15,21,30,05,28,13,,,,,,2.01,1.17,1.63*0D
$GPGSV,3,1,11,13,88,084,38,15,54,290,42,28,52,089,37,30,32,067,35*7B
$GPGSV,3,2,11,05,29,187,39,36,23,142,35,24,20,249,35,20,14,322,26*7A
$GPGSV,3,3,11,21,11,291,30,08,07,019,18,07,02,067,*49
$GPRMC,124721.300,A,5212.0841,N,00005.9598,E,0.00,229.83,270119,,,D*64
$GPVTG,229.83,T,,M,0.00,N,0.01,K,D*3B
$P
MTKLOG,0,1,a,31,15,0,0,1,0,0*11
$PMTK001,183,3*3A
$PMTK869,2,0*37
$GPGGA,124721.400,5212.0841,N,00005.9598,E,2,07,1.17,16.1,M,47.0,M,0000,0000*5C
$GPGSA,A,3,24,15,21,30,05,28,13,,,,,,2.01,1.17,1.63*0D
$GPRMC,124721.400,A,5212.0841,N,00005.9598,E,0.00,229.83,270119,,,D*63
$GPVTG,229.83,T,,M,0.00,N,0.01,K,D*3B
$PMTKLOG,0,1,a,31,15,0,0,1,0,0*11
$PMTK001,183,3*3A
$PMTK869,2,0*37

$GPGGA,124721.500,5212.0841,N,00005.9598,E,2,07,1.17,16.1,M,47.0,M,0000,0000*5D
$GPGSA,A,3,24,15,21,30,05,28,13,,,,,,2.01,1.17,1.63*0D
$GPRMC,124721.500,A,5212.0841,N,00005.9598,E,0.00,229.83,270119,,,D*62
$GPVTG,229.83,T,,M,0.00,N,0.01,K,D*3B
$PMTKLOG,0,1,a,31,15,0,0,1,0,0*11
$PMTK001,183,3*3A
$PMTK869,2,0*37

$GPGGA,124721.600,5212.0841,N,00005.9598,E,2,07,1.18,16.1,M,47.0,M,0000,0000*51
$GPGSA,A,3,24,15,21,30,05,28,13,,,,,,2.01,1.18,1.63*02
$GPRMC,124721.600,A,5212.0841,N,00005.9598,E,0.00,229.83,270119,,,D*61
$GPVTG,229.83,T,,M,0.00,N,0.01,K,D*3B
$PMTKLOG,0,1,a,31,15,0,0,1,0,0*11
$PMTK001,183,3*3A
$PMTK869,2,0*37
$GPGGA,124721.
700,5212.0841,N,00005.9598,E,2,07,1.17,16.1,M,47.0,M,0000,0000*5F
$GPGSA,A,3,24,15,21,30,05,28,13,,,,,,2.01,1.17,1.63*0D
$GPRMC,124721.700,A,5212.0841,N,00005.9598,E,0.00,229.83,270119,,,D*60
$GPVTG,229.83,T,,M,0.00,N,0.01,K,D*3B

$GPGGA,124721.800,5212.0841,N,00005.9598,E,2,07,1.17,16.1,M,47.0,M,0000,0000*50
$GPGSA,A,3,24,15,21,30,05,28,13,,,,,,2.01,1.17,1.63*0D
$GPGSV,3,1,11,13,88,084,38,15,54,290,42,28,52,089,38,30,32,067,37*76
$GPGSV,3,2,11,05,29,187,39,36,23,142,34,24,20,249,35,20,14,322,26*7B
$GPGSV,3,3,11,21,11,291,30,08,07,019,18,07,02,067,*49
$GPRMC,124721.800,A,5212.0841,N,00005.9598,E,0.00,229.83,270119,,,D*6F
$GPVTG,229.83,T,,M,0.00,N,0.01,K,D*3B
$PMTKLOG,0,1,a,31,15,0,0,1,0,0*11
$PMTK001,183,3*3A
$PMTK869,2,0*37

$GPGGA,124721.900,5212.0841,N,00005.9598,E,2,07,1.17,16.1,M,47.0,M,0000,0000*51
$GPGSA,A,3,24,15,21,30,05,28,13,,,,,,2.01,1.17,1.63*0D
$GPRMC,124721.900,A,5212.0841,N,00005.9598,E,0.00,229.83,270119,,,D*6E
$GPVTG,229.83,T,,M,0.00,N,0.01,K,D*3B
$PMTKLOG,0,1,a,31,15,0,0,1,0,0*11
$PMTK001,183,3*3A
$PMTK869,2,0*37
$GPGGA,124722.00
0,5212.0840,N,00005.9598,E,2,07,1.17,16.1,M,47.0,M,0000,0000*5A
$GPGSA,A,3,24,15,21,30,05,28,13,,,,,,2.01,1.17,1.63*0D
$GPRMC,124722.000,A,5212.0840,N,00005.9598,E,0.00,229.83,270119,,,D*65
$GPVTG,229.83,T,,M,0.00,N,0.00,K,D*3A
$PMTKLOG,0,1,a,31,15,0,0,1,0,0*11
$PMTK001,183,3*3A
$PMTK869,2,0*37
$GPGGA,124722.100,5212.0840,N,00005.9598,E,2,07,1.17,16.1,M,47.0,M,0000,0000*5B
$GPGSA,A
,3,24,15,21,30,05,28,13,,,,,,2.01,1.17,1.63*0D
$GPRMC,124722.100,A,5212.0840,N,00005.9598,E,0.00,229.83,270119,,,D*64
$GPVTG,229.83,T,,M,0.00,N,0.00,K,D*3A
$PMTKLOG,0,1,a,31,15,0,0,1,0,0*11
$PMTK001,183,3*3A
$PMTK869,2,0*37
$GPGGA,124722.200,5212.0840,N,00005.9598,E,2,07,1.17,16.1,M,47.0,M,0000,0000*58
$GPGSA,A,3,24,15,21,30,05,28,13,,,,,,2.01,1.17,1.63*0D
$GPRMC,124722.200,A,5212.0840,N,00005.9598,E,0.00,229.83,270119,,,D*67
$GPVTG,229.83,T,,M,0.00,N,0.00,K,D*3A
$PMTKLOG,0,1,a,31,15,0,0,1,0,0*11
$PMTK001,183,3*3A
$PMTK869,2,0*37

$GPGGA,124722.300,5212.0840,N,00005.9598,E,2,07,1.17,16.1,M,47.0,M,0000,0000*59
$GPGSA,A,3,24,15,21,30,05,28,13,,,,,,2.01,1.17,1.63*0D
$GPGSV,3,1,11,13,88,085,39,15,54,290,42,28,52,089,38,30,32,067,39*78
$GPGSV,3,2,11,05,29,187,40,36,23,142,35,24,20,249,35,20,14,322,25*77
$GPGSV,3,3,11,21,11,291,32,08,07,019,18,
07,02,067,*4B
$GPRMC,124722.300,A,5212.0840,N,00005.9598,E,0.00,229.83,270119,,,D*66
$GPVTG,229.83,T,,M,0.00,N,0.00,K,D*3A
$PMTKLOG,0,1,a,31,15,0,0,1,0,0*11
$PMTK001,183,3*3A
$PMTK869,2,0*37
$GPGGA,124722.400,5212.0840,N,00005.9598,E,2,07,1.17,16.2,M,47.0,M,0000,0000*5D
$GPGSA,A,3,24,15,21,30,05,28,13,,,,,,2.01,1.17,1.63*0D
$GPRMC,124722.400,A,5212.0840,N,00005.9598,E,0.00,229.83,270119,,,D*61
$GPVTG,229.83,T,,M,0.00,N,0.00,K,D*3A
$PMTKLOG,0,1,a,31,15,0,0,1,0,0*11
$PMTK001,183,3*3A
$PMTK869,2,0*37

$GPGGA,124722.500,5212.0840,N,00005.9598,E,2,07,1.17,16.2,M,47.0,M,0000,0000*5C
$GPGSA,A,3,24,15,21,30,05,28,13,,,,,,2.01,1.17,1.63*0D
$GPRMC,124722.500,A,5212.0840,N,00005.9598,E,0.00,229.83,270119,,,D*60
$GPVTG,229.83,T,,M,0.00,N,0.00,K,D*3A
$PMTKLOG,0,1,a,31,15,0,0,1,0,0*11
$PMTK001,183,3*3A
$PMTK869,2,0*37

$GPGGA,124722.600,5212.0840,N,00005.9598,E,2,07,1.17,16.2,M,47.0,M,0000,0000*5F
$GPGSA,A,3,24,15,21,30,05,28,13,,,,,,2.01,1.17,1.63*0D
$GPRMC,124722.600,A,5212.0840,N,00005.9598,E,0.00,229.83,270119,,,D*63
$GPVTG,229.83,T,,M,0.00,N,0.00,K,D*3A
$PMTKLOG,0,1,a,31,15,0,0,1,0,0*11
$PMTK001,183,3*3A
$PMTK869,2,0*37

$GPGGA,124722.700,5212.0840,N,00005.9598,E,2,07,1.17,16.2,M,47.0,M,0000,0000*5E
$GPGSA,A,3,24,15,21,30,05,28,13,,,,,,2.01,1.17,1.63*0D
$GPRMC,124722.700,A,5212.0840,N,00005.9598,E,0.00,229.83,270119,,,D*62
$GPVTG,229.83,T,,M,0.00,N,0.00,K,D*3A
$PMTKLOG,0,1,a,31,15,0,0,1,0,0*11
$PMTK001,183,3*3A
$PMTK869,2,0*37
$GPGGA,124
722.800,5212.0840,N,00005.9598,E,2,07,1.17,16.2,M,47.0,M,0000,0000*51
$GPGSA,A,3,24,15,21,30,05,28,13,,,,,,2.01,1.17,1.63*0D
$GPGSV,3,1,11,13,88,085,39,15,54,290,43,28,52,089,37,30,32,067,38*77
$GPGSV,3,2,11,05,29,187,40,36,23,142,35,24,20,249,35,20,14,322,26*74
$GPGSV,3,3,11,21,11,291,30,08,07,019,17,07,02,067,*46
$GPRMC,124722.800,A,5212.0840,N,00005.9598,E,0.00,229.83,270119,,,D*6D
$GPVTG,229.83,T,,M,0.00,N,0.00,K,D*3A
$PMTKLOG,0,1,a,31,15,0,0,1,0,0*11
$PMTK001,183,3*3A
$PMTK869,2,0*37

$GPGGA,124722.900,5212.0840,N,00005.9598,E,2,07,1.17,16.2,M,47.0,M,0000,0000*50
$GPGSA,A,3,24,15,21,30,05,28,13,,,,,,2.01,1.17,1.63*0D
$GPRMC,124722.900,A,5212.0840,N,00005.9598,E,0.00,229.83,270119,,,D*6C
$GPVTG,229.83,T,,M,0.00,N,0.00,K,D*3A

$GPGGA,124723.000,5212.0840,N,00005.9598,E,2,07,1.17,16.2,M,47.0,M,0000,0000*58
$GPGSA,A,3,24,15,21,30,05,28,13,,,,,,2.01,1.17,1.63*0D
$GPRMC,124723.000,A,5212.0840,N,00005.9598,E,0.00,229.83,270119,,,D*64
$GPVTG,229.83,T,,M,0.00,N,0.00,K,D*3A
$PMTKLOG,0,1,a,31,15,0,0,1,0,0*11
$PMTK001,183,3*3A
$PMTK869,2,0*37

$GPGGA,124723.100,5212.0840,N,00005.9598,E,2,07,1.17,16.2,M,47.0,M,0000,0000*59
$GPGSA,A,3,24,15,21,30,05,28,13,,,,,,2.01,1.17,1.63*0D
$GPRMC,124723.100,A,5212.0840,N,00005.9598,E,0.00,229.83,270119,,,D*65
$GPVTG,229.83,T,,M,0.00,N,0.01,K,D*3B
$PMTKLOG,0,1,a,31,15,0,0,1,0,0*11
$PMTK001,183,3*3A
$PMTK869,2,0*37
$GPGGA,124723.200,5212.0840,N,00005.9598,E,2,07,1.17,16.2,M,47.0,M,0000,0000*5A

$GPGSA,A,3,24,15,21,30,05,28,13,,,,,,2.01,1.17,1.63*0D
$GPRMC,124723.200,A,5212.0840,N,00005.9598,E,0.00,229.83,270119,,,D*66
$GPVTG,229.83,T,,M,0.00,N,0.01,K,D*3B
$PMTKLOG,0,1,a,31,15,0,0,1,0,0*11
$PMTK001,183,3*3A
$PMTK869,2,0*37
$GPGGA,124723.300,5212.0840,N,00005.9598,E,2,07,1.17,16.2,M,47.0,M,0000,0000*5B
$GPGSA,A,3,24,15,21,30,05,28,13,,,,,,2.01,1.17,1.63*0D
$GPGSV,3,1,11,13,88,085,40,15,54,290,42,28,52,089,38,30,32,067,34*7B
$GPGSV,3,2,11,05,29,187,39,36,23,142,34,24,20,249,34,20,14,322,26*7A
$GPGSV,3,3,11,21,11,291,30,08,07,019,18,07,02,067,*49
$GPRMC,124723.300,A,5212.0840,N,00005.9598,E,0.00,229.83,270119,,,D*67
$GPVTG,229.83,T,,M,0.00,N,0.01,K,D*3B
$PMTKLOG,0,1,a,31,15,0,0,1,0,0*11
$PMTK001,183,3*3A
$PMTK869,2,0*37

$GPGGA,124723.400,5212.0840,N,00005.9598,E,2,07,1.17,16.2,M,47.0,M,0000,0000*5C
$GPGSA,A,3,24,15,21,30,05,28,13,,,,,,2.01,1.17,1.63*0D
$GPRMC,124723.400,A,5212.0840,N,00005.9598,E,0.00,229.83,270119,,,D*60
$GPVTG,229.83,T,,M,0.00,N,0.01,K,
D*3B
$PMTKLOG,0,1,a,31,15,0,0,1,0,0*11
$PMTK001,183,3*3A
$PMTK869,2,0*37
$GPGGA,124723.500,5212.0840,N,00005.9598,E,2,07,1.17,16.2,M,47.0,M,0000,0000*5D
$GPGSA,A,3,24,15,21,30,05,28,13,,,,,,2.01,1.17,1.63*0D
$GPRMC,124723.500,A,5212.0840,N,00005.9598,E,0.01,229.83,270119,,,D*60
$GPVTG,229.83,T,,M,0.01,N,0.01,K,D*3A
$PMTKLOG,0,1,a,31,15,0,0,1,0,0*11
$PMTK001,183,3*3A
$PMTK869,2,
0*37
$GPGGA,124723.600,5212.0840,N,00005.9598,E,2,07,1.17,16.2,M,47.0,M,0000,0000*5E
$GPGSA,A,3,24,15,21,30,05,28,13,,,,,,2.01,1.17,1.63*0D
$GPRMC,124723.600,A,5212.0840,N,00005.9598,E,0.00,229.83,270119,,,D*62
$GPVTG,229.83,T,,M,0.00,N,0.01,K,D*3B
$PMTKLOG,0,1,a,31,15,0,0,1,0,0*11
$PMTK001,183,3*3A
$PMTK869,2,0*37

$GPGGA,124723.700,5212.0840,N,00005.9598,E,2,07,1.18,16.2,M,47.0,M,0000,0000*50
$GPGSA,A,3,24,15,21,30,05,28,13,,,,,,2.01,1.18,1.63*02
$GPRMC,124723.700,A,5212.0840,N,00005.9598,E,0.00,229.83,270119,,,D*63
$GPVTG,229.83,T,,M,0.00,N,0.00,K,D*3A
$PMTKLOG,0,1,a,31,15,0,0,1,0,0*11
$PMTK001,183,3*3A
$PMTK869,2,0*37

$GPGGA,124723.800,5212.0840,N,00005.9598,E,2,07,1.17,16.2,M,47.0,M,0000,0000*50
$GPGSA,A,3,24,15,21,30,05,28,13,,,,,,2.01,1.17,1.63*0D
$GPGSV,3,1,11,13,88,085,40,15,54,290,44,28,52,089,38,30,32,067,37*7E
$GPGSV,3,2,11,05,29,187,41,36,23,142,37,24,20,249,36,20,14,322,29*7B
$GPGSV,3,3,11,21,11,291,31,08,07,019,18,07,02,067,*48
$GPRMC,124723.800,A,5212.0840,N,00005.9598,E,0.01,229.83,270119,,,D*6D
$GPVTG,229.83,T,,M,0.01,N,0.01,K,D*3A
$PMTKLOG,0,1,a,31,15,0,0,1,0,0*11
$PMTK001,183,3*3A
$PMTK869,2,0*37

$GPGGA,124723.900,5212.0840,N,00005.9598,E,2,07,1.17,16.2,M,47.0,M,0000,0000*51
$GPGSA,A,3,24,15,21,30,05,28,13,,,,,,2.01,1.17,1.63*0D
$GPRMC,124723.900,A,5212.0840,N,00005.9598,E,0.00,229.83,270119,,,D*6D
$GPVTG,229.83,T,,M,0.00,N,0.01,K,D*3B
$PMTKLOG,0,1,a,31,15,0,0,1,0,0*11
$PMTK001,183,3*3A
$PMTK869,2,0*37

$GPGGA,124724.000,5212.0840,N,00005.9598,E,2,07,1.17,16.2,M,47.0,M,0000,0000*5F
$GPGSA,A,3,24,15,21,30,05,28,13,,,,,,2.01,1.17,1.63*0D
$GPRMC,124724.000,A,5212.0840,N,00005.9598,E,0.00,229.83,270119,,,D*63
$GPVTG,229.83,T,,M,0.00,N,0.00,K,D*3A
$PMTKLOG,0,1,a,31,15,0,0,1,0,0*11
$PMTK001,183,3*3A
$PMTK869,2,0*37

$GPGGA,124724.100,5212.0840,N,00005.9598,E,2,07,1.17,16.2,M,47.0,M,0000,0000*5E
$GPGSA,A,3,24,15,21,30,05,28,13,,,,,,2.01,1.17,1.63*0D
$GPRMC,124724.100,A,5212.0840,N,00005.9598,E,0.01,229.83,270119,,,D*63
$GPVTG,229.83,T,,M,0.01,N,0.01,K,D*3A

$GPGGA,124724.200,5212.0840,N,00005.9598,E,2,07,1.17,16.2,M,47.0,M,0000,0000*5D
$GPGSA,A,3,24,15,21,30,05,28,13,,,,,,2.01,1.17,1.63*0D
$GPRMC,124724.200,A,5212.0840,N,00005.9598,E,0.01,229.83,270119,,,D*60
$GPVTG,229.83,T,,M,0.01,N,0.01,K,D*3A
$PMTKLOG,0,1,a,31,15,0,0,1,0,0*11
$PMTK001,183,3*3A
$PMTK869,2,0*37

$GPGGA,124724.300,5212.0840,N,00005.9598,E,2,07,1.17,16.2,M,47.0,M,0000,0000*5C
$GPGSA,A,3,24,15,21,30,05,28,13,,,,,,2.01,1.17,1.63*0D
$GPGSV,3,1,11,13,88,085,39,15,54,290,43,28,52,089,36,30,32,067,33*7D
$GPGSV,3,2,11,05,29,187,39,36,23,142,35,24,20,249,35,20,14,322,29*75
$GPGSV,3,3,11,21,11,291,30,08,07,019,,07,02,067,*40
$GPRMC,124724.300,A,5212.0840,N,00005.9598,E,0.00,229.83,270119,,,D*60
$GPVTG,229.83,T,,M,0.00,N,0.01,K,D*3B
$PMTKLOG,0,1,a,31,15,0,0,1,0,0*11
$PMTK001,183,3*3A
$PMTK869,2,0*37
$GPGGA,124724.400,5212.0840,N,00005.9598,E,2,07,1.17,16.2,M,47.0,M,0000,0000*5B
$GPGSA,A,3,24,15,21,30,05,28,13,,,,,,2.01,1.17,1.63*0D
$GPRMC,124724.400,A,5212.0840,N,00005.9598,E,0.01,229.83,270119,,,D*66
$GPVTG,229.83,T,,M,0.01,N,0.01,K,D*3A
$PMTKLOG,0,1,a,31,15,0,0,1,0,0*11
$PMTK001,183,3*3A
$PMTK869,2,0*37

$GPGGA,124724.500,5212.0840,N,00005.9598,E,2,07,1.17,16.2,M,47.0,M,0000,0000*5A
$GPGSA,A,3,24,15,21,30,05,28,13,,,,,,2.01,1.17,1.63*0D
$GPRMC,124724.500,A,5212.0840,N,00005.9598,E,0.01,229.83,270119,,,D*67
$GPVTG,229.83,T,,M,0.01,N,0.01,K,D*3A
$PMTKLOG,0,1,a,31,15,0,0,1,0,0*11
$PMTK001,183,3*3A
$PMTK869,2,0*37

$GPGGA,124724.600,5212.0840,N,00005.9598,E,2,07,1.17,16.2,M,47.0,M,0000,0000*59
$GPGSA,A,3,24,15,21,30,05,28,13,,,,,,2.01,1.17,1.63*0D
$GPRMC,124724.600,A,5212.0840,N,00005.9598,E,0.01,229.83,270119,,,D*64
$GPVTG,229.83,T,,M,0.01,N,0.02,K,D*39
$PMTKL
OG,0,1,a,31,15,0,0,1,0,0*11
$PMTK001,183,3*3A
$PMTK869,2,0*37
$GPGGA,124724.700,5212.0840,N,00005.9598,E,2,07,1.17,16.2,M,47.0,M,0000,0000*58
$GPGSA,A,3,24,15,21,30,05,28,13,,,,,,2.01,1.17,1.63*0D
$GPRMC,124724.700,A,5212.0840,N,00005.9598,E,0.01,229.83,270119,,,D*65
$GPVTG,229.83,T,,M,0.01,N,0.01,K,D*3A
$PMTKLOG,0,1,a,31,15,0,0,1,0,0*11
$PMTK001,183,3*3A
$PMTK869,2,0*37

$GPGGA,124724.800,5212.0840,N,00005.9598,E,2,07,1.17,16.2,M,47.0,M,0000,0000*57
$GPGSA,A,3,24,15,21,30,05,28,13,,,,,,2.01,1.17,1.63*0D
$GPGSV,3,1,11,13,88,085,40,15,54,290,43,28,52,089,38,30,32,067,31*7F
$GPGSV,3,2,11,05,29,187,40,36,23,142,36,24,20,249,35,20,14,322,29*78
$GPGSV,3,3,11,21,11,291,31,08,07,019,,07,02,067,*41
$GPRMC,124724.800,A,5212.0840,N,00005.9598,E,0.01,229.83,270119,,,D*6A
$GPVTG,229.83,T,,M,0.01,N,0.02,K,D*39
$PMTKLOG,0,1,a,31,15,0,0,1,0,0*11
$PMTK00
1,183,3*3A
$PMTK869,2,0*37
$GPGGA,124724.900,5212.0840,N,00005.9598,E,2,07,1.17,16.3,M,47.0,M,0000,0000*57
$GPGSA,A,3,24,15,21,30,05,28,13,,,,,,2.01,1.17,1.63*0D
$GPRMC,124724.900,A,5212.0840,N,00005.9598,E,0.01,229.83,270119,,,D*6B
$GPVTG,229.83,T,,M,0.01,N,0.02,K,D*39
$PMTKLOG,0,1,a,31,15,0,0,1,0,0*11
$PMTK001,183,3*3A
$PMTK869,2,0*37

$GPGGA,124725.000,5212.0839,N,00005.9599,E,2,07,1.17,16.3,M,47.0,M,0000,0000*50
$GPGSA,A,3,24,15,21,30,05,28,13,,,,,,2.01,1.17,1.63*0D
$GPRMC,124725.000,A,5212.0839,N,00005.9599,E,0.01,229.83,270119,,,D*6C
$GPVTG,229.83,T,,M,0.01,N,0.02,K,D*39
$PMTKLOG,0,1,a,31,15,0,0,1,0,0*11
$PMTK001,183,3*3A
$PMTK869,2,0*37

$GPGGA,124725.100,5212.0839,N,00005.9599,E,2,07,1.17,16.3,M,47.0,M,0000,0000*51
$GPGSA,A,3,24,15,21,30,05,28,13,,,,,,2.01,1.17,1.63*0D
$GPRMC,124725.100,A,5212.0839,N,00005.9599,E,0.01,229.83,270119,,,D*6D
$GPVTG,229.83,T,,M,0.01,N,0.02,K,D*39
$PMTKLOG,0,1,a,31,15,0,0,1,0,0*11
$PMTK001,183,3*3A
$PMTK869,2,0*37

$GPGGA,124725.200,5212.0839,N,00005.9599,E,2,07,1.17,16.3,M,47.0,M,0000,0000*52
$GPGSA,A,3,24,15,21,30,05,28,13,,,,,,2.01,1.17,1.63*0D
$GPRMC,124725.200,A,5212.0839,N,00005.9599,E,0.01,229.83,270119,,,D*6E
$GPVTG,229.83,T,,M,0.01,N,0.02,K,D*39
$PMTKLOG,0,1,a,31,15,0,0,1,0,0*11
$PMTK001,183,3*3A
$PMTK869,2,0*37

$GPGGA,124725.300,5212.0839,N,00005.9599,E,2,07,1.17,16.3,M,47.0,M,0000,0000*53
$GPGSA,A,3,24,15,21,30,05,28,13,,,,,,2.01,1.17,1.63*0D
$GPGSV,3,1,11,13,88,085,40,15,54,290,42,28,52,089,38,30,32,067,30*7F
$GPGSV,3,2,11,05,29,187,40,36,23,142,35,24,20,249,35,20,14,322,28*7A
$GPGSV,3,3,11,21,11,291,30,08,07,019,,07,02,067,*40
$GPRMC,124725.300,A,5212.0839,N,00005.9599,E,0.01,229.83,270119,,,D*6F
$GPVTG,229.83,T,,M,0.01,N,0.02,K,D*39

$GPGGA,124725.400,5212.0839,N,00005.9599,E,2,07,1.17,16.3,M,47.0,M,0000,0000*54
$GPGSA,A,3,24,15,21,30,05,28,13,,,,,,2.01,1.17,1.63*0D
$GPRMC,124725.400,A,5212.0839,N,00005.9599,E,0.01,229.83,270119,,,D*68
$GPVTG,229.83,T,,M,0.01,N,0.02,K,D*39
$PMTKLOG,0,1,a,31,15,0,0,1,0,0*11
$PMTK001,183,3*3A
$PMTK869,2,0*37
$GPGGA,124725.500,5212.0839,N,00005.9599,E,2,07,1.17,16.3,M,47.0,M,0000,0000*55
$GPGSA,A,3,24,15,21,30,05,28,13,,,,,,2.01,1.17,1.63*0D
$GPRMC,124725.500,A,5212.0839,N,00005.9599,E,0.01,229.83,270119,,,D*69
$GPVTG,229.83,T,,M,0.01,N,0.02,K,D*39
$PMTKLOG,0,1,a,31,15,0,0,1,0,0*11
$PMTK001,183,3*3A
$PMTK869,2,0*37

$GPGGA,124725.600,5212.0839,N,00005.9599,E,2,07,1.17,16.3,M,47.0,M,0000,0
000*56
$GPGSA,A,3,24,15,21,30,05,28,13,,,,,,2.01,1.17,1.63*0D
$GPRMC,124725.600,A,5212.0839,N,00005.9599,E,0.01,229.83,270119,,,D*6A
$GPVTG,229.83,T,,M,0.01,N,0.02,K,D*39
$PMTKLOG,0,1,a,31,15,0,0,1,0,0*11
$PMTK001,183,3*3A
$PMTK869,2,0*37
$GPGGA,124725.700,5212.0839,N,00005.9599,E,2,07,1.17,16.3,M,47.0,M,0000,0000*57
$GPGSA,A,3,24,15,21,30,05,28,13,,,,,,2.01,1.17,1.63*0D
$GPRMC,124725.700,A,5212.0839,N,00005.9599,E,0.01,229.83,270119,,,D*6B
$GPVTG,229.83,T,,M,0.01,N,0.0
2,K,D*39
$PMTKLOG,0,1,a,31,15,0,0,1,0,0*11
$PMTK001,183,3*3A
$PMTK869,2,0*37
$GPGGA,124725.800,5212.0839,N,00005.9599,E,2,07,1.17,16.3,M,47.0,M,0000,0000*58
$GPGSA,A,3,24,15,21,30,05,28,13,,,,,,2.01,1.17,1.63*0D
$GPGSV,3,1,11,13,88,085,41,15,54,290,44,28,52,089,39,30,32,067,34*7D
$GPGSV,3,2,11,05,29,187,41,36,23,142,37,24,20,249,36,20,14,322,28*7A
$GPGSV,3,3,11,21,11,291,31,08,07,019,,07,02,067,*41
$GPRMC,124725.800,A,5212.0839,N,000
05.9599,E,0.01,229.83,270119,,,D*64
$GPVTG,229.83,T,,M,0.01,N,0.01,K,D*3A
$PMTKLOG,0,1,a,31,15,0,0,1,0,0*11
$PMTK001,183,3*3A
$PMTK869,2,0*37
$GPGGA,124725.900,5212.0839,N,00005.9598,E,2,07,1.17,16.4,M,47.0,M,0000,0000*5F
$GPGSA,A,3,24,15,21,30,05,28,13,,,,,,2.01,1.17,1.63*0D
$GPRMC,124725.900,A,5212.0839,N,00005.9598,E,0.01,229.83,270119,,,D*64
$GPVTG,229.83,T,,M,0.01,N,0.01,K,D*3A
$PMTKLOG,0,1,a,31,15,0,0,1,0,0*11
$PMTK001,183,3*3A
$PMTK869,2,0*37

$GPGGA,124726.000,5212.0839,N,00005.9598,E,2,07,1.17,16.4,M,47.0,M,0000,0000*55
$GPGSA,A,3,24,15,21,30,05,28,13,,,,,,2.01,1.17,1.63*0D
$GPRMC,124726.000,A,5212.0839,N,00005.9598,E,0.01,229.83,270119,,,D*6E
$GPVTG,229.83,T,,M,0.01,N,0.01,K,D*3A
$PMTKLOG,0,1,a,31,15,0,0,1,0,0*11
$PMTK001,183,3*3A
$PMTK869,2,0*37
$GPGGA,124726.100,5212.0839,N,000
05.9598,E,2,07,1.17,16.4,M,47.0,M,0000,0000*54
$GPGSA,A,3,24,15,21,30,05,28,13,,,,,,2.01,1.17,1.63*0D
$GPRMC,124726.100,A,5212.0839,N,00005.9598,E,0.01,229.83,270119,,,D*6F
$GPVTG,229.83,T,,M,0.01,N,0.02,K,D*39
$PMTKLOG,0,1,a,31,15,0,0,1,0,0*11
$PMTK001,183,3*3A
$PMTK869,2,0*37

$GPGGA,124726.200,5212.0839,N,00005.9598,E,2,07,1.17,16.4,M,47.0,M,0000,0000*57
$GPGSA,A,3,24,15,21,30,05,28,13,,,,,,2.01,1.17,1.63*0D
$GPRMC,124726.200,A,5212.0839,N,00005.9598,E,0.02,229.83,270119,,,D*6F
$GPVTG,229.83,T,,M,0.02,N,0.04,K,D*3C
$PMTKLOG,0,1,a,31,15,0,0,1,0,0*11
$PMTK001,183,3*3A
$PMTK869,2,0*37

$GPGGA,124726.300,5212.0839,N,00005.9598,E,2,07,1.17,16.4,M,47.0,M,0000,0000*56
$GPGSA,A,3,24,15,21,30,05,28,13,,,,,,2.01,1.17,1.63*0D
$GPGSV,3,1,11,13,88,085,40,15,54,290,43,28,52,089,37,30,32,067,39*78
$GPGSV,3,2,11,05,29,187,40,36,23,142,35,24,20,249,36,20,14,322,28*79
$GPGSV,3,3,11,21,11,291,30,08,07,019,,07,02,067,*40
$GPRMC,124726.300,A,5212.0839,N,00005.9598,E,0.03,229.83,270119,,,D*6F
$GPVTG,229.83,T,,M,0.03,N,0.06,K,D*3F
$PMTKLOG,0,1,a,31,15,0,0,1,0,0*11
$PMTK001,183,3*3A
$PMTK869,2,0*37

$GPGGA,124726.400,5212.0839,N,00005.9598,E,2,07,1.17,16.4,M,47.0,M,0000,0000*51
$GPGSA,A,3,24,15,21,30,05,28,13,,,,,,2.01,1.17,1.63*0D
$GPRMC,124726.400,A,5212.0839,N,00005.9598,E,0.04,229.83,270119,,,D*6F
$GPVTG,229.83,T,,M,0.04,N,0.08,K,D*36

$GPGGA,124726.500,5212.0839,N,00005.9598,E,2,07,1.17,16.4,M,47.0,M,0000,0000*50
$GPGSA,A,3,24,15,21,30,05,28,13,,,,,,2.01,1.17,1.63*0D
$GPRMC,124726.500,A,5212.0839,N,00005.9598,E,0.07,229.83,270119,,,D*6D
$GPVTG,229.83,T,,M,0.07,N,0.13,K,D*3F
$PMTKLOG,0,1,a,31,15,0,0,1,0,0*11
$PMTK001,183,3*3A
$PMTK869,2,0*37
$GPGGA,124726.600,5212.0839,N,00005.9598,E,2,07,1.17,16.4,M,47.0,M,0000,0000*53
$GPGSA,A,3,24,15,21,30,05,28,13,,,,,,2.01,1.17,1.63*0D
$GPRMC,124726.600,A,5212.0839,N,00005.9598,E,0.10,229.83,270119,,,D*68
$GPVTG,229.83,T,,M,0.10,N,0.18,K,D*32
$PMTKLOG,0,1,a,31,15,0,
0,1,0,0*11
$PMTK001,183,3*3A
$PMTK869,2,0*37

$GPGGA,124726.700,5212.0838,N,00005.9598,E,2,07,1.17,16.4,M,47.0,M,0000,0000*53
$GPGSA,A,3,24,15,21,30,05,28,13,,,,,,2.01,1.17,1.63*0D
$GPRMC,124726.700,A,5212.0838,N,00005.9598,E,0.11,229.83,270119,,,D*69
$GPVTG,229.83,T,,M,0.11,N,0.20,K,D*38
$PMTKLOG,0,1,a,31,15,0,0,1,0,0*11
$PMTK001,183,3*3A
$PMTK869,2,0*37
$GPGGA,124726.800,5212.0838,N,00005.9598,E,2,07,1.17,16.5,M,47.0,M,0000,0000*5D
$GPGSA,A,3,24,15,21,30,05,28,13,,,,,,2.01,1.17,1.63*
0D
$GPGSV,3,1,11,13,88,085,39,15,54,290,42,28,52,089,38,30,32,067,38*79
$GPGSV,3,2,11,05,29,187,39,36,23,142,35,24,20,249,35,20,14,322,27*7B
$GPGSV,3,3,11,21,11,291,30,08,07,019,,07,02,067,*40
$GPRMC,124726.800,A,5212.0838,N,00005.9598,E,0.12,229.83,270119,,,D*65
$GPVTG,229.83,T,,M,0.12,N,0.22,K,D*39
$PMTKLOG,0,1,a,31,15,0,0,1,0,0*11
$PMTK001,183,3*3A
$PMTK869,2,0*37
$GPGGA,124726.900,5212.0838,N,00005.9598,E,2,07,1.17,16.5,M,47.0,M,0000,0000*5C
$GPGSA,A,3,24,15,21,30,05,28,13,,,,,,2.01,1.17,1.63*0D
$GPRMC,124726.900,A,5212.0838,N,00005.9598,E,0.12,229.83,270119,,,D*64
$GPVTG,229.83,T,,M,0.12,N,0.21,K,D*3A
$PMTKLOG,0,1,a
,31,15,0,0,1,0,0*11
$PMTK001,183,3*3A
$PMTK869,2,0*37
$GPGGA,124727.000,5212.0838,N,00005.9598,E,2,07,1.17,16.5,M,47.0,M,0000,0000*54
$GPGSA,A,3,24,15,21,30,05,28,13,,,,,,2.01,1.17,1.63*0D
$GPRMC,124727.000,A,5212.0838,N,00005.9598,E,0.11,229.83,270119,,,D*6F
$GPVTG,229.83,T,,M,0.11,N,0.20,K,D*38
$PMTKLOG,0,1,a,31,15,0,0,1,0,0*11
$PMTK001,183,3*3A
$PMTK869,2,0*37

$GPGGA,124727.100,5212.0838,N,00005.9598,E,2,07,1.17,16.5,M,47.0,M,0000,0000*55
$GPGSA,A,3,24,15,21,30,05,28,13,,,,,,2.01,1.17,1.63*0D
$GPRMC,124727.100,A,5212.0838,N,00005.9598,E,0.10,229.83,270119,,,D*6F
$GPVTG,229.83,T,,M,0.10,N,0.19,K,D*33
$PMTKLOG,0,1,a,31,15,0,0,1,0,0*11
$PMTK001,183,3*3A
$PMTK869,2,0*37

$GPGGA,124727.200,5212.0838,N,00005.9598,E,2,07,1.17,16.5,M,47.0,M,0000,0000*56
$GPGSA,A,3,24,15,21,30,05,28,13,,,,,,2.01,1.17,1.63*0D
$GPRMC,124727.200,A,5212.0838,N,00005.9598,E,0.09,229.83,270119,,,D*64
$GPVTG,229.83,T,,M,0.09,N,0.17,K,D*35
$PMTKLOG,0,1,a,31,15,0,0,1,0,0*11
$PMTK001,183,3*3A
$PMTK869,2,0*37

$GPGGA,124727.300,5212.0838,N,00005.9598,E,2,07,1.17,16.5,M,47.0,M,0000,0000*57
$GPGSA,A,3,24,15,21,30,05,28,13,,,,,,2.01,1.17,1.63*0D
$GPGSV,3,1,11,13,88,085,39,15,54,290,43,28,52,089,38,30,32,067,39*79
$GPGSV,3,2,11,05,29,187,41,36,23,142,35,24,20,249,36,20,14,322,27*77
$GPGSV,3,3,11,21,11,291,31,08,07,019,,07,02,067,*41
$GPRMC,124727.300,A,5212.0838,N,00005.9598,E,0.09,229.83,270119,,,D*65
$GPVTG,229.83,T,,M,0.09,N,0.16,K,D*34
$PMTKLOG,0,1,a,31,15,0,0,1,0,0*11
$PMTK001,183,3*3A
$PMTK869,2,0*37

$GPGGA,124727.400,5212.0838,N,00005.9598,E,2,07,1.17,16.5,M,47.0,M,0000,0000*50
$GPGSA,A,3,24,15,21,30,05,28,13,,,,,,2.01,1.17,1.63*0D
$GPRMC,124727.400,A,5212.0838,N,00005.9598,E,0.08,229.83,270119,,,D*63
$GPVTG,229.83,T,,M,0.08,N,0.15,K,D*36
$PMTKLOG,0,1,a,31,15,0,0,1,0,0*11
$PMTK001,183,3*3A
$PMTK869,2,0*37

$GPGGA,124727.500,5212.0838,N,00005.9598,E,2,07,1.17,16.5,M,47.0,M,0000,0000*51
$GPGSA,A,3,24,15,21,30,05,28,13,,,,,,2.01,1.17,1.63*0D
$GPRMC,124727.500,A,5212.0838,N,00005.9598,E,0.07,229.83,270119,,,D*6D
$GPVTG,229.83,T,,M,0.07,N,0.13,K,D*3F
$PMTKLOG,0,1,a,31,15,0,0,1,0,0*11
$PMTK001,183,3*3A
$PMTK869,2,0*37

$GPGGA,124727.600,5212.0838,N,00005.9598,E,2,07,1.17,16.5,M,47.0,M,0000,0000*52
$GPGSA,A,3,24,15,21,30,05,28,13,,,,,,2.01,1.17,1.63*0D
$GPRMC,124727.600,A,5212.0838,N,00005.9598,E,0.07,229.83,270119,,,D*6E
$GPVTG,229.83,T,,M,0.07,N,0.12,K,D*3E
$GPGGA,124727.700,5212.0838,N,00005.9598,E,2,07,1.17,16.5,M,47.0,M,0000,0000*53
$GPGSA,A,3,24,15,21,30,05,28,13,,,,,,2.01,1.17,1.63*0D
$GPRMC,124727.700,A,5212.0838,N,00005.9598,E,0.06,229.83,270119,,,D*6E
$GPVTG,229.83,T,,M,0.06,N,0.11,K,D*3C
$PMTKLOG,0,1,a,31,15,0,0,1,0,0*11
$PMTK001,183,3*3A
$PMTK869,2,0*37

$GPGGA,124727.800,5212.0838,N,00005.9597,E,2,07,1.17,16.5,M,47.0,M,0000,0000*53
$GPGSA,A,3,24,15,21,30,05,28,13,,,,,,2.01,1.17,1.63*0D
$GPGSV,3,1,11,13,88,085,40,15,54,290,43,28,52,089,38,30,32,067,38*76
$GPGSV,3,2,11,05,29,187,40,36,23,142,35,24,20,249,36,20,14,322,28*79
$GPGSV,3,3,11,21,11,291,31,08,07,019,,07,02,067,*41
$GPRMC,124727.800,A,5212.0838,N,00005.9597,E,0.06,229.83,270119,,,D*6E
$GPVTG,229.83,T,,M,0.06,N,0.10,K,D*3D
$PMTKLOG,0,1,a,31,15,0,0,1,0,0*11
$PMTK001,183,3*3A
$PMTK869,2,0*37
$GPGGA,124727.900,5212.0838,N,00005.9597,E,2,07,1.17,16.5,M,47.0,M,0000,0000*52
$GPGSA,A,3,24,15,21,30,05,28,13,,,,,,2.01,1.17,1.63*0D
$GPRMC,124727.900,A,521
2.0838,N,00005.9597,E,0.06,229.83,270119,,,D*6F
$GPVTG,229.83,T,,M,0.06,N,0.10,K,D*3D
$PMTKLOG,0,1,a,31,15,0,0,1,0,0*11
$PMTK001,183,3*3A
$PMTK869,2,0*37
$GPGGA,124728.000,5212.0838,N,00005.9597,E,2,07,1.17,16.5,M,47.0,M,0000,0000*54
$GPGSA,A,3,24,15,21,30,05,28,13,,,,,,2.01,1.17,1.63*0D
$GPRMC,124728.000,A,5212.0838,
N,00005.9597,E,0.06,229.83,270119,,,D*69
$GPVTG,229.83,T,,M,0.06,N,0.11,K,D*3C
$PMTKLOG,0,1,a,31,15,0,0,1,0,0*11
$PMTK001,183,3*3A
$PMTK869,2,0*37
$GPGGA,124728.100,5212.0838,N,00005.9597,E,2,07,1.17,16.5,M,47.0,M,0000,0000*55
$GPGSA,A,3,24,15,21,30,05,28,13,,,,,,2.01,1.17,1.63*0D
$GPRMC,124728.100,A,5212.0838,N,00005.9597,E,0.06,229.83,270119,,,D*68
$GPVTG,229.83,T,,M,0.06,N,0.11,K,D*3C
$PMTKLOG,0,1
,a,31,15,0,0,1,0,0*11
$PMTK001,183,3*3A
$PMTK869,2,0*37
$GPGGA,124728.200,5212.0838,N,00005.9597,E,2,07,1.17,16.5,M,47.0,M,0000,0000*56
$GPGSA,A,3,24,15,21,30,05,28,13,,,,,,2.01,1.17,1.63*0D
$GPRMC,124728.200,A,5212.0838,N,00005.9597,E,0.07,229.83,270119,,,D*6A
$GPVTG,229.83,T,,M,0.07,N,0.12,K,D*3E
$PMTKLOG,0,1,a,31,15,0,0,1,0,0*11
$PMTK001,183,3*3A
$PMTK869,2,0*37

$GPGGA,124728.300,5212.0838,N,00005.9597,E,2,07,1.17,16.5,M,47.0,M,0000,0000*57
$GPGSA,A,3,24,15,21,30,05,28,13,,,,,,2.01,1.17,1.63*0D
$GPGSV,3,1,11,13,88,085,39,15,54,290,42,28,52,089,37,30,32,067,37*79
$GPGSV,3,2,11,05,29,187,39,36,23,142,35,24,20,249,34,20,14,322,26*7B
$GPGSV,3,3,11,21,11,291,31,08,07,019,,07,02,067,*41
$GPRMC,124728.300,A,5212.0838,N,00005.9597,E,0.07,229.83,270119,,,D*6B
$GPVTG,229.83,T,,M,0.07,N,0.12,K,D*3E
$PMTKLOG,0,1,a,31,15,0,0,1,0,0*11
$PMTK001,183,3*3A
$PMTK869,2,0*37

$GPGGA,124728.400,5212.0838,N,00005.9598,E,2,07,1.17,16.5,M,47.0,M,0000,0000*5F
$GPGSA,A,3,24,15,21,30,05,28,13,,,,,,2.01,1.17,1.63*0D
$GPRMC,124728.400,A,5212.0838,N,00005.9598,E,0.07,229.83,270119,,,D*63
$GPVTG,229.83,T,,M,0.07,N,0.12,K,D*3E
$PMTKLOG,0,1,a,31,15,0,0,1,0,0*11
$PMTK001,183,3*3A
$PMTK869,2,0*37

$GPGGA,124728.500,5212.0838,N,00005.9598,E,2,07,1.17,16.5,M,47.0,M,0000,0000*5E
$GPGSA,A,3,24,15,21,30,05,28,13,,,,,,2.01,1.17,1.63*0D
$GPRMC,124728.500,A,5212.0838,N,00005.9598,E,0.06,229.83,270119,,,D*63
$GPVTG,229.83,T,,M,0.06,N,0.12,K,D*3F
$PMTKLOG,0,1,a,31,15,0,0,1,0,0*11
$PMTK001,183,3*3A
$PMTK869,2,0*37

$GPGGA,124728.600,5212.0838,N,00005.9598,E,2,07,1.17,16.5,M,47.0,M,0000,0000*5D
$GPGSA,A,3,24,15,21,30,05,28,13,,,,,,2.01,1.17,1.63*0D
$GPRMC,124728.600,A,5212.0838,N,00005.9598,E,0.06,229.83,270119,,,D*60
$GPVTG,229.83,T,,M,0.06,N,0.11,K,D*3C

$GPGGA,124728.700,5212.0838,N,00005.9598,E,2,07,1.17,16.5,M,47.0,M,0000,0000*5C
$GPGSA,A,3,24,15,21,30,05,28,13,,,,,,2.01,1.17,1.63*0D
$GPRMC,124728.700,A,5212.0838,N,00005.9598,E,0.06,229.83,270119,,,D*61
$GPVTG,229.83,T,,M,0.06,N,0.11,K,D*3C
$PMTKLOG,0,1,a,31,15,0,0,1,0,0*11
$PMTK001,183,3*3A
$PMTK869,2,0*37
$GPGGA,124728.800,5212.0839,N,00005.9599,E,2,07,1.17,16.5,M,47.0,M,0000,0000*53
$GPGSA,A,3,24,15,21,30,05,28,13,,,,,,2.01,1.17,1.63*0D
$GPGSV,3,1,11,13,88,085,38,15,54,290,42,28,52,089,36,30,32,067,37*79
$GPGSV,3,2,11,05,29,187,38,36,23,142,34,24,20,249,35,20,14,322,27*7B
$GPGSV,3,3,11,21,11,291,31,08,07,019,,07,02,067,*41
$GPRMC,124728.800,A,5212.0839,N,00005.9599,E,0.06,229.83,270119,,,D*6E
$GPVTG,229.83,T,,M,0.06,N,0.12,K,D*3F
$PMTKLOG,0,1,a,31,15,0,0,1,0,0*11
$PMTK001,183,3*3A
$PMTK869,2,0*37

$GPGGA,124728.900,5212.0839,N,00005.9599,E,2,07,1.17,16.5,M,47.0,M,0000,0000*52
$GPGSA,A,3,24,15,21,30,05,28,13,,,,,,2.01,1.17,1.63*0D
$GPRMC,124728.900,A,5212.0839,N,00005.9599,E,0.07,229.83,270119,,,D*6E
$GPVTG,229.83,T,,M,0.07,N,0.12,K,D*3E
$PMTKLOG,0,1,a,31,15,0,0,1,0,0*11
$PMTK001,183,3*3A
$PMTK869,2,0*37

$GPGGA,124729.000,5212.0839,N,00005.9599,E,2,07,1.17,16.4,M,47.0,M,0000,0000*5B
$GPGSA,A,3,24,15,21,30,05,28,13,,,,,,2.01,1.17,1.63*0D
$GPRMC,124729.000,A,5212.0839,N,00005.9599,E,0.07,229.83,270119,,,D*66
$GPVTG,229.83,T,,M,0.07,N,0.13,K,D*3F
$PMTKLOG,0,1,a,31,15,0,0,1,0,0*11
$PMTK001,183,3*3A
$PMTK869,2,0*37
$GPGGA,124729.100,5212.0839,N,00005.9599,E,2,07,1.17,16.4,M,47.0,M,0000,0000*5A
$G
PGSA,A,3,24,15,21,30,05,28,13,,,,,,2.01,1.17,1.63*0D
$GPRMC,124729.100,A,5212.0839,N,00005.9599,E,0.07,229.83,270119,,,D*67
$GPVTG,229.83,T,,M,0.07,N,0.14,K,D*38
$PMTKLOG,0,1,a,31,15,0,0,1,0,0*11
$PMTK001,183,3*3A
$PMTK869,2,0*37
$GPGGA,124729.200,5212.0839,N,00005.9599,E,2,07,1.17,16.4,M,47.0,M,0000,0000*59
$GPGSA,A,3,24,15,21,30,05,28,13,,,,,,2.01,1.17,1.63*0D
$GPRMC,124729.200,A,5212.0839,N,00005.9599,E,0.08,2
29.83,270119,,,D*6B
$GPVTG,229.83,T,,M,0.08,N,0.14,K,D*37
$PMTKLOG,0,1,a,31,15,0,0,1,0,0*11
$PMTK001,183,3*3A
$PMTK869,2,0*37
$GPGGA,124729.300,5212.0839,N,00005.9599,E,2,07,1.17,16.4,M,47.0,M,0000,0000*58
$GPGSA,A,3,24,15,21,30,05,28,13,,,,,,2.01,1.17,1.63*0D
$GPGSV,3,1,11,13,88,086,40,15,54,290,43,28,52,089,38,30,32,067,38*75
$GPGSV,3,2,11,05,29,187,40,36,23,142,36,24,20,249,36,20,14,322,29*7B
$GPGSV,3,3,11,21,11,291,32,08,07,019,,07,02,067,*42
$GPRMC,124729.300,A,5212.0839,N,00005.9599,E,0.08,229.83,270119,,,D*6A
$GPVTG,229.83,T,,M,0.08,N,0.14,K,D*37
$PMTKLOG,0,1,a,31,15,0,0,1,0,0*11
$PMTK001,183,3*3A
$PMTK869,2,0*37

$GPGGA,124729.400,5212.0839,N,00005.9600,E,2,07,1.17,16.4,M,47.0,M,0000,0000*5C
$GPGSA,A,3,24,15,21,30,05,28,13,,,,,,2.01,1.17,1.63*0D
$GPRMC,124729.400,A,5212.0839,N,00005.9600,E,0.07,229.83,270119,,,D*61
$GPVTG,229.83,T,,M,0.07,N,0.14,K,D*38
$PMTKLOG,0,1,a,31,15,0,0,1,0,0*11
$PMTK001,183,3*3A
$PMTK869,2,0*37

$GPGGA,124729.500,5212.0839,N,00005.9600,E,2,07,1.17,16.4,M,47.0,M,0000,0000*5D
$GPGSA,A,3,24,15,21,30,05,28,13,,,,,,2.01,1.17,1.63*0D
$GPRMC,124729.500,A,5212.0839,N,00005.9600,E,0.07,229.83,270119,,,D*60
$GPVTG,229.83,T,,M,0.07,N,0.14,K,D*38
$PMTKLOG,0,1,a,31,15,0,0,1,0,0*11
$PMTK001,183,3*3A
$PMTK869,2,0*37

$GPGGA,124729.600,5212.0839,N,00005.9600,E,2,07,1.17,16.4,M,47.0,M,0000,0000*5E
$GPGSA,A,3,24,15,21,30,05,28,13,,,,,,2.01,1.17,1.63*0D
$GPRMC,124729.600,A,5212.0839,N,00005.9600,E,0.07,229.83,270119,,,D*63
$GPVTG,229.83,T,,M,0.07,N,0.14,K,D*38
$PMTKLOG,0,1,a,31,15,0,0,1,0,0*11
$PMTK001,183,3*3A
$PMTK869,2,0*37

$GPGGA,124729.700,5212.0839,N,00005.9600,E,2,07,1.17,16.4,M,47.0,M,0000,0000*5F
$GPGSA,A,3,24,15,21,30,05,28,13,,,,,,2.01,1.17,1.63*0D
$GPRMC,124729.700,A,5212.0839,N,00005.9600,E,0.08,229.83,270119,,,D*6D
$GPVTG,229.83,T,,M,0.08,N,0.14,K,D*37
$PMTKLOG,0,1,a,31,15,0,0,1,0,0*11
$PMTK001,183,3*3A
$PMTK869,2,0*37

$GPGGA,124729.800,5212.0839,N,00005.9600,E,2,07,1.17,16.4,M,47.0,M,0000,0000*50
$GPGSA,A,3,24,15,21,30,05,28,13,,,,,,2.01,1.17,1.63*0D
$GPGSV,3,1,11,13,88,086,38,15,54,290,41,28,52,089,37,30,32,067,37*78
$GPGSV,3,2,11,05,29,187,39,36,23,142,36,24,20,249,35,20,14,322,28*77
$GPGSV,3,3,11,21,11,291,31,08,07,019,,07,02,067,*41
$GPRMC,124729.800,A,5212.0839,N,00005.9600,E,0.08,229.83,270119,,,D*62
$GPVTG,229.83,T,,M,0.08,N,0.14,K,D*37
$PMTKLOG,0,1,a,31,15,0,0,1,0,0*11
$PMTK001,183,3*3A
$PMTK869,2,0*37
$GPGGA,124729.900,5212
.0840,N,00005.9600,E,2,07,1.17,16.4,M,47.0,M,0000,0000*5F
$GPGSA,A,3,24,15,21,30,05,28,13,,,,,,2.01,1.17,1.63*0D
$GPRMC,124729.900,A,5212.0840,N,00005.9600,E,0.07,229.83,270119,,,D*62
$GPVTG,229.83,T,,M,0.07,N,0.14,K,D*38

$GPGGA,124730.000,5212.0840,N,00005.9600,E,2,07,1.17,16.3,M,47.0,M,0000,0000*59
$GPGSA,A,3,24,15,21,30,05,28,13,,,,,,2.01,1.17,1.63*0D
$GPRMC,124730.000,A,5212.0840,N,00005.9600,E,0.07,229.83,270119,,,D*63
$GPVTG,229.83,T,,M,0.07,N,0.14,K,D*38
$PMTKLOG,0,1,a,31,15,0,0,1,0,0*11
$PMTK001,183,3*3A
$PMTK869,2,0*37

$GPGGA,124730.100,5212.0840,N,00005.9600,E,2,07,1.17,16.4,M,47.0,M,0000,0000*5F
$GPGSA,A,3,24,15,21,30,05,28,13,,,,,,2.01,1.17,1.63*0D
$GPRMC,124730.100,A,5212.0840,N,00005.9600,E,0.07,229.83,270119,,,D*62
$GPVTG,229.83,T,,M,0.07,N,0.13,K,D*3F
$PMTKLOG,0,1,a,31,15,0,0,1,0,0*11
$PMTK001,183,3*3A
$PMTK869,2,0*37
$GPGGA,12
4730.200,5212.0840,N,00005.9600,E,2,07,1.17,16.3,M,47.0,M,0000,0000*5B
$GPGSA,A,3,24,15,21,30,05,28,13,,,,,,2.01,1.17,1.63*0D
$GPRMC,124730.200,A,5212.0840,N,00005.9600,E,0.07,229.83,270119,,,D*61
$GPVTG,229.83,T,,M,0.07,N,0.13,K,D*3F
$PMTKLOG,0,1,a,31,15,0,0,1,0,0*11
$PMTK001,183,3*3A
$PMTK869,2,0*37
$GPGGA,124730.300,5212.0840,N,00005.9600,E,2,07,1.17,16.3,M,47.0,M,0000,0000*5A
$GPGSA,A,3,24,15,21,30,05,28,13,,,,,
,2.01,1.17,1.63*0D
$GPGSV,3,1,11,13,88,086,39,15,54,290,42,28,52,089,37,30,32,067,37*7A
$GPGSV,3,2,11,05,29,187,39,36,23,142,35,24,20,249,35,20,14,322,26*7A
$GPGSV,3,3,11,21,11,291,30,08,07,019,,07,02,067,*40
$GPRMC,124730.300,A,5212.0840,N,00005.9600,E,0.07,229.83,270119,,,D*60
$GPVTG,229.83,T,,M,0.07,N,0.13,K,D*3F
$PMTKLOG,0,1,a,31,15,0,0,1,0,0*11
$PMTK001,183,3*3A
$PMTK869,2,0*37
$GPGGA,124730.400,5212.0840,N,00005.9600,E,2,07,1.17,16.3,M,47.0,M,0000,0000*5D
$GPGSA,A,3,24,15,21,30,05,28,13,,,,,,2.01,1.17,1.63*0D
$GPRMC,124730.400,A,5212.0840,N,00005.9600,E,0.07,229.83,270119,,,D*67
$GPVTG,229.83,T,,M,0.07,N,0.13,K,D*3F
$PMTKLOG,0,1,a,31,15,0,0,1,0,0*11
$PMTK001,183,3*3A
$PMTK869,2,0*37

$GPGGA,124730.500,5212.0840,N,00005.9600,E,2,07,1.17,16.3,M,47.0,M,0000,0000*5C
$GPGSA,A,3,24,15,21,30,05,28,13,,,,,,2.01,1.17,1.63*0D
$GPRMC,124730.500,A,5212.0840,N,00005.9600,E,0.07,229.83,270119,,,D*66
$GPVTG,229.83,T,,M,0.07,N,0.13,K,D*3F
$PMTKLOG,0,1,a,31,15,0,0,1,0,0*11
$PMTK001,183,3*3A
$PMTK869,2,0*37

$GPGGA,124730.600,5212.0840,N,00005.9601,E,2,07,1.17,16.3,M,47.0,M,0000,0000*5E
$GPGSA,A,3,24,15,21,30,05,28,13,,,,,,2.01,1.17,1.63*0D
$GPRMC,124730.600,A,5212.0840,N,00005.9601,E,0.07,229.83,270119,,,D*64
$GPVTG,229.83,T,,M,0.07,N,0.13,K,D*3F
$PMTKLOG,0,1,a,31,15,0,0,1,0,0*11
$PMTK001,183,3*3A
$PMTK869,2,0*37

$GPGGA,124730.700,5212.0840,N,00005.9601,E,2,07,1.17,16.3,M,47.0,M,0000,0000*5F
$GPGSA,A,3,24,15,21,30,05,28,13,,,,,,2.01,1.17,1.63*0D
$GPRMC,124730.700,A,5212.0840,N,00005.9601,E,0.07,229.83,270119,,,D*65
$GPVTG,229.83,T,,M,0.07,N,0.13,K,D*3F
$PMTKLOG,0,1,a,31,15,0,0,1,0,0*11
$PMTK001,183,3*3A
$PMTK869,2,0*37

$GPGGA,124730.800,5212.0840,N,00005.9601,E,2,07,1.17,16.3,M,47.0,M,0000,0000*50
$GPGSA,A,3,24,15,21,30,05,28,13,,,,,,2.01,1.17,1.63*0D
$GPGSV,3,1,11,13,88,086,40,15,54,290,43,28,52,089,38,30,32,067,38*75
$GPGSV,3,2,11,05,29,187,40,36,23,142,35,24,20,249,36,20,14,322,28*79
$GPGSV,3,3,11,21,11,291,31,08,07,019,,07,02,067,*41
$GPRMC,124730.800,A,5212.0840,N,00005.9601,E,0.07,229.83,270119,,,D*6A
$GPVTG,229.83,T,,M,0.07,N,0.12,K,D*3E
$PMTKLOG,0,1,a,31,15,0,0,1,0,0*11
$PMTK001,183,3*3A
$PMTK869,2,0*37

$GPGGA,124730.900,5212.0840,N,00005.9601,E,2,07,1.17,16.3,M,47.0,M,0000,0000*51
$GPGSA,A,3,24,15,21,30,05,28,13,,,,,,2.01,1.17,1.63*0D
$GPRMC,124730.900,A,5212.0840,N,00005.9601,E,0.07,229.83,270119,,,D*6B
$GPVTG,229.83,T,,M,0.07,N,0.12,K,D*3E
$PMTKLOG,0,1,a,31,15,0,0,1,0,0*11
$PMTK001,183,3*3A
$PMTK869,2,0*37

$GPGGA,124731.000,5212.0840,N,00005.9601,E,2,07,1.17,16.3,M,47.0,M,0000,0000*59
$GPGSA,A,3,24,15,21,30,05,28,13,,,,,,2.01,1.17,1.63*0D
$GPRMC,124731.000,A,5212.0840,N,00005.9601,E,0.06,229.83,270119,,,D*62
$GPVTG,229.83,T,,M,0.06,N,0.12,K,D*3F

$GPGGA,124731.100,5212.0840,N,00005.9601,E,2,07,1.17,16.3,M,47.0,M,0000,0000*58
$GPGSA,A,3,24,15,21,30,05,28,13,,,,,,2.01,1.17,1.63*0D
$GPRMC,124731.100,A,5212.0840,N,00005.9601,E,0.06,229.83,270119,,,D*63
$GPVTG,229.83,T,,M,0.06,N,0.12,K,D*3F
$PMTKLOG,0,1,a,31,15,0,0,1,0,0*11
$PMTK001,183,3*3A
$PMTK869,2,0*37

$GPGGA,124731.200,5212.0840,N,00005.9601,E,2,07,1.17,16.3,M,47.0,M,0000,0000*5B
$GPGSA,A,3,24,15,21,30,05,28,13,,,,,,2.01,1.17,1.63*0D
$GPRMC,124731.200,A,5212.0840,N,00005.9601,E,0.06,229.83,270119,,,D*60
$GPVTG,229.83,T,,M,0.06,N,0.11,K,D*3C
$PMTKLOG,0,1,a,31,15,0,0,1,0,0*11
$PMTK001,183,3*3A
$PMTK869,2,0*37

$GPGGA,124731.300,5212.0840,N,00005.9601,E,2,07,1.17,16.3,M,47.0,M,0000,0000*5A
$GPGSA,A,3,24,15,21,30,05,28,13,,,,,,2.01,1.17,1.63*0D
$GPGSV,3,1,11,13,88,086,40,15,54,290,43,28,52,089,38,30,32,067,38*75
$GPGSV,3,2,11,05,29,187,41,36,23,142,35,24,20,249,36,20,14,322,28*78
$GPGSV,3,3,11,21,11,291,30,08,07,019,,07,02,067,*40
$GPRMC,124731.300,A,5212.0840,N,00005.9601,E,0.06,229.83,270119,,,D*61
$GPVTG,229.83,T,,M,0.06,N,0.10,K,D*3D
$PMTKLOG,0,1,a,31,15,0,0,1,0,0*11
$PMTK001,183,3*3A
$PMTK869,2,0*37
$GPGGA,124731.400,5212.0840,N,00005.9601,E,2,07,1.17,16.3,M,47.0,
M,0000,0000*5D
$GPGSA,A,3,24,15,21,30,05,28,13,,,,,,2.01,1.17,1.63*0D
$GPRMC,124731.400,A,5212.0840,N,00005.9601,E,0.05,229.83,270119,,,D*65
$GPVTG,229.83,T,,M,0.05,N,0.09,K,D*36
$PMTKLOG,0,1,a,31,15,0,0,1,0,0*11
$PMTK001,183,3*3A
$PMTK869,2,0*37
$GPGGA,124731.500,5212.0840,N,00005.9601,E,2,07,1.17,16.3,M,47.0,M,0000,0000*5C
$GPGSA,A,3,24,15,21,30,05,28,13,,,,,,2.01,1.17,1.63*0D
$GPRMC,124731.500,A,5212.0840,N,00005.9601,E,0.05,229.83,270119,,,D*64
$GPVTG,229.83,T,,M,0.05,N,0.09,K,D*36
$PMTKLOG,0,1,a,31,15,0,0,1,0,0*11
$PMTK001,183,3*3A
$PMTK869,2,0*37

$GPGGA,124731.600,5212.0840,N,00005.9601,E,2,07,1.17,16.3,M,47.0,M,0000,0000*5F
$GPGSA,A,3,24,15,21,30,05,28,13,,,,,,2.01,1.17,1.63*0D
$GPRMC,124731.600,A,5212.0840,N,00005.9601,E,0.04,229.83,270119,,,D*66
$GPVTG,229.83,T,,M,0.04,N,0.08,K,D*36
$PMTKLOG,0,1,a,31,15,
0,0,1,0,0*11
$PMTK001,183,3*3A
$PMTK869,2,0*37
$GPGGA,124731.700,5212.0840,N,00005.9601,E,2,07,1.17,16.3,M,47.0,M,0000,0000*5E
$GPGSA,A,3,24,15,21,30,05,28,13,,,,,,2.01,1.17,1.63*0D
$GPRMC,124731.700,A,5212.0840,N,00005.9601,E,0.04,229.83,270119,,,D*67
$GPVTG,229.83,T,,M,0.04,N,0.08,K,D*36
$PMTKLOG,0,1,a,31,15,0,0,1,0,0*11
$PMTK001,183,3*3A
$PMTK869,2,0*37

$GPGGA,124731.800,5212.0840,N,00005.9601,E,2,07,1.17,16.3,M,47.0,M,0000,0000*51
$GPGSA,A,3,24,15,21,30,05,28,13,,,,,,2.01,1.17,1.63*0D
$GPGSV,3,1,11,13,88,086,39,15,54,290,42,28,52,089,37,30,32,067,38*75
$GPGSV,3,2,11,05,29,187,39,36,23,142,35,24,20,249,35,20,14,322,27*7B
$GPGSV,3,3,11,21,11,291,30,08,07,019,,07,02,067,*40
$GPRMC,124731.800,A,5212.0840,N,00005.9601,E,0.04,229.83,270119,,,D*68
$GPVTG,229.83,T,,M,0.04,N,0.07,K,D*39
$PMTKLOG,0,1,a,31,15,0,0,1,0,0*11
$PMTK001,183,3*3A

$PMTK869,2,0*37
$GPGGA,124731.900,5212.0840,N,00005.9601,E,2,07,1.17,16.3,M,47.0,M,0000,0000*50
$GPGSA,A,3,24,15,21,30,05,28,13,,,,,,2.01,1.17,1.63*0D
$GPRMC,124731.900,A,5212.0840,N,00005.9601,E,0.03,229.83,270119,,,D*6E
$GPVTG,229.83,T,,M,0.03,N,0.06,K,D*3F
$PMTKLOG,0,1,a,31,15,0,0,1,0,0*11
$PMTK001,183,3*3A
$PMTK869,2,0*37

$GPGGA,124732.000,5212.0840,N,00005.9601,E,2,07,1.17,16.3,M,47.0,M,0000,0000*5A
$GPGSA,A,3,24,15,21,30,05,28,13,,,,,,2.01,1.17,1.63*0D
$GPRMC,124732.000,A,5212.0840,N,00005.9601,E,0.04,229.83,270119,,,D*63
$GPVTG,229.83,T,,M,0.04,N,0.07,K,D*39
$PMTKLOG,0,1,a,31,15,0,0,1,0,0*11
$PMTK001,183,3*3A
$PMTK869,2,0*37

$GPGGA,124732.100,5212.0840,N,00005.9601,E,2,07,1.17,16.3,M,47.0,M,0000,0000*5B
$GPGSA,A,3,24,15,21,30,05,28,13,,,,,,2.01,1.17,1.63*0D
$GPRMC,124732.100,A,5212.0840,N,00005.9601,E,0.04,229.83,270119,,,D*62
$GPVTG,229.83,T,,M,0.04,N,0.07,K,D*39
$PMTKLOG,0,1,a,31,15,0,0,1,0,0*11
$PMTK001,183,3*3A
$PMTK869,2,0*37

$GPGGA,124732.200,5212.0840,N,00005.9601,E,2,07,1.17,16.3,M,47.0,M,0000,0000*58
$GPGSA,A,3,24,15,21,30,05,28,13,,,,,,2.01,1.17,1.63*0D
$GPRMC,124732.200,A,5212.0840,N,00005.9601,E,0.04,229.83,270119,,,D*61
$GPVTG,229.83,T,,M,0.04,N,0.07,K,D*39

$GPGGA,124732.300,5212.0840,N,00005.9601,E,2,07,1.17,16.3,M,47.0,M,0000,0000*59
$GPGSA,A,3,24,15,21,30,05,28,13,,,,,,2.01,1.17,1.63*0D
$GPGSV,3,1,11,13,88,086,39,15,54,290,42,28,52,089,37,30,32,067,38*75
$GPGSV,3,2,11,05,29,187,39,36,23,142,35,24,20,249,34,20,14,322,26*7B
$GPGSV,3,3,11,21,11,291,29,08,07,019,,07,02,067,*48
$GPRMC,124732.300,A,5212.0840,N,00005.9601,E,0.03,229.83,270119,,,D*67
$GPVTG,229.83,T,,M,0.03,N,0.06,K,D*3F
$PMTKLOG,0,1,a,31,15,0,0,1,0,0*11
$PMTK001,183,3*3A
$PMTK869,2,0*37

$GPGGA,124732.400,5212.0840,N,00005.9601,E,2,07,1.17,16.3,M,47.0,M,0000,0000*5E
$GPGSA,A,3,24,15,21,30,05,28,13,,,,,,2.01,1.17,1.63*0D
$GPRMC,124732.400,A,5212.0840,N,00005.9601,E,0.03,229.83,270119,,,D*60
$GPVTG,229.83,T,,M,0.03,N,0.06,K,D*3F
$PMTKLOG,0,1,a,31,15,0,0,1,0,0*11
$PMTK001,183,3*3A
$PMTK869,2,0*37

$GPGGA,124732.500,5212.0840,N,00005.9601,E,2,07,1.17,16.3,M,47.0,M,0000,0000*5F
$GPGSA,A,3,24,15,21,30,05,28,13,,,,,,2.01,1.17,1.63*0D
$GPRMC,124732.500,A,5212.0840,N,00005.9601,E,0.03,229.83,270119,,,D*61
$GPVTG,229.83,T,,M,0.03,N,0.06,K,D*3F
$PMTKLOG,0,1,a,31,15,0,0,1,0,0*11
$PMTK001,183,3*3A
$PMTK869,2,0*37
$GPGGA,124732.600,5212.0840,N,00005.9601,E,2,07,1.17,16.3,M,47.0,M,0000,0000*5C
$GPGSA,A,3,24,15,21,30,05,28,13,,,,,,2.01,1.17,1.63*0D
$GPRMC,124732.600,A,5212.0840,N,00005.9601,E,0.03,229.83,270119,,,D*62
$GPVTG,229.83,T,,M,0.03,N,0.05,K,D*3C
$PMTKLOG,0,1,a,31,15,0,0,1,0,0*11
$PMTK001,183,3*3A
$PMTK869,2,0*37

$GPGGA,124732.700,5212.0840,N,00005.9601,E,2,07,1.17,16.3,M,47.0,M,0000,0000*5D
$GPGSA,A,3,24,15,21,30,05,28,13,,,,,,2.01,1.17,1.63*0D
$GPRMC,124732.700,A,5212.0840,N,00005.9601,E,0.03,229.83,270119,,,D*63
$GPVTG,229.83,T,,M,0.03,N,0.06,K,D*3F
$PMTKLOG,0,1,a,31,15,0,0,1,0,0*11
$PMTK001,183,3*3A
$PMTK869,2,0*37

$GPGGA,124732.800,5212.0840,N,00005.9601,E,2,07,1.17,16.3,M,47.0,M,0000,0000*52
$GPGSA,A,3,24,15,21,30,05,28,13,,,,,,2.01,1.17,1.63*0D
$GPGSV,3,1,11,13,88,086,41,15,54,290,44,28,52,089,39,30,32,067,39*73
$GPGSV,3,2,11,05,29,187,41,36,23,142,36,24,20,249,37,20,14,322,2
8*7A
$GPGSV,3,3,11,21,11,291,31,08,07,019,,07,02,067,*41
$GPRMC,124732.800,A,5212.0840,N,00005.9601,E,0.02,229.83,270119,,,D*6D
$GPVTG,229.83,T,,M,0.02,N,0.05,K,D*3D
$PMTKLOG,0,1,a,31,15,0,0,1,0,0*11
$PMTK001,183,3*3A
$PMTK869,2,0*37
$GPGGA,124732.900,5212.0840,N,00005.9601,E,2,07,1.17,16.3,M,47.0,M,0000,0000*53
$GPGSA,A,3,24,15,21,30,05,28,13,,,,,,2.01,1.17,1.63*0D
$GPRMC,124732.900,A,5212.0840,N,00005.9601,E,0.02,229.83,270119,,,D*6C
$GPVTG,229.83,T,,M,0.02,N,0.05,K,D*3D
$PMTKLOG,0,1,a,31,15,0,0,1,0,0*11
$PMTK001,183,3*3A
$PMTK869,2,0*37

$GPGGA,124733.000,5212.0840,N,00005.9601,E,2,07,1.17,16.3,M,47.0,M,0000,0000*5B
$GPGSA,A,3,24,15,21,30,05,28,13,,,,,,2.01,1.17,1.63*0D
$GPRMC,124733.000,A,5212.0840,N,00005.9601,E,0.03,229.83,270119,,,D*65
$GPVTG,229.83,T,,M,0.03,N,0.05,K,D*3C
$PMTKLOG,0,1,a,31,15,0,0,1,0,0*11
$PMTK001,183,3*3A
$PMTK869,2,0*37

$GPGGA,124733.100,5212.0840,N,00005.9601,E,2,07,1.17,16.3,M,47.0,M,0000,0000*5A
$GPGSA,A,3,24,15,21,30,05,28,13,,,,,,2.01,1.17,1.63*0D
$GPRMC,124733.100,A,5212.0840,N,00005.9601,E,0.03,229.83,270119,,,D*64
$GPVTG,229.83,T,,M,0.03,N,0.05,K,D*3C
$PMTKLOG,0,1,a,31,15,0,0,1,0,0*11
$PMTK001,183,3*3A
$PMTK869,2,0*37

$GPGGA,124733.200,5212.0840,N,00005.9601,E,2,07,1.17,16.3,M,47.0,M,0000,0000*59
$GPGSA,A,3,24,15,21,30,05,28,13,,,,,,2.01,1.17,1.63*0D
$GPRMC,124733.200,A,5212.0840,N,00005.9601,E,0.02,229.83,270119,,,D*66
$GPVTG,229.83,T,,M,0.02,N,0.04,K,D*3C
$PMTKLOG,0,1,a,31,15,0,0,1,0,0*11
$PMTK001,183,3*3A
$PMTK869,2,0*37

$GPGGA,124733.300,5212.0840,N,00005.9601,E,2,07,1.17,16.3,M,47.0,M,0000,0000*58
$GPGSA,A,3,24,15,21,30,05,28,13,,,,,,2.01,1.17,1.63*0D
$GPGSV,3,1,11,13,88,086,39,15,54,290,43,28,52,089,37,30,32,067,38*74
$GPGSV,3,2,11,05,29,187,39,36,23,142,35,24,20,249,35,20,14,322,27*7B
$GPGSV,3,3,11,21,11,291,31,08,07,019,,07,02,067,*41
$GPRMC,124733.300,A,5212.0840,N,00005.9601,E,0.02,229.83,270119,,,D*67
$GPVTG,229.83,T,,M,0.02,N,0.04,K,D*3C
$PMTKLOG,0,1,a,31,15,0,0,1,0,0*11
$PMTK001,183,3*3A
$PMTK869,2,0*37

$GPGGA,124733.400,5212.0840,N,00005.9601,E,2,07,1.17,16.3,M,47.0,M,0000,0000*5F
$GPGSA,A,3,24,15,21,30,05,28,13,,,,,,2.01,1.17,1.63*0D
$GPRMC,124733.400,A,5212.0840,N,00005.9601,E,0.02,229.83,270119,,,D*60
$GPVTG,229.83,T,,M,0.02,N,0.04,K,D*3C

$GPGGA,124733.500,5212.0840,N,00005.9601,E,2,07,1.17,16.3,M,47.0,M,0000,0000*5E
$GPGSA,A,3,24,15,21,30,05,28,13,,,,,,2.01,1.17,1.63*0D
$GPRMC,124733.500,A,5212.0840,N,00005.9601,E,0.02,229.83,270119,,,D*61
$GPVTG,229.83,T,,M,0.02,N,0.04,K,D*3C
$PMTKLOG,0,1,a,31,15,0,0,1,0,0*11
$PMTK001,183,3*3A
$PMTK869,2,0*37

$GPGGA,124733.600,5212.0840,N,00005.9601,E,2,07,1.17,16.3,M,47.0,M,0000,0000*5D
$GPGSA,A,3,24,15,21,30,05,28,13,,,,,,2.01,1.17,1.63*0D
$GPRMC,124733.600,A,5212.0840,N,00005.9601,E,0.02,229.83,270119,,,D*62
$GPVTG,229.83,T,,M,0.02,N,0.03,K,D*3B
$PMTKLOG,0,1,a,31,15,0,0,1,0,0*11
$PMTK001,183,3*3A
$PMTK869,2,0*37
$GPGGA,124733.700,5212.0840,N,00005.9601,E,2,07,1.17,16.3,M,47.0,M,0000,0000*5C
$GPGSA,A,3,24,15,21,30,05,28,13,,,,,,2.01,1.17,1.63*0D
$GPRMC,124733.700,A,5212.0840,N,00005.9601,E,0.02,229.83,270119,,,D*63
$GPVTG,229.83,T,,M,0.02,N,0.03,K,D*3B
$PMTKLOG,0,1,a,31,15,0,0,1,0,0*11
$PMTK001,183,3*3A
$PMTK869,2,0*37

$GPGGA,124733.800,5212.0840,N,00005.9601,E,2,07,1.17,16.3,M,47.0,M,0000,0000*53
$GPGSA,A,3,24,15,21,30,05,28,13,,,,,,2.01,1.17,1.63*0D
$GPGSV,3,1,11,13,88,086,41,15,54,290,44,28,52,089,38,30,32,067,40*7C
$GPGSV,3,2,
11,05,29,187,41,36,23,142,37,24,20,249,37,20,14,322,28*7B
$GPGSV,3,3,11,21,11,291,31,08,07,019,,07,02,067,*41
$GPRMC,124733.800,A,5212.0840,N,00005.9601,E,0.02,229.83,270119,,,D*6C
$GPVTG,229.83,T,,M,0.02,N,0.03,K,D*3B
$PMTKLOG,0,1,a,31,15,0,0,1,0,0*11
$PMTK001,183,3*3A
$PMTK869,2,0*37
$GPGGA,124733.900,5212.0840,N,00005.9601,E,2,07,1.17,16.3,M,47.0,M,0000,0000*52
$GPGSA,A,3,24,15,21,30,05,28,13,,,,,,2.01,1.17,1.63*0D
$GPRMC,124733.900,A,5212.0840,N,00005.9601,E,0.01,229.83,270119,,,D*6E
$GPVTG,229.83,T,,M,
0.01,N,0.03,K,D*38
$PMTKLOG,0,1,a,31,15,0,0,1,0,0*11
$PMTK001,183,3*3A
$PMTK869,2,0*37
$GPGGA,124734.000,5212.0840,N,00005.9601,E,2,07,1.17,16.3,M,47.0,M,0000,0000*5C
$GPGSA,A,3,24,15,21,30,05,28,13,,,,,,2.01,1.17,1.63*0D
$GPRMC,124734.000,A,5212.0840,N,00005.9601,E,0.01,229.83,270119,,,D*60
$GPVTG,229.83,T,,M,0.01,N,0.03,K,D*38
$PMTKLOG,0,1,a,31,15,0,0,1,0,0*11
$PMTK001,183,3*3A
$PMTK869,2,0*37

$GPGGA,124734.100,5212.0840,N,00005.9601,E,2,07,1.17,16.3,M,47.0,M,0000,0000*5D
$GPGSA,A,3,24,15,21,30,05,28,13,,,,,,2.01,1.17,1.63*0D
$GPRMC,124734.100,A,5212.0840,N,00005.9601,E,0.01,229.83,270119,,,D*61
$GPVTG,229.83,T,,M,0.01,N,0.02,K,D*39
$PMTKLOG,0,1,a,31,15,0,0,1,0,0*11
$PMTK001,183,3*3A
$PMTK869,2,0*37

$GPGGA,124734.200,5212.0840,N,00005.9601,E,2,07,1.17,16.3,M,47.0,M,0000,0000*5E
$GPGSA,A,3,24,15,21,30,05,28,13,,,,,,2.01,1.17,1.63*0D
$GPRMC,124734.200,A,5212.0840,N,00005.9601,E,0.01,229.83,270119,,,D*62
$GPVTG,229.83,T,,M,0.01,N,0.02,K,D*39
$PMTKLOG,0,1,a,31,15,0,0,1,0,0*11
$PMTK001,183,3*3A
$PMTK869,2,0*37

$GPGGA,124734.300,5212.0840,N,00005.9601,E,2,07,1.17,16.3,M,47.0,M,0000,0000*5F
$GPGSA,A,3,24,15,21,30,05,28,13,,,,,,2.01,1.17,1.63*0D
$GPGSV,3,1,11,13,88,086,41,15,54,290,44,28,52,089,38,30,32,067,39*72
$GPGSV,3,2,11,05,29,187,41,36,23,142,35,24,20,249,36,20,14,322,27*77
$GPGSV,3,3,11,21,11,291,30,08,07,019,,07,02,067,*40
$GPRMC,124734.300,A,5212.0840,N,00005.9601,E,0.01,229.83,270119,,,D*63
$GPVTG,229.83,T,,M,0.01,N,0.02,K,D*39
$PMTKLOG,0,1,a,31,15,0,0,1,0,0*11
$PMTK001,183,3*3A
$PMTK869,2,0*37

$GPGGA,124734.400,5212.0839,N,00005.9601,E,2,07,1.17,16.3,M,47.0,M,0000,0000*56
$GPGSA,A,3,24,15,21,30,05,28,13,,,,,,2.01,1.17,1.63*0D
$GPRMC,124734.400,A,5212.0839,N,00005.9601,E,0.01,229.83,270119,,,D*6A
$GPVTG,229.83,T,,M,0.01,N,0.02,K,D*39
$PMTKLOG,0,1,a,31,15,0,0,1,0,0*11
$PMTK001,183,3*3A
$PMTK869,2,0*37

$GPGGA,124734.500,5212.0839,N,00005.9601,E,2,07,1.17,16.3,M,47.0,M,0000,0000*57
$GPGSA,A,3,24,15,21,30,05,28,13,,,,,,2.01,1.17,1.63*0D
$GPRMC,124734.500,A,5212.0839,N,00005.9601,E,0.01,229.83,270119,,,D*6B
$GPVTG,229.83,T,,M,0.01,N,0.02,K,D*39
$PMTKLOG,0,1,a,31,15,0,0,1,0,0*11
$PMTK001,183,3*3A
$PMTK869,2,0*37

$GPGGA,124734.600,5212.0839,N,00005.9601,E,2,07,1.17,16.3,M,47.0,M,0000,0000*54
$GPGSA,A,3,24,15,21,30,05,28,13,,,,,,2.01,1.17,1.63*0D
$GPRMC,124734.600,A,5212.0839,N,00005.9601,E,0.01,229.83,270119,,,D*68
$GPVTG,229.83,T,,M,0.01,N,0.02,K,D*39

$GPGGA,124734.700,5212.0839,N,00005.9601,E,2,07,1.17,16.3,M,47.0,M,0000,0000*55
$GPGSA,A,3,24,15,21,30,05,28,13,,,,,,2.01,1.17,1.63*0D
$GPRMC,124734.700,A,5212.0839,N,00005.9601,E,0.01,229.83,270119,,,D*69
$GPVTG,229.83,T,,M,0.01,N,0.02,K,D*39
$PMTKLOG,0,1,a,31,15,0,0,1,0,0*11
$PMTK001,183,3*3A
$PMTK869,2,0*37
$GPGGA,124734.800,5212.0839,N,00005.9601,E,2,07,1.17,16.3,M,47.0,M,0000,0000*5A
$GPGSA,A,3,24,15,21,30,05,28,13,,,,,,2.01,1.17,1.63*0D
$GPGSV,3,1,11,13,88,086,40,15,54,290,43,28,52,089,38,30,32,067,38*75
$GPGSV,3,2,11,05,29,187,40,36,23,142,35,24,20,249,36,20,14,322,27*76
$GPGSV,3,3,11,21,11,291,30,08,07,019,,07,02,067,*40
$GPRMC,124734.800,A,5212.0839,N,00005.9601,E,0.01
,229.83,270119,,,D*66
$GPVTG,229.83,T,,M,0.01,N,0.02,K,D*39
$PMTKLOG,0,1,a,31,15,0,0,1,0,0*11
$PMTK001,183,3*3A
$PMTK869,2,0*37
$GPGGA,124734.900,5212.0839,N,00005.9601,E,2,07,1.17,16.3,M,47.0,M,0000,0000*5B
$GPGSA,A,3,24,1
5,21,30,05,28,13,,,,,,2.01,1.17,1.63*0D
$GPRMC,124734.900,A,5212.0839,N,00005.9601,E,0.01,229.83,270119,,,D*67
$GPVTG,229.83,T,,M,0.01,N,0.02,K,D*39
$PMTKLOG,0,1,a,31,15,0,0,1,0,0*11
$PMTK001,183,3*3A
$PMTK869,2,0*37
$GPGGA,124735.000,5212.0839,N,00005.9601,E,2,07,1.17,16.4,M,47.0,M,0000,0000*54
$GPGSA,A,3,24,15,21,30,05,28,13,,,,,,2.01,1.17,1.63*0D
$GPRMC,124735.000,A,5212.0839,N,00005.9601,E,0.01,229.83,270119,,,D*6F
$GPVTG,
229.83,T,,M,0.01,N,0.02,K,D*39
$PMTKLOG,0,1,a,31,15,0,0,1,0,0*11
$PMTK001,183,3*3A
$PMTK869,2,0*37
$GPGGA,124735.100,5212.0839,N,00005.9601,E,2,07,1.17,16.4,M,47.0,M,0000,0000*55
$GPGSA,A,3,24,15,21,30,05,28,13,,,,,,2.01,1.17,1.63*0D
$GPRMC,124735.100,A,5212.0839,N,00005.9601,E,0.01,229.83,270119,,,D*6E
$GPVTG,229.83,T,,M,0.01,N,0.02,K,D*39
$PMTKLOG,0,1,a,31,15,0,0,1,0,0*11
$PMTK001,183,3*3A
$PMTK869,2,0*37

$GPGGA,124735.200,5212.0839,N,00005.9601,E,2,07,1.17,16.4,M,47.0,M,0000,0000*56
$GPGSA,A,3,24,15,21,30,05,28,13,,,,,,2.01,1.17,1.63*0D
$GPRMC,124735.200,A,5212.0839,N,00005.9601,E,0.01,229.83,270119,,,D*6D
$GPVTG,229.83,T,,M,0.01,N,0.02,K,D*39
$PMTKLOG,0,1,a,31,15,0,0,1,0,0*11
$PMTK001,183,3*3A
$PMTK869,2,0*37

$GPGGA,124735.300,5212.0839,N,00005.9601,E,2,07,1.17,16.4,M,47.0,M,0000,0000*57
$GPGSA,A,3,24,15,21,30,05,28,13,,,,,,2.01,1.17,1.63*0D
$GPGSV,3,1,11,13,88,086,41,15,54,290,44,28,52,089,39,30,32,067,39*73
$GPGSV,3,2,11,05,29,187,41,36,23,142,36,24,20,249,37,20,14,322,29*7B
$GPGSV,3,3,11,21,11,291,31,08,07,019,,07,02,067,*41
$GPRMC,124735.300,A,5212.0839,N,00005.9601,E,0.01,229.83,270119,,,D*6C
$GPVTG,229.83,T,,M,0.01,N,0.02,K,D*39
$PMTKLOG,0,1,a,31,15,0,0,1,0,0*11
$PMTK001,183,3*3A
$PMTK869,2,0*37

$GPGGA,124735.400,5212.0839,N,00005.9601,E,2,07,1.17,16.4,M,47.0,M,0000,0000*50
$GPGSA,A,3,24,15,21,30,05,28,13,,,,,,2.01,1.17,1.63*0D
$GPRMC,124735.400,A,5212.0839,N,00005.9601,E,0.01,229.83,270119,,,D*6B
$GPVTG,229.83,T,,M,0.01,N,0.02,K,D*39
$PMTKLOG,0,1,a,31,15,0,0,1,0,0*11
$PMTK001,183,3*3A
$PMTK869,2,0*37

$GPGGA,124735.500,5212.0839,N,00005.9601,E,2,07,1.17,16.4,M,47.0,M,0000,0000*51
$GPGSA,A,3,24,15,21,30,05,28,13,,,,,,2.01,1.17,1.63*0D
$GPRMC,124735.500,A,5212.0839,N,00005.9601,E,0.01,229.83,270119,,,D*6A
$GPVTG,229.83,T,,M,0.01,N,0.02,K,D*39
$PMTKLOG,0,1,a,31,15,0,0,1,0,0*11
$PMTK001,183,3*3A
$PMTK869,2,0*37

$GPGGA,124735.600,5212.0839,N,00005.9601,E,2,07,1.17,16.4,M,47.0,M,0000,0000*52
$GPGSA,A,3,24,15,21,30,05,28,13,,,,,,2.01,1.17,1.63*0D
$GPRMC,124735.600,A,5212.0839,N,00005.9601,E,0.01,229.83,270119,,,D*69
$GPVTG,229.83,T,,M,0.01,N,0.01,K,D*3A
$PMTKLOG,0,1,a,31,15,0,0,1,0,0*11
$PMTK001,183,3*3A
$PMTK869,2,0*37

$GPGGA,124735.700,5212.0839,N,00005.9601,E,2,07,1.17,16.4,M,47.0,M,0000,0000*53
$GPGSA,A,3,24,15,21,30,05,28,13,,,,,,2.01,1.17,1.63*0D
$GPRMC,124735.700,A,5212.0839,N,00005.9601,E,0.01,229.83,270119,,,D*68
$GPVTG,229.83,T,,M,0.01,N,0.01,K,D*3A
$PMTKLOG,0,1,a,31,15,0,0,1,0,0*11
$PMTK001,183,3*3A
$PMTK869,2,0*37

$GPGGA,124735.800,5212.0839,N,00005.9601,E,2,07,1.17,16.4,M,47.0,M,0000,0000*5C
$GPGSA,A,3,24,15,21,30,05,28,13,,,,,,2.01,1.17,1.63*0D
$GPGSV,3,1,11,13,88,086,39,15,54,290,42,28,52,089,37,30,32,067,38*75
$GPGSV,3,2,11,05,29,187,39,36,23,142,35,24,20,249,35,20,14,322,27*7B
$GPGSV,3,3,11,21,11,291,29,08,07,019,,07,02,067,*48
$GPRMC,124735.800,A,5212.0839,N,00005.9601,E,0.01,229.83,270119,,,D*67
$GPVTG,229.83,T,,M,0.01,N,0.01,K,D*3A
$GPGGA,124735.900,5212.0838,N,00005.9601,E,2,07,1.17,16.4,M,47.0,M,0000,0000*5C
$GPGSA,A,3,24,15,21,30,05,28,13,,,,,,2.01,1.17,1.63*0D
$GPRMC,124735.900,A,5212.0838,N,00005.9601,E,0.01,229.83,270119,,,D*67
$GPVTG,229.83,T,,M,0.01,N,0.01,K,D*3A
$PMTKLOG,0,1,a,31,15,0,0,1,0,0*11
$PMTK001,183,3*3A
$PMTK869,2,0*37

$GPGGA,124736.000,5212.0838,N,00005.9601,E,2,07,1.18,16.4,M,47.0,M,0000,0000*59
$GPGSA,A,3,24,15,21,30,05,28,13,,,,,,2.01,1.18,1.63*02
$GPRMC,124736.000,A,5212.0838,N,00005.9601,E,0.01,229.83,270119,,,D*6D
$GPVTG,229.8
3,T,,M,0.01,N,0.01,K,D*3A
$PMTKLOG,0,1,a,31,15,0,0,1,0,0*11
$PMTK001,183,3*3A
$PMTK869,2,0*37
$GPGGA,124736.100,5212.0838,N,00005.9601,E,2,07,1.17,16.4,M,47.0,M,0000,0000*57
$GPGSA,A,3,24,15,21,30,05,28,13,,,,,,2.01,1.17,1.63
*0D
$GPRMC,124736.100,A,5212.0838,N,00005.9601,E,0.01,229.83,270119,,,D*6C
$GPVTG,229.83,T,,M,0.01,N,0.01,K,D*3A
$PMTKLOG,0,1,a,31,15,0,0,1,0,0*11
$PMTK001,183,3*3A
$PMTK869,2,0*37
$GPGGA,124736.200,5212.0838,N,00005.9601,E,2,07,1.17,16.4,M,47.0,M,0000,0000*54
$GPGSA,A,3,24,15,21,30,05,28,13,,,,,,2.01,1.17,1.63*0D
$GPRMC,124736.200,A,5212.0838,N,00005.9601,E,0.00,229.83,270119,,,D*6E
$GPVTG,229.83,T,,M,0.00,N,0.01,K,D*3B
$PMTKLOG,0,1
,a,31,15,0,0,1,0,0*11
$PMTK001,183,3*3A
$PMTK869,2,0*37
$GPGGA,124736.300,5212.0838,N,00005.9601,E,2,07,1.17,16.4,M,47.0,M,0000,0000*55
$GPGSA,A,3,24,15,21,30,05,28,13,,,,,,2.01,1.17,1.63*0D
$GPGSV,3,1,11,13,88,086,39,15,54,290,43,28,52,089,37,30,32,067,38*74
$GPGSV,3,2,11,05,29,187,40,36,23,142,35,24,20,249,35,20,14,322,27*75
$GPGSV,3,3,11,21,11,291,29,08,07,019,,07,02,067,*48
$GPRMC,124736.300,A,5212.0838,N,00005.96
01,E,0.00,229.83,270119,,,D*6F
$GPVTG,229.83,T,,M,0.00,N,0.01,K,D*3B
$PMTKLOG,0,1,a,31,15,0,0,1,0,0*11
$PMTK001,183,3*3A
$PMTK869,2,0*37
$GPGGA,124736.400,5212.0838,N,00005.9601,E,2,07,1.17,16.4,M,47.0,M,0000,0000*52
$GPGSA,A,3,24,15,21,30,05,28,13,,,,,,2.01,1.17,1.63*0D
$GPRMC,124736.400,A,5212.0838,N,00005.9601,E,0.01,229.83,270119,,,D*69
$GPVTG,229.83,T,,M,0.01,N,0.01,K,D*3A
$PMTKLOG,0,1,a,31,15,0,0,1,0,0*11
$PMTK001,183,3*3A
$PMTK869,2,0*37

$GPGGA,124736.500,5212.0838,N,00005.9602,E,2,07,1.17,16.4,M,47.0,M,0000,0000*50
$GPGSA,A,3,24,15,21,30,05,28,13,,,,,,2.01,1.17,1.63*0D
$GPRMC,124736.500,A,5212.0838,N,00005.9602,E,0.01,229.83,270119,,,D*6B
$GPVTG,229.83,T,,M,0.01,N,0.01,K,D*3A
$PMTKLOG,0,1,a,31,15,0,0,1,0,0*11
$PMTK001,183,3*3A
$PMTK869,2,0*37

$GPGGA,124736.600,5212.0838,N,00005.9602,E,2,07,1.17,16.4,M,47.0,M,0000,0000*53
$GPGSA,A,3,24,15,21,30,05,28,13,,,,,,2.01,1.17,1.63*0D
$GPRMC,124736.600,A,5212.0838,N,00005.9602,E,0.01,229.83,270119,,,D*68
$GPVTG,229.83,T,,M,0.01,N,0.01,K,D*3A
$PMTKLOG,0,1,a,31,15,0,0,1,0,0*11
$PMTK001,183,3*3A
$PMTK869,2,0*37

$GPGGA,124736.700,5212.0838,N,00005.9602,E,2,07,1.17,16.4,M,47.0,M,0000,0000*52
$GPGSA,A,3,24,15,21,30,05,28,13,,,,,,2.01,1.17,1.63*0D
$GPRMC,124736.700,A,5212.0838,N,00005.9602,E,0.01,229.83,270119,,,D*69
$GPVTG,229.83,T,,M,0.01,N,0.01,K,D*3A
$PMTKLOG,0,1,a,31,15,0,0,1,0,0*11
$PMTK001,183,3*3A
$PMTK869,2,0*37

$GPGGA,124736.800,5212.0838,N,00005.9602,E,2,07,1.17,16.4,M,47.0,M,0000,0000*5D
$GPGSA,A,3,24,15,21,30,05,28,13,,,,,,2.01,1.17,1.63*0D
$GPGSV,3,1,11,13,88,086,39,15,54,290,42,28,52,089,37,30,32,067,37*7A
$GPGSV,3,2,11,05,29,187,40,36,23,142,35,24,20,249,35,20,14,322,26*74
$GPGSV,3,3,11,21,10,291,29,08,07,019,,07,02,067,*49
$GPRMC,124736.800,A,5212.0838,N,00005.9602,E,0.01,229.83,270119,,,D*66
$GPVTG,229.83,T,,M,0.01,N,0.01,K,D*3A
$PMTKLOG,0,1,a,31,15,0,0,1,0,0*11
$PMTK001,183,3*3A
$PMTK869,2,0*37

$GPGGA,124736.900,5212.0838,N,00005.9602,E,2,07,1.17,16.4,M,47.0,M,0000,0000*5C
$GPGSA,A,3,24,15,21,30,05,28,13,,,,,,2.01,1.17,1.63*0D
$GPRMC,124736.900,A,5212.0838,N,00005.9602,E,0.01,229.83,270119,,,D*67
$GPVTG,229.83,T,,M,0.01,N,0.01,K,D*3A
$GPGGA,124737.000,5212.0838,N,00005.9602,E,2,07,1.17,16.4,M,47.0,M,0000,0000*54
$GPGSA,A,3,24,15,21,30,05,28,13,,,,,,2.01,1.17,1.63*0D
$GPRMC,124737.000,A,5212.0838,N,00005.9602,E,0.01,229.83,270119,,,D*6F
$GPVTG,229.83,T,,M,0.01,N,0.01,K,D*3A
$PMTKLOG,0,1,a,31,15,0,0,1,0,0*11
$PMTK001,183,3*3A
$PMTK869,2,0*37

$GPGGA,124737.100,5212.0838,N,00005.9602,E,2,07,1.17,16.4,M,47.0,M,0000,0000*55
$GPGSA,A,3,24,15,21,30,05,28,13,,,,,,2.01,1.17,1.63*0D
$GPRMC,124737.100,A,5212.0838,N,00005.9602,E,0.01,229.83,270119,,,D*6E
$GPVTG,229.83,T,,M,0.01,N,0.01,K,D*3A
$PMTKLOG,0,1,a,31,15,0,0,1,0,0*11
$PMTK001,183,3*3A
$PMTK869,2,0*37

$GPGGA,124737.200,5212.0838,N,00005.9602,E,2,07,1.17,16.4,M,47.0,M,0000,0000*56
$GPGSA,A,3,24,15,21,30,05,28,13,,,,,,2.01,1.17,1.63*0D
$GPRMC,124737.200,A,5212.0838,N,00005.9602,E,0.01,229.83,270119,,,D*6D
$GPVTG,229.83,T,,M,0.01,N,0.01,K,D*3A
$PMTKLOG,0,1,a,31,15,0,0,1,0,0*11
$PMTK001,183,3*3A
$PMTK869,2,0*37
$GPGGA,124737.300,5212.0838,N,00005.9602,E,2,07,1.17,16.4,M,47.0,M,0000,0000*57
$GPGSA,A,3,24,15,21,30,05,28,13,
,,,,,2.01,1.17,1.63*0D
$GPGSV,3,1,11,13,88,086,39,15,54,290,42,28,52,089,37,30,32,067,37*7A
$GPGSV,3,2,11,05,29,187,39,36,23,142,35,24,20,249,35,20,14,322,26*7A
$GPGSV,3,3,11,21,10,291,29,08,07,019,,07,02,067,*49
$GPRMC,124737.300,A,5212.0838,N,00005.9602,E,0.00,229.83,270119,,,D*6D
$GPVTG,229.83,T,,M,0.00,N,0.01,K,D*3B
