$GPGGA,124707.800,5212.0869,N,00005.9610,E,2,09,0.95,6.7,M,47.0,M,0000,0000*6F
$GPGSA,A,3,15,05,24,21,30,13,28,08,20,,,,1.66,0.95,1.36*0E
$GPRMC,124707.800,A,5212.0869,N,00005.9610,E,0.16,19.60,270119,,,D*59
$GPVTG,19.60,T,,M,0.16,N,0.30,K,D*02
$GPGGA,124707.900,5212.0869,N,00005.9610,E,2,09,0.95,6.7,M,47.0,M,0000,0000*6E
$GPGSA,A,3,15,05,24,21,30,13,28,08,20,,,,1.66,0.95,1.36*0E
$GPGSV,3,1,11,13,88,083,34,15,54,290,37,28,52,089,34,30,32,067,32*76
$GPGSV,3,2,11,49,30,173,28,05,29,187,27,24,20,249,24,20,13,322,22*72
$GPGSV,3,3,11,21,11,291,25,08,07,019,17,07,02,067,*42
$GPRMC,124707.900,A,5212.0869,N,00005.9610,E,0.16,19.77,270119,,,D*5E
$GPVTG,19.77,T,,M,0.16,N,0.30,K,D*04
$PMTKLOG,0,1,a,31,15,0,0,1,0,0*11
$PMTK001,183,3*3A
$PMTK869,2,0*37

$GPGGA,124708.000,5212.0869,N,00005.9610,E,2,09,0.95,6.7,M,47.0,M,0000,0000*68
$GPGSA,A,3,15,05,24,21,30,13,28,08,20,,,,1.66,0.95,1.36*0E
$GPRMC,124708.000,A,5212.0869,N,00005.9610,E,0.16,19.81,270119,,,D*51
$GPVTG,19.81,T,,M,0.16,N,0.30,K,D*0D
$PMTKLOG,0,1,a,31,15,0,0,1,0,0*11
$PMTK001,183,3*3A
$PMTK869,2,0*37
$GPGGA,124708.100,5212.0869,N,00005.9610,E,2,09,0.95,6.7,M,47.0,M,0000,0000*69
$GPGSA,A,3,15,05,24,21,30,13,28,08,20,,,,1.66,0.95,1.36*0E
$GPRMC,124708.100,A,5212.0869,N,00005.9610,E,0.16,20.58,270119,,,D*5E
$GPVTG
,20.58,T,,M,0.16,N,0.30,K,D*03
$PMTKLOG,0,1,a,31,15,0,0,1,0,0*11
$PMTK001,183,3*3A
$PMTK869,2,0*37
$GPGGA,12470
8.200,5212.0869,N,00005.9610,E,2,09,0.95,6.7,M,47.0,M,0000,0000*6A
$GPGSA,A,3,15,05,24,21,30,13,28,08,20,,,,1.66,0.95,1.36*0E
$GPRMC,124708.200,A,5212.0869,N,00005.9610,E,0.16,22.44,270119,,,D*52
$GPVTG,22.44,T,,M,0.16,N,0.30,K,D*0C
$PMTKLOG,0,1,a,31,15,0,0,1,0,0*11
$PMTK001,183,3*3A
$PMTK869,2,0*37
$GPGGA,124708.300,5212.0869,N,00005.9610,E,2,09,0.95,6.7,M,47.0,M,0000,0000*6B
$GPGSA,A,3,15,05,24,21,30,13,28,08,20,,
,,1.66,0.95,1.36*0E
$GPRMC,124708.300,A,5212.0869,N,00005.9610,E,0.16,22.73,270119,,,D*57
$GPVTG,22.73,T,,M,0.16,N,0.30,K,D*08
$PMTKLOG,0,1,a,31,15,0,0,1,0,0*11
$PMTK001,183,3*3A
$PMTK869,2,0*37
$GPGGA,124708.400,5212.0869,N,00005.9610,E,2,09,0.95,6.7,M,47.0,M,0000,0000*6C
$GPGSA,A,3,15,05,24,21,30,13,28,08,20,,,,1.66,0.95,1.36*0E
$GPGSV,3,1,11,13,88,083,34,15,54,290,37,28,52,089,34,30,32,067,32*76
$GPGSV,3,2,11,49,3
0,173,28,05,29,187,27,24,20,249,24,20,13,322,23*73
$GPGSV,3,3,11,21,11,291,25,08,07,019,17,07,02,067,*42
$GPRMC,124708.400,A,5212.0869,N,00005.9610,E,0.16,22.53,270119,,,D*52
$GPVTG,22.53,T,,M,0.16,N,0.30,K,D*0A
$PMTKLOG,0,1,a,31,15,0,0,1,0,0*11
$PMTK001,183,3*3A
$PMTK869,2,0*37
$GPGGA,124708.500,5212.0869,N,00005.9610,E,2,09,0.95,6.7,M,47.0,M,0000,0000*6D
$GPGSA,A,3,15,05,24,21,30,13,28,08,20,,,,1.66,0.95,1.36*0E
$GPRMC,124708.500,A,5212.0869,N,00005.9610,E,0.16,21.91,270119,,,D*5E
$GPVTG,21.91,T,,M,0.16,N,0.30,K,D*07
$PMTKLOG,0,1,a,31,1
5,0,0,1,0,0*11
$PMTK001,183,3*3A
$PMTK869,2,0*37
$GPGGA,124708.600,5212.0870,N,00005.9610,E,2,09,0.95,6.7,M,47.0,M,0000,0000*66
$GPGSA,A,3,15,05,24,21,30,13,28,08,20,,,,1.66,0.95,1.36*0E
$GPRMC,124708.600,A,5212.0870,N,00005.9610,E,0.16,21.08,270119,,,D*55
$GPVTG,21.08,T,,M,0.16,N,0.29,K,D*0F
$PMTKLOG,0,1,a,31,15,0,0,1,0,0*11
$PMTK001,183,3*3A
$PMTK869,2,0*37

$GPGGA,124708.700,5212.0870,N,00005.9610,E,2,09,0.95,6.7,M,47.0,M,0000,0000*67
$GPGSA,A,3,15,05,24,21,30,13,28,08,20,,,,1.66,0.95,1.36*0E
$GPRMC,124708.700,A,5212.0870,N,00005.9610,E,0.16,20.70,270119,,,D*5A
$GPVTG,20.70,T,,M,0.16,N,0.29,K,D*01
$PMTKLOG,0,1,a,31,15,0,0,1,0,0*11
$PMTK001,183,3*3A
$PMTK869,2,0*37

$GPGGA,124708.800,5212.0870,N,00005.9610,E,2,09,0.95,6.7,M,47.0,M,0000,0000*68
$GPGSA,A,3,15,05,24,21,30,13,28,08,20,,,,1.66,0.95,1.36*0E
$GPRMC,124708.800,A,5212.0870,N,00005.9610,E,0.15,19.69,270119,,,D*54
$GPVTG,19.69,T,,M,0.15,N,0.29,K,D*00
$PMTKLOG,0,1,a,31,15,0,0,1,0,0*11
$PMTK001,183,3*3A
$PMTK869,2,0*37

$GPGGA,124708.900,5212.0870,N,00005.9610,E,2,09,0.95,6.7,M,47.0,M,0000,0000*69
$GPGSA,A,3,15,05,24,21,30,13,28,08,20,,,,1.66,0.95,1.36*0E
$GPGSV,3,1,11,13,88,083,34,15,54,290,37,28,52,089,34,30,32,067,32*76
$GPGSV,3,2,11,49,30,173,28,05,29,187,27,24,20,249,26,20,13,322,24*76
$GPGSV,3,3,11,21,11,291,26,08,07,019,17,07,02,067,*41
$GPRMC,124708.900,A,5212.0870,N,00005.9610,E,0.15,19.12,270119,,,D*59
$GPVTG,19.12,T,,M,0.15,N,0.28,K,D*0D
$PMTKLOG,0,1,a,31,15,0,0,1,0,0*11
$PMTK001,183,3*3A
$PMTK869,2,0*37

$GPGGA,124709.000,5212.0870,N,00005.9610,E,2,09,0.95,6.8,M,47.0,M,0000,0000*6E
$GPGSA,A,3,15,05,24,21,30,13,28,08,20,,,,1.66,0.95,1.36*0E
$GPRMC,124709.000,A,5212.0870,N,00005.9610,E,0.15,18.61,270119,,,D*54
$GPVTG,18.61,T,,M,0.15,N,0.28,K,D*08

$GPGGA,124709.100,5212.0870,N,00005.9610,E,2,09,0.95,6.8,M,47.0,M,0000,0000*6F
$GPGSA,A,3,15,05,24,21,30,13,28,08,20,,,,1.66,0.95,1.36*0E
$GPRMC,124709.100,A,5212.0870,N,00005.9610,E,0.15,17.53,270119,,,D*5B
$GPVTG,17.53,T,,M,0.15,N,0.28,K,D*06
$PMTKLOG,0,1,a,31,15,0,0,1,0,0*11
$PMTK001,183,3*3A
$PMTK869,2,0*37
$GPGGA,124709.200,5212.0870,N,00005.9610,E,2,09,0.95,6.8,M,47.0,M,0000,0000*6C
$GPGSA,A,3,15,05,24,21,30,13,28,08,20,,,,1.66,0.95,1.36*0E
$GPRMC,124709.200,A,5212.0870,N,00005.9610,E,0.15,16.30,270119,,,D*5C
$GPVTG,16.30,T,,M,0.15,N,0.28,K,D*02
$PMTKLOG,0,1,a,31,15,0,0,1,0,0*11
$PMTK001,183,3*3A
$PMTK869,2,0*37

$GPGGA,124709.300,5212.0870,N,00005.9610,E,2,09,0.95,6.8,M,47.0,M,0000,0000*6D
$GPGSA,A,3,15,05,24,21,30,13,28,08,20,,,,1.66,0.95,1.36*0E
$GPRMC,124709.300,A,5212.0870,N,00005.9610,E,0.15,15.94,270119,,,D*50
$GPVTG,15.94,T,,M,0.15,N,0.27,K,D*00
$PMTKLOG,0,1,a,31,15,0,0,1,0,0*11
$PMTK001,183,3*3A
$PMTK869,2,0*37
$GPGGA,124709.400,5212.087
0,N,00005.9610,E,2,09,0.95,6.8,M,47.0,M,0000,0000*6A
$GPGSA,A,3,15,05,24,21,30,13,28,08,20,,,,1.66,0.95,1.36*0E
$GPGSV,3,1,11,13,88,083,34,15,54,290,37,28,52,089,34,30,32,067,32*76
$GPGSV,3,2,11,49,30,173,28,05,29,187,27,24,20,249,27,20,13,322,24*77
$GPGSV,3,3,11,21,11,291,25,08,07,019,17,07,02,067,*42
$GPRMC,124709.400,A,5212.0870,N,00005.9610,E,0.15,15.04,270119,,,D*5E
$GPVTG,15.04,T,,M,0.15,N,0.27,K,D*09
$PMTKLOG,0,1,a,31,15,0,0,1,0,0*11
$PMTK001,183,3*3A
$PMTK869,2,0*37
$GPGGA,124709.500,5212.0870,N,00005.9610,E,2,09,0.95,6.8,M,47.0,M,0000,0000*6B
$GPGSA,A,3,15,05,24,21,30,13,28,08,20,,,,1.66,0.9
5,1.36*0E
$GPRMC,124709.500,A,5212.0870,N,00005.9610,E,0.15,14.60,270119,,,D*5C
$GPVTG,14.60,T,,M,0.15,N,0.27,K,D*0A
$PMTKLOG,0,1,a,31,15,0,0,1,0,0*11
$PMTK001,183,3*3A
$PMTK869,2,0*37
$GPGGA,124709.600,5212.0870,N,00005.9610,E,2,09,0.95,6.8,M,47.0,M,0000,0000*68
$GPGSA,A,3,15,05,24,21,30,13,28,08,20,,,,1.66,0.95,1.36*0E
$GPRMC,124709.600,A,5212.0870,N,00005.9610,E,0.15,15.43,270119,,,D*5F
$GPVTG
,15.43,T,,M,0.15,N,0.27,K,D*0A
$PMTKLOG,0,1,a,31,15,0,0,1,0,0*11
$PMTK001,183,3*3A
$PMTK869,2,0*37
$GPGGA,124709.700,5212.0870,N,00005.9610,E,2,09,0.95,6.8,M,47.0,M,0000,0000*69
$GPGSA,A,3,15,05,24,21,30,13,28,08,20,,,,1.66,0.95,1.36*0E
$GPRMC,124709.700,A,5212.0870,N,00005.9610,E,0.14,16.72,270119,,,D*5E
$GPVTG,16.72,T,,M,0.14,N,0.26,K,D*0B
$PMTKLOG,0,1,a,31,15,0,0,1,0,0*11
$PMTK001,183,3*3A
$PMTK869,2,0*37

$GPGGA,124709.800,5212.0870,N,00005.9610,E,2,09,0.95,6.8,M,47.0,M,0000,0000*66
$GPGSA,A,3,15,05,24,21,30,13,28,08,20,,,,1.66,0.95,1.36*0E
$GPRMC,124709.800,A,5212.0870,N,00005.9610,E,0.14,17.49,270119,,,D*58
$GPVTG,17.49,T,,M,0.14,N,0.26,K,D*02
$PMTKLOG,0,1,a,31,15,0,0,1,0,0*11
$PMTK001,183,3*3A
$PMTK869,2,0*37

$GPGGA,124709.900,5212.0870,N,00005.9610,E,2,09,0.95,6.8,M,47.0,M,0000,0000*67
$GPGSA,A,3,15,05,24,21,30,13,28,08,20,,,,1.66,0.95,1.36*0E
$GPGSV,3,1,11,13,88,083,34,15,54,290,37,28,52,089,34,30,32,067,31*75
$GPGSV,3,2,11,49,30,173,28,05,29,187,27,24,20,249,26,20,13,322,23*71
$GPGSV,3,3,11,21,11,291,27,08,07,019,17,07,02,067,*40
$GPRMC,124709.900,A,5212.0870,N,00005.9610,E,0.14,18.58,270119,,,D*56
$GPVTG,18.58,T,,M,0.14,N,0.26,K,D*0D
$PMTKLOG,0,1,a,31,15,0,0,1,0,0*11
$PMTK001,183,3*3A
$PMTK869,
2,0*37
$GPGGA,124710.000,5212.0870,N,00005.9610,E,2,09,0.95,6.8,M,47.0,M,0000,0000*66
$GPGSA,A,3,15,05,24,21,30,13,28,08,20,,,,1.66,0.95,1.36*0E
$GPRMC,124710.000,A,5212.0870,N,00005.9610,E,0.14,19.26,270119,,,D*5F
$GPVTG,19.26,T,,M,0.14,N,0.26,K,D*05
$PMTKLOG,0,1,a,31,15,0,0,1,0,0*11
$PMTK001,183,3*3A
$PMTK869,2,0*37

$GPGGA,124710.100,5212.0870,N,00005.9610,E,2,09,0.95,6.8,M,47.0,M,0000,0000*67
$GPGSA,A,3,15,05,24,21,30,13,28,08,20,,,,1.66,0.95,1.36*0E
$GPRMC,124710.100,A,5212.0870,N,00005.9610,E,0.14,20.07,270119,,,D*57
$GPVTG,20.07,T,,M,0.14,N,0.26,K,D*0C
$PMTKLOG,0,1,a,31,15,0,0,1,0,0*11
$PMTK001,183,3*3A
$PMTK869,2,0*37

$GPGGA,124710.200,5212.0870,N,00005.9610,E,2,09,0.95,6.8,M,47.0,M,0000,0000*64
$GPGSA,A,3,15,05,24,21,30,13,28,08,20,,,,1.66,0.95,1.36*0E
$GPRMC,124710.200,A,5212.0870,N,00005.9610,E,0.14,20.16,270119,,,D*54
$GPVTG,20.16,T,,M,0.14,N,0.25,K,D*0F
$PMTKLOG,0,1,a,31,15,0,0,1,0,0*11
$PMTK001,183,3*3A
$PMTK869,2,0*37
$GPG
GA,124710.300,5212.0870,N,00005.9610,E,2,09,0.95,6.8,M,47.0,M,0000,0000*65
$GPGSA,A,3,15,05,24,21,30,13,28,08,20,,,,1.66,0.95,1.36*0E
$GPRMC,124710.300,A,5212.0870,N,00005.9610,E,0.13,19.89,270119,,,D*5E
$GPVTG,19.89,T,,M,0.13,N,0.25,K,D*04

$GPGGA,124710.400,5212.0870,N,00005.9610,E,2,09,0.95,6.8,M,47.0,M,0000,0000*62
$GPGSA,A,3,15,05,24,21,30,13,28,08,20,,,,1.66,0.95,1.36*0E
$GPGSV,3,1,11,13,88,083,34,15,54,290,37,28,52,089,34,30,32,067,31*75
$GPGSV,3,2,11,49,30,173,28,05,29,187,27,24,20,249,26,20,13,322,23*71
$GPGSV,3,3,11,21,11,291,27,08,07,019,17,07,02,067,*40
$GPRMC,124710.400,A,5212.0870,N,00005.9610,E,0.13,19.45,270119,,,D*59
$GPVTG,19.45,T,,M,0.13,N,0.25,K,D*04
$PMTKLOG,0,1,a,31,15,0,0,1,0,0*11
$PMTK001,183,3*3A
$PMTK869,2,0*37
$GPGGA,124710.500,521
2.0870,N,00005.9610,E,2,09,0.95,6.8,M,47.0,M,0000,0000*63
$GPGSA,A,3,15,05,24,21,30,13,28,08,20,,,,1.66,0.95,1.36*0E
$GPRMC,124710.500,A,5212.0870,N,00005.9610,E,0.13,18.78,270119,,,D*57
$GPVTG,18.78,T,,M,0.13,N,0.24,K,D*0A
$PMTKLOG,0,1,a,31,15,0,0,1,0,0*11
$PMTK001,183,3*3A
$PMTK869,2,0*37
$GPGGA,124710.600,5212.0870,N,00005.9610,E,2,09,0.95,6.8,M,47.0,M,0000,00
00*60
$GPGSA,A,3,15,05,24,21,30,13,28,08,20,,,,1.66,0.95,1.36*0E
$GPRMC,124710.600,A,5212.0870,N,00005.9610,E,0.13,17.59,270119,,,D*58
$GPVTG,17.59,T,,M,0.13,N,0.24,K,D*06
$PMTKLOG,0,1,a,31,15,0,0,1,0,0*11
$PMTK001,183,3*3A
$PMTK869,2,0*37
$GPGGA,124710.700,5212.0870,N,00005.9610,E,2,09,0.95,6.8,M,47.0,M,0000,0000*61
$GPGSA,A,3,15,05,24,21,30,13,28,08,20,,,,1.66,0.95,1.36*0E
$GPRMC,124710.700,A,5212.0870,N,00005.9610,E,0.13,17.13,270119,,,D*57
$GP
VTG,17.13,T,,M,0.13,N,0.25,K,D*09
$PMTKLOG,0,1,a,31,15,0,0,1,0,0*11
$PMTK001,183,3*3A
$PMTK869,2,0*37
$GPGGA,124710.800,5212.0870,N,00005.9610,E,2,09,0.95,6.8,M,47.0,M,0000,0000*6E
$GPGSA,A,3,15,05,24,21,30,13,28,08,20,,,,1.66,0.95,1.36*0E
$GPRMC,124710.800,A,5212.0870,N,00005.9610,E,0.13,15.70,270119,,,D*5F
$GPVTG,15.70,T,,M,0.13,N,0.25,K,D*0E
$PMTKLOG,0,1,a,31,15,0,0,1,0,0*11
$PMTK001,183,3*3A
$PMTK869,2,0*37
$GPGGA,124710.900,5212.0870,N,00005.9610,E,2,09,0.95,6.8,M,47.0,M,0000,0000*6F
$GPGSA,A,3,15,05,24,21,30,13,28,08,20,,,,1.66,0.95,1.36*0E
$GPGSV,3,1,11,13,88,083,34,15,54,290,37,28,52,089,35,30,32,067,31*74
$GPGSV,3,2,11,49,30,173,28,05,29,187,28,24,20,249,28,20,13,322,23*70
$GPGSV,3,3,11,21,11,291,26,08,07,019,17,07,02,067,*41
$GPRMC,124710.900,A,5212.0870,N,00005.9610,E,0.13,14.59,270119,,,D*54
$GPVTG,14.59,T,,M,0.13,N,0.25,K,D*04

$PMTKLOG,0,1,a,31,15,0,0,1,0,0*11
$PMTK001,183,3*3A
$PMTK869,2,0*37
$GPGGA,124711.000,5212.0870,N,00005.9611,E,2,09,0.95,6.9,M,47.0,M,0000,0000*67
$GPGSA,A,3,15,05,24,21,30,13,28,08,20,,,,1.66,0.95,1.36*0E
$GPRMC,124711.000,A,5212.0870,N,00005.9611,E,0.13,13.63,270119,,,D*53
$GPVTG,13.63,T,,M,0.13,N,0.25,K,D*0A
$PMTKLOG,0,1,a,31,15,0,0,1,0,0*11
$PMTK001,183,3*3A
$PMTK869,2,0*37

$GPGGA,124711.100,5212.0870,N,00005.9611,E,2,09,0.95,6.9,M,47.0,M,0000,0000*66
$GPGSA,A,3,15,05,24,21,30,13,28,08,20,,,,1.66,0.95,1.36*0E
$GPRMC,124711.100,A,5212.0870,N,00005.9611,E,0.14,11.56,270119,,,D*51
$GPVTG,11.56,T,,M,0.14,N,0.25,K,D*09
$PMTKLOG,0,1,a,31,15,0,0,1,0,0*11
$PMTK001,183,3*3A
$PMTK869,2,0*37

$GPGGA,124711.200,5212.0870,N,00005.9611,E,2,09,0.95,6.9,M,47.0,M,0000,0000*65
$GPGSA,A,3,15,05,24,21,30,13,28,08,20,,,,1.66,0.95,1.36*0E
$GPRMC,124711.200,A,5212.0870,N,00005.9611,E,0.14,8.98,270119,,,D*68
$GPVTG,8.98,T,,M,0.14,N,0.25,K,D*33
$PMTKLOG,0,1,a,31,15,0,0,1,0,0*11
$PMTK001,183,3*3A
$PMTK869,2,0*37

$GPGGA,124711.300,5212.0871,N,00005.9611,E,2,09,0.95,6.9,M,47.0,M,0000,0000*65
$GPGSA,A,3,15,05,24,21,30,13,28,08,20,,,,1.66,0.95,1.36*0E
$GPRMC,124711.300,A,5212.0871,N,00005.9611,E,0.14,8.48,270119,,,D*65
$GPVTG,8.48,T,,M,0.14,N,0.25,K,D*3E
$PMTKLOG,0,1,a,31,15,0,0,1,0,0*11
$PMTK001,183,3*3A
$PMTK869,2,0*37
$GPGGA,124711.400,5212.0871,N,00005.9611,E,2,09,0.95,6.9,M,47.0,M,0000,0000*62
$GPGSA,A,3,15,05,24,21,30,13,28,08,20,,,,1.66,0.95,1.36*0E
$GPGSV,3,1,11,13,88,083,34,15,54,290,37,28,52,089,35,30,32,
067,31*74
$GPGSV,3,2,11,49,30,173,28,05,29,187,28,24,20,249,27,20,13,322,23*7F
$GPGSV,3,3,11,21,11,291,26,08,07,019,17,07,02,067,*41
$GPRMC,124711.400,A,5212.0871,N,00005.9611,E,0.14,7.08,270119,,,D*69
$GPVTG,7.08,T,,M,0.14,N,0.25,K,D*35

$GPGGA,124711.500,5212.0871,N,00005.9611,E,2,09,0.95,6.9,M,47.0,M,0000,0000*63
$GPGSA,A,3,15,05,24,21,30,13,28,08,20,,,,1.66,0.95,1.36*0E
$GPRMC,124711.500,A,5212.0871,N,00005.9611,E,0.14,5.43,270119,,,D*65
$GPVTG,5.43,T,,M,0.14,N,0.25,K,D*38
$PMTKLOG,0,1,a,31,15,0,0,1,0,0*11
$PMTK001,183,3*3A
$PMTK869,2,0*37

$GPGGA,124711.600,5212.0871,N,00005.9611,E,2,09,0.95,6.9,M,47.0,M,0000,0000*60
$GPGSA,A,3,15,05,24,21,30,13,28,08,20,,,,1.66,0.95,1.36*0E
$GPRMC,124711.600,A,5212.0871,N,00005.9611,E,0.14,4.48,270119,,,D*6C
$GPVTG,4.48,T,,M,0.14,N,0.25,K,D*32
$PMTKLOG,0,1,a,31,15,0,0,1,0,0*11
$PMTK001,183,3*3A
$PMTK869,2,0*37

$GPGGA,124711.700,5212.0871,N,00005.9611,E,2,09,0.95,6.9,M,47.0,M,0000,0000*61
$GPGSA,A,3,15,05,24,21,30,13,28,08,20,,,,1.66,0.95,1.36*0E
$GPRMC,124711.700,A,5212.0871,N,00005.9611,E,0.14,4.06,270119,,,D*67
$GPVTG,4.06,T,,M,0.14,N,0.25,K,D*38
$PMTKLOG,0,1,a,31,15,0,0,1,0,0*11
$PMTK001,183,3*3A
$PMTK869,2,0*37
$GPGGA,124711.800,5212.0871,N,00005.9611,E,2,09,0.95,6.9,M,47.0,M,0000,000
0*6E
$GPGSA,A,3,15,05,24,21,30,13,28,08,20,,,,1.66,0.95,1.36*0E
$GPRMC,124711.800,A,5212.0871,N,00005.9611,E,0.13,4.05,270119,,,D*6C
$GPVTG,4.05,T,,M,0.13,N,0.25,K,D*3C
$PMTKLOG,0,1,a,31,15,0,0,1,0,0*11
$PMTK001,183,3*3A
$PMTK869,2,0*37
$GPGGA,124711.900,5212.0871,N,00005.9611,E,2,09,0.95,6.9,M,47.0,M,0000,0000*6F
$GPGSA,A,3,15,05,24,21,30,13,28,08,20,,,,1.66,0.95,1.36*0E
$GPGSV,3,1,11,13,88,083,34,15,54,290,37,28,52,089,35,30,32,067,29*7D
$GPGSV,3,2,11,49,30,173,28,05,29,187,28,24,20,249,28,20,13,322,23*70
$GPGSV,3,3,11,21,11,291,27,08,07,019,17,07,02,067,*40
$GPRMC,124711.900,A,5212.0871,N,00005.9611,E,0.13,4.92,270119,,,D*63
$GPVTG,4.92,T,,M,0.13,N,0.25,K,D*32
$PMTKLOG,0,1,a,31,15,0,0,1,0,0*11
$PMTK001,183,3*3A
$PMTK869,2,0*37

$GPGGA,124712.000,5212.0871,N,00005.9611,E,2,09,0.95,6.9,M,47.0,M,0000,0000*65
$GPGSA,A,3,15,05,24,21,30,13,28,08,20,,,,1.66,0.95,1.36*0E
$GPRMC,124712.000,A,5212.0871,N,00005.9611,E,0.13,6.11,270119,,,D*60
$GPVTG,6.11,T,,M,0.13,
N,0.25,K,D*3B
$PMTKLOG,0,1,a,31,15,0,0,1,0,0*11
$PMTK001,183,3*3A
$PMTK869,2,0*37
$GPGGA,124712.100,5212.0871,N,00005.9611,E,2,09,0.95,6.9,M,47.0,M,0000,0000*64
$GPGSA,A,3,15,05,24,21,30,13,28,08,20,,,,1.66,0.95,1.36*0E
$GPRMC,124712.100,A,5212.0871,N,00005.9611,E,0.13,6.12,270119,,,D*62
$GPVTG,6.12,T,,M,0.13,N,0.25,K,D*38
$PMTKLOG,0,1,a,31,15,0,0,1,0,0*11
$PMTK001,183,3*3A
$PMTK869,2,0*37

$GPGGA,124712.200,5212.0871,N,00005.9611,E,2,09,0.95,6.9,M,47.0,M,0000,0000*67
$GPGSA,A,3,15,05,24,21,30,13,28,08,20,,,,1.66,0.95,1.36*0E
$GPRMC,124712.200,A,5212.0871,N,00005.9611,E,0.13,5.83,270119,,,D*6A
$GPVTG,5.83,T,,M,0.13,N,0.25,K,D*33
$PMTKLOG,0,1,a,31,15,0,0,1,0,0*11
$PMTK001,183,3*3A
$PMTK869,2,0*37

$GPGGA,124712.300,5212.0871,N,00005.9611,E,2,09,0.95,6.9,M,47.0,M,0000,0000*66
$GPGSA,A,3,15,05,24,21,30,13,28,08,20,,,,1.66,0.95,1.36*0E
$GPRMC,124712.300,A,5212.0871,N,00005.9611,E,0.13,5.87,270119,,,D*6F
$GPVTG,5.87,T,,M,0.13,N,0.25,K,D*37
$PMTKLOG,0,1,a,31,15,0,0,1,0,0*11
$PMTK001,183,3*3A
$PMTK869,2,0*37

$GPGGA,124712.400,5212.0871,N,00005.9611,E,2,09,0.95,6.9,M,47.0,M,0000,0000*61
$GPGSA,A,3,15,05,24,21,30,13,28,08,20,,,,1.66,0.95,1.36*0E
$GPGSV,3,1,11,13,88,083,34,15,54,290,37,28,52,089,34,30,32,067,28*7D
$GPGSV,3,2,11,49,30,173,28,05,29,187,27,24,20,249,26,20,13,322,23*71
$GPGSV,3,3,11,21,11,291,28,08,07,019,17,07,02,067,*4F
$GPRMC,124712.400,A,5212.0871,N,00005.9611,E,0.14,5.68,270119,,,D*6E
$GPVTG,5.68,T,,M,0.14,N,0.25,K,D*31
$PMTKLOG,0,1,a,31,15,0,0,1,0,0*11
$PMTK001,183,3*3A
$PMTK869,2,0*37

$GPGGA,124712.500,5212.0871,N,00005.9611,E,2,09,0.95,6.9,M,47.0,M,0000,0000*60
$GPGSA,A,3,15,05,24,21,30,13,28,08,20,,,,1.66,0.95,1.36*0E
$GPRMC,124712.500,A,5212.0871,N,00005.9611,E,0.14,5.24,270119,,,D*67
$GPVTG,5.24,T,,M,0.14,N,0.25,K,D*39
$PMTKLOG,0,1,a,31,15,0,0,1,0,0*11
$PMTK001,183,3*3A
$PMTK869,2,0*37

$GPGGA,124712.600,5212.0871,N,00005.9611,E,2,09,0.95,6.9,M,47.0,M,0000,0000*63
$GPGSA,A,3,15,05,24,21,30,13,28,08,20,,,,1.66,0.95,1.36*0E
$GPRMC,124712.600,A,5212.0871,N,00005.9611,E,0.14,4.54,270119,,,D*62
$GPVTG,4.54,T,,M,0.14,N,0.25,K,D*3F

$GPGGA,124712.700,5212.0871,N,00005.9611,E,2,09,0.95,6.9,M,47.0,M,0000,0000*62
$GPGSA,A,3,15,05,24,21,30,13,28,08,20,,,,1.66,0.95,1.36*0E
$GPRMC,124712.700,A,5212.0871,N,00005.9611,E,0.14,5.02,270119,,,D*61
$GPVTG,5.02,T,,M,0.14,N,0.25,K,D*3D
$PMTKLOG,0,1,a,31,15,0,0,1,0,0*11
$PMTK001,183,3*3A
$PMTK869,2,0*37

$GPGGA,124712.800,5212.0871,N,00005.9611,E,2,09,0.95,6.9,M,47.0,M,0000,0000*6D
$GPGSA,A,3,15,05,24,21,30,13,28,08,20,,,,1.66,0.95,1.36*0E
$GPRMC,124712.800,A,5212.0871,N,00005.9611,E,0.14,5.51,270119,,,D*68
$GPVTG,5.51,T,,M,0.14,N,0.25,K,D*3B
$PMTKLOG,0,1,a,31,15,0,0,1,0,0*11
$PMTK001,183,3*3A
$PMTK869,2,0*37

$GPGGA,124712.900,5212.0871,N,00005.9611,E,2,09,0.95,6.9,M,47.0,M,0000,0000*6C
$GPGSA,A,3,15,05,24,21,30,13,28,08,20,,,,1.66,0.95,1.36*0E
$GPGSV,3,1,11,13,88,083,34,15,54,290,37,28,52,089,35,30,32,067,28*7C
$GPGSV,3,2,11,49,30,173,28,05,29,187,28,24,20,249,25,20,13,322,23*7D
$GPGSV,3,3,11,21,11,291,29,08,07,019,17,07,02,067,*4E
$GPRMC,124712.900,A,5212.0871,N,00005.9611,E,0.14,4.67,270119,,,D*6D
$GPVTG,4.67,T,,M,0.14,N,0.25,K,D*3F
$PMTKLOG,0,1,a,31,15,0,0,1,0,0*11
$PMTK001,183,3*3A
$PMTK869,2,0*37
$GPGGA,124713.000,5212.0871,N,00005.9611,E,2,09,0.95,6.9,M,47.0,M,0000,0000*64
$GPGSA,A,3,15,05,24,21,30,13,28,08,20,,,,1.66,0.95,1.36*0E
$GPRMC,124713.000,A,5212.0871,N,00005.9611,E,0.14,2.97,270119,,,D*6C
$GPVTG,2.97,T,,M,0.14,N,0.25,K,D*36
$PMTKLOG,0,1,a,31,15,0,0,1,0,0*11
$PMTK001,183,3*3A
$PMTK869,2,0*37

$GPGGA,124713.100,5212.0871,N,00005.9611,E,2,09,0.95,6.9,M,47.0,M,0000,0000*65
$GPGSA,A,3,15,05,24,21,30,13,28,08,20,,,,1.66,0.95,1.36*0E
$GPRMC,124713.100,A,5212.0871,N,00005.9611,E,0.14,0.94,270119,,,D*6C
$GPVTG,0.94,T,,M,0.14,N,0.
25,K,D*37
$PMTKLOG,0,1,a,31,15,0,0,1,0,0*11
$PMTK001,183,3*3A
$PMTK869,2,0*37
$GPGGA,124713.200,5212.0871,N,00005.9611,E,2,09,0.95,7.0,M,47.0,M,0000,0000*6E
$GPGSA,A,3,15,05,24,21,30,13,28,08,20,,,,1.66,0.95,1.36*0E
$GPRMC,124713.200,A,5212.0871,N,00005.9611,E,0.14,359.14,270119,,,D*68
$GPVTG,359.14,T,,M,0.14,N,0.25,K,D*30
$PMTKLOG,0,1,a,31,15,0,0,1,0,0*11
$PMTK001,183,3*3A
$PMTK869,2,0*37

$GPGGA,124713.300,5212.0871,N,00005.9611,E,2,09,0.95,7.0,M,47.0,M,0000,0000*6F
$GPGSA,A,3,15,05,24,21,30,13,28,08,20,,,,1.66,0.95,1.36*0E
$GPRMC,124713.300,A,5212.0871,N,00005.9611,E,0.14,358.69,270119,,,D*62
$GPVTG,358.69,T,,M,0.14,N,0.25,K,D*3B
$PMTKLOG,0,1,a,31,15,0,0,1,0,0*11
$PMTK001,183,3*3A
$PMTK869,2,0*37

$GPGGA,124713.400,5212.0871,N,00005.9611,E,2,09,0.95,7.0,M,47.0,M,0000,0000*68
$GPGSA,A,3,15,05,24,21,30,13,28,08,20,,,,1.66,0.95,1.36*0E
$GPGSV,3,1,11,13,88,083,34,15,54,290,37,28,52,089,35,30,32,067,28*7C
$GPGSV,3,2,11,49,30,173,28,05,29,187,28,24,20,249,25,20,13,322,23*7D
$GPGSV,3,3,11,21,11,291,29,08,07,019,17,07,02,067,*4E
$GPRMC,124713.400,A,5212.0871,N,00005.9611,E,0.14,358.64,270119,,,D*68
$GPVTG,358.64,T,,M,0.14,N,0.26,K,D*35
$PMTKLOG,0,1,a,31,15,0,0,1,0,0*11
$PMTK001,183,3*3A
$PMTK869,2,0*37

$GPGGA,124713.500,5212.0871,N,00005.9611,E,2,09,0.95,7.0,M,47.0,M,0000,0000*69
$GPGSA,A,3,15,05,24,21,30,13,28,08,20,,,,1.66,0.95,1.36*0E
$GPRMC,124713.500,A,5212.0871,N,00005.9611,E,0.14,359.04,270119,,,D*6E
$GPVTG,359.04,T,,M,0.14,N,0.26,K,D*32
$PMTKLOG,0,1,a,31,15,0,0,1,0,0*11
$PMTK001,183,3*3A
$PMTK869,2,0*37
$GPGGA,124713.600,5212.0871,N,00005.9611,E,2,09,0.9
5,7.0,M,47.0,M,0000,0000*6A
$GPGSA,A,3,15,05,24,21,30,13,28,08,20,,,,1.66,0.95,1.36*0E
$GPRMC,124713.600,A,5212.0871,N,00005.9611,E,0.14,0.05,270119,,,D*63
$GPVTG,0.05,T,,M,0.14,N,0.26,K,D*3C
$PMTKLOG,0,1,a,31,15,0,0,1,0,0*11
$PMTK001,183,3*3A
$PMTK869,2,0*37

$GPGGA,124713.700,5212.0871,N,00005.9611,E,2,09,0.95,7.0,M,47.0,M,0000,0000*6B
$GPGSA,A,3,15,05,24,21,30,13,28,08,20,,,,1.66,0.95,1.36*0E
$GPRMC,124713.700,A,5212.0871,N,00005.9611,E,0.14,2.31,270119,,,D*67
$GPVTG,2.31,T,,M,0.14,N,0.26,K,D*39
$PMTKLOG,0,1,a,31,15,0,0,1,0,0*11
$PMTK001,183,3*3A
$PMTK869,2,0*37

$GPGGA,124713.800,5212.0871,N,00005.9611,E,2,09,0.95,7.0,M,47.0,M,0000,0000*64
$GPGSA,A,3,15,05,24,21,30,13,28,08,20,,,,1.66,0.95,1.36*0E
$GPRMC,124713.800,A,5212.0871,N,00005.9611,E,0.14,2.99,270119,,,D*6A
$GPVTG,2.99,T,,M,0.14,N,0.26,K,D*3B

$GPGGA,124713.900,5212.0871,N,00005.9611,E,2,09,0.95,7.0,M,47.0,M,0000,0000*65
$GPGSA,A,3,15,05,24,21,30,13,28,08,20,,,,1.66,0.95,1.36*0E
$GPGSV,3,1,11,13,88,083,34,15,54,290,37,28,52,089,35,30,32,067,28*7C
$GPGSV,3,2,11,49,30,173,28,05,29,187,28,24,20,249,26,20,13,322,23*7E
$GPGSV,3,3,11,21,11,291,29,08,07,019,17,07,02,067,*4E
$GPRMC,124713.900,A,5212.0871,N,00005.9611,E,0.14,3.99,270119,,,D*6A
$GPVTG,3.99,T,,M,0.14,N,0.26,K,D*3A
$PMTKLOG,0,1,a,31,15,0,0,1,0,0*11
$PMTK001,183,3*3A
$PMTK869,2,0*37

$GPGGA,124714.000,5212.0872,N,00005.9611,E,2,09,0.95,7.0,M,47.0,M,0000,0000*68
$GPGSA,A,3,15,05,24,21,30,13,28,08,20,,,,1.66,0.95,1.36*0E
$GPRMC,124714.000,A,5212.0872,N,00005.9611,E,0.14,4.65,270119,,,D*63
$GPVTG,4.65,T,,M,0.14,N,0.26,K,D*3E
$PMTKLOG,0,1,a,31,15,0,0,1,0,0*11
$PMTK001,183,3*3A
$PMTK869,2,0*37
$GPGGA,124714.100,5212.0872,N,00005.9611,E,2,09,0.95,7.0,M,47.0,M,0000,0000*69
$GPGSA,A,3,15,05,24,21,30,13,28,08,20,,,,1.66,0.95,1.36*0E
$GPRMC,124714.100,A,5212.0872,N,00005.9611,E,0.14,4.84,270119,,,D*6D
$GPVTG,4.84,T,,M,0.14,N,0.26,K,D*31
$PMTKLOG,0,1,a,31,15,0,0,1,0,0*11
$PMTK001,183,3*3A
$PMTK869,2,0*37

$GPGGA,124714.200,5212.0872,N,00005.9611,E,2,09,0.95,7.0,M,47.0,M,0000,0000*6A
$GPGSA,A,3,15,05,24,21,30,13,28,08,20,,,,1.66,0.95,1.36*0E
$GPRMC,124714.
200,A,5212.0872,N,00005.9611,E,0.14,5.05,270119,,,D*66
$GPVTG,5.05,T,,M,0.14,N,0.26,K,D*39
$PMTKLOG,0,1,a,31,15,0,0,1,0,0*11
$PMTK001,183,3*3A
$PMTK869,2,0*37
$GPGGA,124714.300,5212.0872,N,00005.9611,E,2,09,0.95,7.0,M,47.0,M,0000,0000*6B
$GPGSA,A,3,15,05,24,21,30,13,28,08,20,,,,1.66,0.95,1.36*0E
$GPRMC,124714.300,A,5212.0872,N,00005.9611,E,0.14,5.13,270119,,,D*60
$GPVTG,5.13,T,,M,0.14,N,0.26,K,D*3E
$PMTKLOG,0,1,a,31,15,0,0,1,0,0*11
$PMTK001,183,3*3A
$PMTK869,2,0*37

$GPGGA,124714.400,5212.0872,N,00005.9611,E,2,09,0.95,7.0,M,47.0,M,0000,0000*6C
$GPGSA,A,3,15,05,24,21,30,13,28,08,20,,,,1.66,0.95,1.36*0E
$GPGSV,3,1,11,13,88,083,34,15,54,290,37,28,52,089,35,30,32,067,28*7C
$GPGSV,3,2,11,49,30,173,28,05,29,187,28,24,20,249,27,20,13,322,23*7F
$GPGSV,3,3,11,21,11,291,29,08,07,019,17,07,02,067,*4E
$G
PRMC,124714.400,A,5212.0872,N,00005.9611,E,0.14,5.35,270119,,,D*63
$GPVTG,5.35,T,,M,0.14,N,0.26,K,D*3A
$PMTKLOG,0,1,a,31,15,0,0,1,0,0*11
$PMTK001,183,3*3A
$PMTK869,2,0*37
$GPGGA,124714.500,5212.0872,N,00005.9611,E,2,09,0.95,7.0,M,47.0,M,0000,0000*6D
$GPGSA,A,3,15,05,24,21,30,13,28,08,20,,,,1.66,0.95,1.36*0E
$GPRMC,124714.500,A,5212.0872,N,00005.9611,E,0.14,5.06,270119,,,D*62
$GPVTG,5.06,T,,M,0.14,N,0.26,K,D*3A
$PMTKLOG,0,1,a,31,15,0,0,1,0,0*11
$PMTK001,183,3*3A
$PMTK869,2,0*37

$GPGGA,124714.600,5212.0872,N,00005.9611,E,2,09,0.95,7.0,M,47.0,M,0000,0000*6E
$GPGSA,A,3,15,05,24,21,30,13,28,08,20,,,,1.66,0.95,1.36*0E
$GPRMC,124714.600,A,5212.0872,N,00005.9611,E,0.14,4.74,270119,,,D*65
$GPVTG,4.74,T,,M,0.14,N,0.26,K,D*3E
$PMTKLOG,0,1,a,31,15,0,0,1,0,0*11
$PMTK001,183,3*3A
$PMTK869,2,0*37

$GPGGA,124714.700,5212.0872,N,00005.9611,E,2,09,0.95,7.0,M,47.0,M,0000,0000*6F
$GPGSA,A,3,15,05,24,21,30,13,28,08,20,,,,1.66,0.95,1.36*0E
$GPRMC,124714.700,A,5212.0872,N,00005.9611,E,0.14,4.44,270119,,,D*67
$GPVTG,4.44,T,,M,0.14,N,0.25,K,D*3E
$PMTKLOG,0,1,a,31,15,0,0,1,0,0*11
$PMTK001,183,3*3A
$PMTK869,2,0*37

$GPGGA,124714.800,5212.0872,N,00005.9611,E,2,09,0.95,7.0,M,47.0,M,0000,0000*60
$GPGSA,A,3,15,05,24,21,30,13,28,08,20,,,,1.66,0.95,1.36*0E
$GPRMC,124714.800,A,5212.0872,N,00005.9611,E,0.14,3.74,270119,,,D*6C
$GPVTG,3.74,T,,M,0.14,N,0.25,K,D*3A
$PMTKLOG,0,1,a,31,15,0,0,1,0,0*11
$PMTK001,183,3*3A
$PMTK869,2,0*37

$GPGGA,124714.900,5212.0872,N,00005.9611,E,2,09,0.95,7.0,M,47.0,M,0000,0000*61
$GPGSA,A,3,15,05,24,21,30,13,28,08,20,,,,1.66,0.95,1.36*0E
$GPGSV,3,1,11,13,88,084,34,15,54,290,36,28,52,089,35,30,32,067,29*7B
$GPGSV,3,2,11,49,30,173,28,05,29,187,27,24,20,249,25,20,13,322,23*72
$GPGSV,3,3,11,21,11,291,29,08,07,019,17,07,02,067,*4E
$GPRMC,124714.900,A,5212.0872,N,00005.9611,E,0.13,2.27,270119,,,D*6D
$GPVTG,2.27,T,,M,0.13,N,0.25,K,D*3A

$GPGGA,124715.000,5212.0872,N,00005.9611,E,2,09,0.95,7.0,M,47.0,M,0000,0000*69
$GPGSA,A,3,15,05,24,21,30,13,28,08,20,,,,1.66,0.95,1.36*0E
$GPRMC,124715.000,A,5212.0872,N,00005.9611,E,0.13,1.46,270119,,,D*61
$GPVTG,1.46,T,,M,0.13,N,0.24,K,D*3F
$PMTKLOG,0,1,a,31,15,0,0,1,0,0*11
$PMTK001,183,3*3A
$PMTK869,2,0*37

$GPGGA,124715.100,5212.0872,N,00005.9611,E,2,09,0.95,7.0,M,47.0,M,0000,0000*68
$GPGSA,A,3,15,05,24,21,30,13,28,08,20,,,,1.66,0.95,1.36*0E
$GPRMC,124715.100,A,5212.0872,N,00005.9611,E,0.13,0.88,270119,,,D*63
$GPVTG,0.88,T,,M,0.13,N,0.24,K,D*3C
$PMTKLOG,0,1,a,31,15,0,0,1,0,0*11
$PMTK001,183,3*3A
$PMTK869,2,0*37
$GPGGA,124715.200,5212.0872,N,00005.9611,E,2,09,0.95,7.0,M,47.0,M,0000,0000*6B
$GPGSA,A,3,15,05,24,21,30,13,28,08,20,,,,1.66,0.95,1.36*0E
$GPRMC,124715.200,A,5212.0872,N,00005.9611,E,0.12,1.31,270119,,,D*62
$GPVTG,1.31,T,,M,0.12,N,0.23,K,D*39
$PMTKLOG,0,1,a,31,15,0,0,1,0,0*11
$PMTK001,183,3*3A
$PMTK869,2,0*37

$GPGGA,124715.300,5212.0872,N,00005.9
611,E,2,09,0.95,7.0,M,47.0,M,0000,0000*6A
$GPGSA,A,3,15,05,24,21,30,13,28,08,20,,,,1.66,0.95,1.36*0E
$GPRMC,124715.300,A,5212.0872,N,00005.9611,E,0.12,1.72,270119,,,D*64
$GPVTG,1.72,T,,M,0.12,N,0.23,K,D*3E
$PMTKLOG,0,1,a,31,15,0,0,1,0,0*11
$PMTK001,183,3*3A
$PMTK869,2,0*37
$GPGGA,124715.400,5212.0872,N,00005.9611,E,2,09,0.95,7.0,M,47.0,M,0000,0000*6D
$GPGSA,A,3,15,05,24,21,30,13,28,08,20,,,,1.66,0.95,1.36*0E
$GPGSV,3,1,11,13,8
8,084,34,15,54,290,36,28,52,089,35,30,32,067,29*7B
$GPGSV,3,2,11,49,30,173,28,05,29,187,27,24,20,249,25,20,14,322,22*74
$GPGSV,3,3,11,21,11,291,29,08,07,019,17,07,02,067,*4E
$GPRMC,124715.400,A,5212.0872,N,00005.9611,E,0.12,2.87,270119,,,D*6A
$GPVTG,2.87,T,,M,0.12,N,0.22,K,D*36
$PMTKLOG,0,1,a,31,15,0,0,1,0,0*11
$PMTK001,183,3*3A
$PMTK869,2,0*37
$GPGGA,124715.500,5212.0872,N,00005.9611,E,2,09,0.95,7.0,M,47.0,M,0000,0000*6C
$GPGSA,A,3,15,05,24,21,30,13,28,08,20,,,,1.66,0.95,1.36*0E
$GPRMC,124715.500,A,5212.0872,N,00005.9611,E,0.12,4.10,270119,,,D*63
$GPVTG,4.10,T,,M,0.12,N,0.22,K,D*3E
$PMTKLOG,0,1,a,31,15,0,0,1,0,0*11
$PMTK001,183,3*3A
$PMTK869,2,0*37

$GPGGA,124715.600,5212.0872,N,00005.9611,E,2,09,0.95,7.0,M,47.0,M,0000,0000*6F
$GPGSA,A,3,15,05,24,21,30,13,28,08,20,,,,1.66,0.95,1.36*0E
$GPRMC,124715.600,A,5212.0872,N,00005.9611,E,0.12,5.02,270119,,,D*62
$GPVTG,5.02,T,,M,0.12,N,0.22,K,D*3C
$PMTKLOG,0,1,a,31,15,0,0,1,0,0*11
$PMTK001,183,3*3A
$PMTK869,2,0*37

$GPGGA,124715.700,5212.0872,N,00005.9611,E,2,09,0.95,7.1,M,47.0,M,0000,0000*6F
$GPGSA,A,3,15,05,24,21,30,13,28,08,20,,,,1.66,0.95,1.36*0E
$GPRMC,124715.700,A,5212.0872,N,00005.9611,E,0.12,5.31,270119,,,D*63
$GPVTG,5.31,T,,M,0.12,N,0.21,K,D*3F
$PMTKLOG,0,1,a,31,15,0,0,1,0,0*11
$PMTK001,183,3*3A
$PMTK869,2,0*37

$GPGGA,124715.800,5212.0872,N,00005.9611,E,2,09,0.95,7.1,M,47.0,M,0000,0000*60
$GPGSA,A,3,15,05,24,21,30,13,28,08,20,,,,1.66,0.95,1.36*0E
$GPRMC,124715.800,A,5212.0872,N,00005.9611,E,0.11,6.68,270119,,,D*60
$GPVTG,6.68,T,,M,0.11,N,0.21,K,D*33
$PMTKLOG,0,1,a,31,15,0,0,1,0,0*11
$PMTK001,183,3*3A
$PMTK869,2,0*37

$GPGGA,124715.900,5212.0872,N,00005.9611,E,2,09,0.95,7.1,M,47.0,M,0000,0000*61
$GPGSA,A,3,15,05,24,21,30,13,28,08,20,,,,1.66,0.95,1.36*0E
$GPGSV,3,1,11,13,88,084,34,15,54,290,36,28,52,089,35,30,32,067,29*7B
$GPGSV,3,2,11,49,30,173,28,05,29,187,27,24,20,249,26,20,14,322,22*77
$GPGSV,3,3,11,21,11,291,31,08,07,019,17,07,02,067,*47
$GPRMC,124715.900,A,5212.0872,N,00005.9611,E,0.11,6.34,270119,,,D*68
$GPVTG,6.34,T,,M,0.11,N,0.21,K,D*3A
$PMTKLOG,0,1,a,31,15,0,0,1,0,0*11
$PMTK001,183,3*3A
$PMTK869,2,0*37

$GPGGA,124716.000,5212.0872,N,00005.9611,E,2,09,0.95,7.1,M,47.0,M,0000,0000*6B
$GPGSA,A,3,15,05,24,21,30,13,28,08,20,,,,1.66,0.95,1.36*0E
$GPRMC,124716.000,A,5212.0872,N,00005.9611,E,0.11,6.41,270119,,,D*60
$GPVTG,6.41,T,,M,0.11,N,0.21,K,D*38
$PMTKLOG,0,1,a,31,15,0,0,1,0,0*11
$PMTK001,183,3*3A
$PMTK869,2,0*37

$GPGGA,124716.100,5212.0872,N,00005.9611,E,2,09,0.95,7.1,M,47.0,M,0000,0000*6A
$GPGSA,A,3,15,05,24,21,30,13,28,08,20,,,,1.66,0.95,1.36*0E
$GPRMC,124716.100,A,5212.0872,N,00005.9611,E,0.11,6.50,270119,,,D*61
$GPVTG,6.50,T,,M,0.11,N,0.21,K,D*38

$GPGGA,124716.200,5212.0872,N,00005.9611,E,2,09,0.95,7.1,M,47.0,M,0000,0000*69
$GPGSA,A,3,15,05,24,21,30,13,28,08,20,,,,1.66,0.95,1.36*0E
$GPRMC,124716.200,A,5212.0872,N,00005.9611,E,0.11,7.29,270119,,,D*6D
$GPVTG,7.29,T,,M,0.11,N,0.21,K,D*37
$PMTKLOG,0,1,a,31,15,0,0,1,0,0*11
$PMTK001,183,3*3A
$PMTK869,2,0*37
$GPGGA,124716.300,5212.0872,N,00005.9611,E,2,09,0.95,7.1,M,47.0,M,0000,0000*68
$GPGSA,A,3,15,05,24,21,30,13,28,08,20,,,,1.66,0.95,1.36*0E
$GPRMC,124716.300,A,5212.0872,N,00005.9611,E,0.11,7.68,270119,,,D*69
$GPVTG,7.68,T,,M,0.11,N,0.21,K,D*32
$PMTKLOG,0,1,a,31,15,0,0,1,0,0*11
$PMTK001,183,3*3A
$PMTK869,2,0*37

$GPGGA,124716.
400,5212.0872,N,00005.9611,E,2,09,0.95,7.1,M,47.0,M,0000,0000*6F
$GPGSA,A,3,15,05,24,21,30,13,28,08,20,,,,1.66,0.95,1.36*0E
$GPGSV,3,1,11,13,88,084,34,15,54,290,36,28,52,089,34,30,32,067,28*7B
$GPGSV,3,2,11,49,30,173,28,05,29,187,27,24,20,249,26,20,14,322,22*77
$GPGSV,3,3,11,21,11,291,30,08,07,019,17,07,02,067,*46
$GPRMC,124716.400,A,5212.0872,N,00005.9611,E,0.11,8.05,270119,,,D*6A
$GPVTG,8.05,T,,M,0.11,N,0.21,K,D*36
$PMTKLOG,0,1,a,31,15,0,0,1,0,0*11
$PMTK001,183,3*3A
$PMTK869,2,0*37
$GPGGA,124716.500,5212.0872,N,00005.9611,E,2,09,0.95,7.1,M,47.0,M,0000,0000*6E
$GPGSA,A,3,15,05,24,21,30,13,28,08,20,,,,1.66,0.95
,1.36*0E
$GPRMC,124716.500,A,5212.0872,N,00005.9611,E,0.11,8.53,270119,,,D*68
$GPVTG,8.53,T,,M,0.11,N,0.21,K,D*35
$PMTKLOG,0,1,a,31,15,0,0,1,0,0*11
$PMTK001,183,3*3A
$PMTK869,2,0*37
$GPGGA,124716.600,5212.0872,N,00005.9611,E,2,09,0.95,7.1,M,47.0,M,0000,0000*6D
$GPGSA,A,3,15,05,24,21,30,13,28,08,20,,,,1.66,0.95,1.36*0E
$GPRMC,124716.600,A,5212.0872,N,00005.9611,E,0.11,9.04,270119,,,D*68
$GPV
TG,9.04,T,,M,0.11,N,0.21,K,D*36
$PMTKLOG,0,1,a,31,15,0,0,1,0,0*11
$PMTK001,183,3*3A
$PMTK869,2,0*37
$GPGGA,124716.700,5212.0872,N,00005.9611,E,2,09,0.95,7.1,M,47.0,M,0000,0000*6C
$GPGSA,A,3,15,05,24,21,30,13,28,08,20,,,,1.66,0.95,1.36*0E
$GPRMC,124716.700,A,5212.0872,N,00005.9611,E,0.11,8.92,270119,,,D*67
$GPVTG,8.92,T,,M,0.11,N,0.21,K,D*38
$PMTKLOG,0,1,a,31,15,0,0,1,0,0*11
$PMTK001,183,3*3A
$PMTK869,2,0*37

$GPGGA,124716.800,5212.0872,N,00005.9611,E,2,09,0.95,7.1,M,47.0,M,0000,0000*63
$GPGSA,A,3,15,05,24,21,30,13,28,08,20,,,,1.66,0.95,1.36*0E
$GPRMC,124716.800,A,5212.0872,N,00005.9611,E,0.11,8.48,270119,,,D*6F
$GPVTG,8.48,T,,M,0.11,N,0.21,K,D*3F
$PMTKLOG,0,1,a,31,15,0,0,1,0,0*11
$PMTK001,183,3*3A
$PMTK869,2,0*37

$GPGGA,124716.900,5212.0872,N,00005.9611,E,2,09,0.95,7.1,M,47.0,M,0000,0000*62
$GPGSA,A,3,15,05,24,21,30,13,28,08,20,,,,1.66,0.95,1.36*0E
$GPGSV,3,1,11,13,88,084,34,15,54,290,36,28,52,089,34,30,32,067,28*7B
$GPGSV,3,2,11,49,30,173,28,05,29,187,27,24,20,249,25,20,14,322,22*74
$GPGSV,3,3,11,21,11,291,30,08,07,019,17,07,02,067,*46
$GPRMC,124716.900,A,5212.0872,N,00005.9611,E,0.11,7.51,270119,,,D*69
$GPVTG,7.51,T,,M,0.11,N,0.21,K,D*38
$PMTKLOG,0,1,a,31,15,0,0,1,0,0*11
$PMTK001,183,3*3A
$PMTK869,2,0*37

$GPGGA,124717.000,5212.0873,N,00005.9611,E,2,09,0.95,7.1,M,47.0,M,0000,0000*6B
$GPGSA,A,3,15,05,24,21,30,13,28,08,20,,,,1.66,0.95,1.36*0E
$GPRMC,124717.000,A,5212.0873,N,00005.9611,E,0.11,6.07,270119,,,D*62
$GPVTG,6.07,T,,M,0.11,N,0.21,K,D*3A
$PMTKLOG,0,1,a,31,15,0,0,1,0,0*11
$PMTK001,183,3*3A
$PMTK869,2,0*37

$GPGGA,124717.100,5212.0873,N,00005.9611,E,2,09,0.95,7.1,M,47.0,M,0000,0000*6A
$GPGSA,A,3,15,05,24,21,30,13,28,08,20,,,,1.66,0.95,1.36*0E
$GPRMC,124717.100,A,5212.0873,N,00005.9611,E,0.11,4.93,270119,,,D*6C
$GPVTG,4.93,T,,M,0.11,N,0.21,K,D*35
$PMTKLOG,0,1,a,31,15,0,0,1,0,0*11
$PMTK001,183,3*3A
$PMTK869,2,0*37

$GPGGA,124717.200,5212.0873,N,00005.9611,E,2,09,0.95,7.1,M,47.0,M,0000,0000*69
$GPGSA,A,3,15,05,24,21,30,13,28,08,20,,,,1.66,0.95,1.36*0E
$GPRMC,124717.200,A,5212.0873,N,00005.9611,E,0.11,2.36,270119,,,D*66
$GPVTG,2.36,T,,M,0.11,N,0.21,K,D*3C
$PMTKLOG,0,1,a,31,15,0,0,1,0,0*11
$PMTK001,183,3*3A
$PMTK869,2,0*37

$GPGGA,124717.300,5212.0873,N,00005.9611,E,2,09,0.95,7.1,M,47.0,M,0000,0000*68
$GPGSA,A,3,15,05,24,21,30,13,28,08,20,,,,1.66,0.95,1.36*0E
$GPRMC,124717.300,A,5212.0873,N,00005.9611,E,0.11,2.02,270119,,,D*60
$GPVTG,2.02,T,,M,0.11,N,0.21,K,D*3B
$GPGGA,124717.400,5212.0873,N,00005.9611,E,2,09,0.95,7.1,M,47.0,M,0000,0000*6F
$GPGSA,A,3,15,05,24,21,30,13,28,08,20,,,,1.66,0.95,1.36*0E
$GPGSV,3,1,11,13,88,084,34,15,54,290,36,
28,52,089,34,30,32,067,29*7A
$GPGSV,3,2,11,49,30,173,28,05,29,187,27,24,20,249,26,20,14,322,22*77
$GPGSV,3,3,11,21,11,291,30,08,07,019,17,07,02,067,*46
$GPRMC,124717.400,A,5212.0873,N,00005.9611,E,0.11,0.93,270119,,,D*6D
$GPVTG,0.93,T,,M,0.11,N,0.21,K,D*31
$PMTKLOG,0,1,a,31,15,0,0,1,0,0*11
$PMTK001,183,3*3A
$PMTK869,2,0*37

$GPGGA,124717.500,5212.0873,N,00005.9611,E,2,09,0.95,7.1,M,47.0,M,0000,0000*6E
$GPGSA,A,3,15,05,24,21,30,13,28,08,20,,,,1.66,0.95,1.36*0E
$GPRMC,124717.500,A,5212.0873,N,00005.9611,E,0.11,359.91,270119,,,D*61
$GPVTG,359.91,T,,M,0.11,N,0.20,K,D*3D
$PMTKLOG,0,1,a,31,15,0,0,1,0,0*11
$PMTK001,183,3*3A
$PMTK869,2,0*37
$GPGGA,124717.600,5212.0873,N,00005.9611,E,2,09,0.95,7.1,M,47.0,M
,0000,0000*6D
$GPGSA,A,3,15,05,24,21,30,13,28,08,20,,,,1.66,0.95,1.36*0E
$GPRMC,124717.600,A,5212.0873,N,00005.9611,E,0.11,359.59,270119,,,D*66
$GPVTG,359.59,T,,M,0.11,N,0.20,K,D*39
$PMTKLOG,0,1,a,31,15,0,0,1,0,0*11
$PMTK001,183,3*3A
$PMTK869,2,0*37
$GPGGA,124717.700,5212.0873,N,00005.9611,E,2,09,0.95,7.1,M,47.0,M,0000,0000*6C
$GPGSA,A,3,15,05,24,21,30,13,28,08,20,,,,1.66,0.95,1.36*0E
$G
PRMC,124717.700,A,5212.0873,N,00005.9611,E,0.11,359.22,270119,,,D*6B
$GPVTG,359.22,T,,M,0.11,N,0.20,K,D*35
$PMTKLOG,0,1,a,31,15,0,0,1,0,0*11
$PMTK001,183,3*3A
$PMTK869,2,0*37
$GPGGA,124717.800,5212.0873,N,00005.9611,E,2,09,0.95,7.1,M,47.0,M,0000,0000*63
$GPGSA,A,3,15,05,24,21,30,13,28,08,20,,,,1.66,0.95,1.36*0E
$GPRMC,124717.800,A,5212.0873,N,00005.9611,E,0.11,359.47,270119,,,D*67
$GPVTG,359.47,T,,M,0.11,N,0.20,K,D*36
$PMTKLOG,0,1,a,31,15,0,0,1,0,0*11
$PMTK001,1
83,3*3A
$PMTK869,2,0*37
$GPGGA,124717.900,5212.0873,N,00005.9611,E,2,09,0.95,7.1,M,47.0,M,0000,0000*62
$GPGSA,A,3,15,05,24,21,30,13,28,08,20,,,,1.66,0.95,1.36*0E
$GPGSV,3,1,11,13,88,084,33,15,54,290,35,28,52,089,34,30,32,067,30*76
$GPGSV,3,2,11,49,30,173,28,05,29,187,27,24,20,249,26,20,14,322,22*77
$GPGSV,3,3,11,21,11,291,31,08,07,019,17,07,02,067,*47
$GPRMC,124717.900,A,5212.0873,N,00005.9611,E,0.11,359.47,270119,,,D*66
$GPVTG,359.47,T,,M,0.11,N,0.20,K,D*36
$PMTKLOG,0,1,a,31,15,0,0,1,0,0*11
$PMTK001,183,3*3A
$PMTK869,2,0*37

$GPGGA,124718.000,5212.0873,N,00005.9611,E,2,09,0.95,7.1,M,47.0,M,0000,0000*64
$GPGSA,A,3,15,05,24,21,30,13,28,08,20,,,,1.66,0.95,1.36*0E
$GPRMC,124718.000,A,5212.0873,N,00005.9611,E,0.11,358.48,270119,,,D*6E
$GPVTG,358.48,T,,M,0.11,N,0.20,K,D*38
$PMTKLOG,0,1,a,31,15,0,0,1,0,0*11
$PMTK001,183,3*3A
$PMTK869,2,0*37

$GPGGA,124718.100,5212.0873,N,00005.9611,E,2,09,0.95,7.1,M,47.0,M,0000,0000*65
$GPGSA,A,3,15,05,24,21,30,13,28,08,20,,,,1.66,0.95,1.36*0E
$GPRMC,124718.100,A,5212.0873,N,00005.9611,E,0.11,357.28,270119,,,D*66
$GPVTG,357.28,T,,M,0.11,N,0.20,K,D*31

$GPGGA,124718.200,5212.0873,N,00005.9611,E,2,09,0.95,7.1,M,47.0,M,0000,0000*66
$GPGSA,A,3,15,05,24,21,30,13,28,08,20,,,,1.66,0.95,1.36*0E
$GPRMC,124718.200,A,5212.0873,N,00005.9611,E,0.11,355.88,270119,,,D*6D
$GPVTG,355.88,T,,M,0.11,N,0.20,K,D*39
$PMTKLOG,0,1,a,31,15,0,0,1,0,0*11
$PMTK001,183,3*3A
$PMTK869,2,0*37
$PMTKLOG,0,1,a,31,15,0,0,1,0,0*11
$PMTK001,183,3*3A
$PMTK869,2,0*37

$GPGGA,124718.300,5212.0873,N,00005.9611,E,2,09,0.95,7.1,M,47.0,M,0000,0000*67
$GPGSA,A,3,15,05,24,21,30,13,28,08,20,,,,1.66,0.95,1.36*0E
$GPRMC,124718.300,A,5212.0873,N,00005.9611,E,0.11,355.51,270119,,,D*68
$GPVTG,355.51,T,,M,0.11,N,0.20,K,D*3D
$PMTKLOG,0,1,a,31,15,0,0,1,0,0*11
$PMTK001,183,3*3A
$PMTK869,2,0*37

$GPGGA,124718.400,5212.0873,N,00005.9611,E,2,09,0.95,7.2,M,47.0,M,0000,0000*63
$GPGSA,A,3,15,05,24,21,30,13,28,08,20,,,,1.66,0.95,1.36*0E
$GPGSV,3,1,11,13,88,084,33,15,54,290,35,28,52,089,34,30,32,067,30*76
$GPGSV,3,2,11,49,30,173,28,05,29,187,26,24,20,249,26,20,14,322,22*76
$GPGSV,3,3,11,21,11,291,31,08,07,019,17,07,02,067,*47
$GPRMC,124718.400,A,5212.0873,N,00005.9611,E,0.11,355.06,270119,,,D*6D
$GPVTG,355.06,T,,M,0.11,N,0.20,K,D*3F
$GPGGA,124718.500,5212.0873,N,00005.9611,E,2,09,0.95,7.2,M,47.0,M,0000,0000*62
$GPGSA,A,3,15,05,24,21,30,13,28,08,20,,,,1.66,0.95,1.36*0E
$GPRMC,124718.500,A,5212.0873,N,00005.9611,E,0.11,354.81,270119,,,D*62
$GPVTG,354.81,T,,M,0.11,N,0.20,K,D*31
$PMTKLOG,0,1,a,31,15,0,0,1,0,0*11
$PMTK001,183,3*3A
$PM
TK869,2,0*37

$GPGGA,124718.600,5212.0873,N,00005.9611,E,2,09,0.95,7.2,M,47.0,M,0000,0000*61
$GPGSA,A,3,15,05,24,21,30,13,28,08,20,,,,1.66,0.95,1.36*0E
$GPRMC,124718.600,A,5212.0873,N,00005.9611,E,0.10,354.40,270119,,,D*6D
$GPVTG,354.40,T,,M,0.10,N,0.19,K,D*37
$PMTKLOG,0,1,a,31,15,0,0,1,0,0*11
$PMTK001,183,3*3A
$PMTK869,2,0*37

$GPGGA,124718.700,5212.0873,N,00005.9611,E,2,09,0.95,7.2,M,47.0,M,0000,0000*60
$GPGSA,A,3,15,05,24,21,30,13,28,08,20,,,,1.66,0.95,1.36*0E
$GPRMC,124718.700,A,5212.0873,N,00005.9611,E,0.10,354.90,270119,,,D*61
$GPVTG,354.90,T,,M,0.10,N,0.19,K,D*3A
$PMTKLOG,0,1,a,31,15,0,0,1,0,0*11
$PMTK001,183,3*3A
$PMTK869,2,0*37
$GPGGA,124718.800,5212.0873,N,00005.9611,E,2,09,0.95,7.2,M,47.0,M,000
0,0000*6F
$GPGSA,A,3,15,05,24,21,30,13,28,08,20,,,,1.66,0.95,1.36*0E
$GPRMC,124718.800,A,5212.0873,N,00005.9611,E,0.10,355.63,270119,,,D*63
$GPVTG,355.63,T,,M,0.10,N,0.19,K,D*37
$PMTKLOG,0,1,a,31,15,0,0,1,0,0*11
$PMTK001,183,3*3A
$PMTK869,2,0*37
$GPGGA,124718.900,5212.0873,N,00005.9611,E,2,09,0.95,7.2,M,47.0,M,0000,0000*6E
$GPGSA,A,3,15,05,24,21,30,13,28,08,20,,,,1.66,0.95,1.36*0E
$GPGSV,3,1,11,13,88,084,33,15
,54,290,35,28,52,089,34,30,32,067,30*76
$GPGSV,3,2,11,49,30,173,28,05,29,187,26,24,20,249,26,20,14,322,22*76
$GPGSV,3,3,11,21,11,291,31,08,07,019,17,07,02,067,*47
$GPRMC,124718.900,A,5212.0873,N,00005.9611,E,0.10,356.10,270119,,,D*65
$GPVTG,356.10,T,,M,0.10,N,0.19,K,D*30
$PMTKLOG,0,1,a,31,15,0,0,1,0,0*11
$PMTK001,183,3*3A
$PMTK869,2,0*37
$GPGGA,124719.000,5212.0873,N,00005.9611,E,2,09,0.95,7.2,M,47.0,M,0000,0000*66
$GPGSA,A,3,15,05,24,21,30,13,28,08,20,,,,1.66,0.95,1.36*0E
$GPRMC,124719.000,A,5212.0873,N,00005.9611,E,0.10,356.61,270119,,,D*6B
$GPVTG,356.61,T,,M,0.10,N,0.19,K,D*36
$PMTKLOG,0,1,a,31,15,0,0,1,0,0*11
$PMTK001,183,3*3A
$PMTK869,2,0*37

$GPGGA,124719.100,5212.0873,N,00005.9611,E,2,09,0.95,7.2,M,47.0,M,0000,0000*67
$GPGSA,A,3,15,05,24,21,30,13,28,08,20,,,,1.66,0.95,1.36*0E
$GPRMC,124719.100,A,5212.0873,N,00005.9611,E,0.10,356.47,270119,,,D*6E
$GPVTG,356.47,T,,M,0.10,N,0.19,K,D*32
$PMTKLOG,0,1,a,31,15,0,0,1,0,0*11
$PMTK001,183,3*3A
$PMTK869,2,0*37

$GPGGA,124719.200,5212.0873,N,00005.9611,E,2,09,0.95,7.2,M,47.0,M,0000,0000*64
$GPGSA,A,3,15,05,24,21,30,13,28,08,20,,,,1.66,0.95,1.36*0E
$GPRMC,124719.200,A,5212.0873,N,00005.9611,E,0.10,356.43,270119,,,D*69
$GPVTG,356.43,T,,M,0.10,N,0.19,K,D*36
$PMTKLOG,0,1,a,31,15,0,0,1,0,0*11
$PMTK001,183,3*3A
$PMTK869,2,0*37

$GPGGA,124719.300,5212.0873,N,00005.9611,E,2,09,0.95,7.2,M,47.0,M,0000,0000*65
$GPGSA,A,3,15,05,24,21,30,13,28,08,20,,,,1.66,0.95,1.36*0E
$GPRMC,124719.300,A,5212.0873,N,00005.9611,E,0.10,356.94,270119,,,D*62
$GPVTG,356.94,T,,M,0.10,N,0.19,K,D*3C
$PMTKLOG,0,1,a,31,15,0,0,1,0,0*11
$PMTK001,183,3*3A
$PMTK869,2,0*37

$GPGGA,124719.400,5212.0873,N,00005.9611,E,2,09,0.95,7.2,M,47.0,M,0000,0000*62
$GPGSA,A,3,15,05,24,21,30,13,28,08,20,,,,1.66,0.95,1.36*0E
$GPGSV,3,1,11,13,88,084,33,15,54,290,35,28,52,089,35,30,32,067,29*7F
$GPGSV,3,2,11,49,30,173,28,05,29,187,26,24,20,249,27,20,14,322,22*77
$GPGSV,3,3,11,21,11,291,31,08,07,019,17,07,02,067,*47
$GPRMC,124719.400,A,5212.0873,N,00005.9611,E,0.10,356.91,270119,,,D*60
$GPVTG,356.91,T,,M,0.10,N,0.19,K,D*39
$PMTKLOG,0,1,a,31,15,0,0,1,0,0*11
$PMTK001,183,3*3A
$PMTK869,2,0*37

$GPGGA,124719.500,5212.0873,N,00005.9611,E,2,09,0.95,7.2,M,47.0,M,0000,0000*63
$GPGSA,A,3,15,05,24,21,30,13,28,08,20,,,,1.66,0.95,1.36*0E
$GPRMC,124719.500,A,5212.0873,N,00005.9611,E,0.11,357.07,270119,,,D*6E
$GPVTG,357.07,T,,M,0.11,N,0.20,K,D*3C
$PMTKLOG,0,1,a,31,15,0,0,1,0,0*11
$PMTK001,183,3*3A
$PMTK869,2,0*37
$GPGGA,124719.600,5212.0873,N,00005.9611,E,2,09,0.95,7.2,M,47.0,M,0000,0000*60
$GPGSA,A,3,15,05,24,21,30,13,28,08,20,,,,1.66,0.95,1.36*0E
$GPRMC,124719.600,A,5212.0873,N,00005.9611,E,0.11,357.77,270119,,,D*6A
$GPVTG,357.77,T,,M
,0.11,N,0.20,K,D*3B

$GPGGA,124719.700,5212.0873,N,00005.9611,E,2,09,0.95,7.2,M,47.0,M,0000,0000*61
$GPGSA,A,3,15,05,24,21,30,13,28,08,20,,,,1.66,0.95,1.36*0E
$GPRMC,124719.700,A,5212.0873,N,00005.9611,E,0.11,357.99,270119,,,D*6B
$GPVTG,357.99,T,,M,0.11,N,0.20,K,D*3B
$PMTKLOG,0,1,a,31,15,0,0,1,0,0*11
$PMTK001,183,3*3A
$PMTK869,2,0*37

$GPGGA,124719.800,5212.0873,N,00005.9611,E,2,09,0.95,7.2,M,47.0,M,0000,0000*6E
$GPGSA,A,3,15,05,24,21,30,13,28,08,20,,,,1.66,0.95,1.36*0E
$GPRMC,124719.800,A,5212.0873,N,00005.9611,E,0.11,358.12,270119,,,D*68
$GPVTG,358.12,T,,M,0.11,N,0.20,K,D*37
$PMTKLOG,0,1,a,31,15,0,0,1,0,0*11
$PMTK001,183,3*3A
$PMTK869,2,0*37
$GPGGA,124719.900,5212.0873,N,0000
5.9611,E,2,09,0.95,7.2,M,47.0,M,0000,0000*6F
$GPGSA,A,3,15,05,24,21,30,13,28,08,20,,,,1.66,0.95,1.36*0E
$GPGSV,3,1,11,13,88,084,33,15,54,290,36,28,52,089,34,30,32,067,29*7D
$GPGSV,3,2,11,49,30,173,28,05,29,187,26,24,20,249,26,20,14,322,22*76
$GPGSV,3,3,11,21,11,291,30,08,07,019,17,07,02,067,*46
$GPRMC,124719.900,A,5212.0873,N,00005.9611,E,0.11,358.25,270119,,,D*6D
$GPVTG,358.25,T,,M,0.11,N,0.20,K,D*33
$PMTKLOG,0,1,a,31,15,0,0,1,0,0*11
$PMTK001,183,3*3A
$PMTK869,2,0*37
$GPGGA,124720.000,5212.0873,N,00005.9611,E,2,09,0.95,7.2,M,47.0,M,0000,0000*6C
$GPGSA,A,3,15,05,24,21,30,
13,28,08,20,,,,1.66,0.95,1.36*0E
$GPRMC,124720.000,A,5212.0873,N,00005.9611,E,0.11,358.54,270119,,,D*68
$GPVTG,358.54,T,,M,0.11,N,0.19,K,D*3F
$PMTKLOG,0,1,a,31,15,0,0,1,0,0*11
$PMTK001,183,3*3A
$PMTK869,2,0*37
$GPGGA,124720.100,5212.0873,N,00005.9611,E,2,09,0.95,7.2,M,47.0,M,0000,0000*6D
$GPGSA,A,3,15,05,24,21,30,13,28,08,20,,,,1.66,0.95,1.36*0E
$GPRMC,124720.100,A,5212.0873,N,00005.9611,E,0.10,358.62,270119,,,D*6D
$GPVTG,358.62,T,,M,0.10,N,0.19,K,D*3B
$PMTKLOG,0,1,a,31,15,0,0,1,0,0*11
$PMTK001,183,3*3A
$PMTK869,2,0*37

$GPGGA,124720.200,5212.0873,N,00005.9611,E,2,09,0.95,7.2,M,47.0,M,0000,0000*6E
$GPGSA,A,3,15,05,24,21,30,13,28,08,20,,,,1.66,0.95,1.36*0E
$GPRMC,124720.200,A,5212.0873,N,00005.9611,E,0.10,359.84,270119,,,D*67
$GPVTG,359.84,T,,M,0.10,N,0.19,K,D*32
$PMTKLOG,0,1,a,31,15,0,0,1,0,0*11
$PMTK001,183,3*3A
$PMTK869,2,0*37

$GPGGA,124720.300,5212.0873,N,00005.9611,E,2,09,0.95,7.2,M,47.0,M,0000,0000*6F
$GPGSA,A,3,15,05,24,21,30,13,28,08,20,,,,1.66,0.95,1.36*0E
$GPRMC,124720.300,A,5212.0873,N,00005.9611,E,0.10,0.47,270119,,,D*66
$GPVTG,0.47,T,,M,0.10,N,0.19,K,D*32
$PMTKLOG,0,1,a,31,15,0,0,1,0,0*11
$PMTK001,183,3*3A
$PMTK869,2,0*37

$GPGGA,124720.400,5212.0874,N,00005.9611,E,2,09,0.95,7.2,M,47.0,M,0000,0000*6F
$GPGSA,A,3,15,05,24,21,30,13,28,08,20,,,,1.66,0.95,1.36*0E
$GPGSV,3,1,11,13,88,084,33,15,54,290,36,28,52,089,34,30,32,067,29*7D
$GPGSV,3,2,11,49,30,173,28,05,29,187,26,24,20,249,27,20,14,322,22*77
$GPGSV,3,3,11,21,11,291,30,08,07,019,17,07,02,067,*46
$GPRMC,124720.400,A,5212.0874,N,00005.9611,E,0.10,1.61,270119,,,D*63
$GPVTG,1.61,T,,M,0.10,N,0.19,K,D*37
$PMTKLOG,0,1,a,31,15,0,0,1,0,0*11
$PMTK001,183,3*3A
$PMTK869,2,0*37

$GPGGA,124720.500,5212.0874,N,00005.9611,E,2,09,0.95,7.2,M,47.0,M,0000,0000*6E
$GPGSA,A,3,15,05,24,21,30,13,28,08,20,,,,1.66,0.95,1.36*0E
$GPRMC,124720.500,A,5212.0874,N,00005.9611,E,0.10,2.49,270119,,,D*6B
$GPVTG,2.49,T,,M,0.10,N,0.19,K,D*3E
$GPGGA,124720.600,5212.0874,N,00005.9611,E,2,09,0.95,7.2,M,47.0,M,0000,0000*6D
$GPGSA,A,3,15,05,24,21,30,13,28,08,20,,,,1.66,0.95,1.36*0E
$GPRMC,124720.600,A,5212.0874,N,00005.9611,E,0.10,2.93,270119,,,D*6F
$GPVTG,2.93,T,,M,0.10,N,0.19,K,D*39
$PMTKLOG,0,1,a,31,15,0,0,1,0,0*11
$PMTK001,183,3*3A
$PMTK869,2,0*37
$PMTKLOG,0,1,a,31,15,0,0,1,0,0*11
$PMTK001,183,3*3A
$PMTK869,2,0*37
$GPGGA,124720.700,5212.0874,N,00005.9611,E,2,09,0.95,7.3,M,47.0,M,0000,0000*6D
$GPGSA,A,3,15,05,24,21,30,13,28,08,20,,,,1.66,0.95,1.36*0E
$GPRMC,124720.700,A,5212.0874,N,00005.9611,E,0.10,2.18,270119,,,D*6D
$GPVTG,2.18,T,,M,0.10,N,0.19,K,D*3A

$GPGGA,124720.800,5212.0874,N,00005.9611,E,2,09,0.95,7.3,M,47.0,M,0000,0000*62
$GPGSA,A,3,15,05,24,21,30,13,28,08,20,,,,1.66,0.95,1.36*0E
$GPRMC,124720.800,A,5212.0874,N,00005.9611,E,0.10,0.92,270119,,,D*62
$GPVTG,0.92,T,,M,0.10,N,0.19,K,D*3A
$PMTKLOG,0,1,a,31,15,0,0,1,0,0*11
$PMTK001,183,3*3A
$PMTK869,2,0*37

$GPGGA,124720.900,5212.0874,N,00005.9611,E,2,09,0.95,7.3,M,47.0,M,0000,0000*63
$GPGSA,A,3,15,05,24,21,30,13,28,08,20,,,,1.66,0.95,1.36*0E
$GPGSV,3,1,11,13,88,084,33,15,54,290,36,28,52,089,34,30,32,067,30*75
$GPGSV,3,2,11,49,30,173,28,05,29,187,27,24,20,249,28,20,14,322,22*79
$GPGSV,3,3,11,21,11,291,30,08,07,019,17,07,02,067,*46
$GPRMC,124720.900,A,5212.0874,N,00005.9611,E,0.10,359.57,270119,,,D*65
$GPVTG,359.57,T,,M,0.10,N,0.19,K,D*3C
$PMTKLOG,0,1,a,31,15,0,0,1,0,0*11
$PMTK001,183,3*3A
$PMTK869,2,0*37

$GPGGA,124721.000,5212.0874,N,00005.9611,E,2,09,0.95,7.3,M,47.0,M,0000,0000*6B
$GPGSA,A,3,15,05,24,21,30,13,28,08,20,,,,1.66,0.95,1.36*0E
$GPRMC,124721.000,A,5212.0874,N,00005.9611,E,0.10,359.01,270119,,,D*6E
$GPVTG,359.01,T,,M,0.10,N,0.19,K,D*3F
$PMTKLOG,0,1,a,31,15,0,0,1,0,0*11
$PMTK001,183,3*3A
$PMTK869,2,0*37
$GPGGA,124721.100,5212.0874,N,00005.9611,E,2,09,0.95,7.3,M,47.0,M,0000,0000*6A
$GPGSA,A,3,15,05,24,21,30,13,28
,08,20,,,,1.66,0.95,1.36*0E
$GPRMC,124721.100,A,5212.0874,N,00005.9611,E,0.10,0.25,270119,,,D*66
$GPVTG,0.25,T,,M,0.10,N,0.19,K,D*36
$PMTKLOG,0,1,a,31,15,0,0,1,0,0*11
$PMTK001,183,3*3A
$PMTK869,2,0*37
$GPGGA,124721.200,5212.0874,N,00005.9611,E,2,09,0.95,7.3,M,47.0,M,0000,0000*69
$GPGSA,A,3,15,05,24,21,30,13,28,08,20,,,,1.66,0.95,1.36*0E
$GPRMC,124721.200,A,5212.0874,N,00005.9611,E,0.10,1.46,270119,,,D*61
$GPVTG,1.46,T,,M,0.10,N,0.19,K,D*32
$PMTKLOG,0,1,a,31,15,0,0,1,0,0*11
$PMTK001,183,3*3A
$PMTK869,2,0*37

$GPGGA,124721.300,5212.0874,N,00005.9611,E,2,09,0.95,7.3,M,47.0,M,0000,0000*68
$GPGSA,A,3,15,05,24,21,30,13,28,08,20,,,,1.66,0.95,1.36*0E
$GPRMC,124721.300,A,5212.0874,N,00005.9611,E,0.10,1.78,270119,,,D*6D
$GPVTG,1.78,T,,M,0.10,N,0.19,K,D*3F
$PMTKLOG,0,1,a,31,15,0,0,1,0,0*11

$PMTK001,183,3*3A
$PMTK869,2,0*37
$GPGGA,124721.400,5212.0874,N,00005.9611,E,2,09,0.95,7.3,M,47.0,M,0000,0000*6F
$GPGSA,A,3,15,05,24,21,30,13,28,08,20,,,,1.66,0.95,1.36*0E
$GPGSV,3,1,11,13,88,084,33,15,54,290,37,28,52,089,35,30,32,067,30*75
$GPGSV,3,2,11,49,30,173,28,05,29,187,27,24,20,249,28,20,14,322,20*7B
$GPGSV,3,3,11,21,11,291,30,08,07,019,17,07,02,067,*46
$GPRMC,124721.400,A,5
212.0874,N,00005.9611,E,0.10,1.52,270119,,,D*62
$GPVTG,1.52,T,,M,0.10,N,0.19,K,D*37
$PMTKLOG,0,1,a,31,15,0,0,1,0,0*11
$PMTK001,183,3*3A
$PMTK869,2,0*37
$GPGGA,124721.500,5212.0874,N,00005.9611,E,2,09,0.95,7.3,M,47.0,M,0000,0000*6E
$GPGSA,A,3,15,05,24,21,30,13,28,08,20,,,,1.66,0.95,1.36*0E
$GPRMC,124721.500,A,5212.0874,N,00005.9611,E,0.10,359.99,270119,,,D*6A
$GPVTG,359.99,T,,M,0.10,N,0.19,K,D*3E
$PMTKLOG,0,1,a,31,15,0,0,1,0,0*11
$PMTK001,183,3*3A
$PMTK869,2,0*37

$GPGGA,124721.600,5212.0874,N,00005.9611,E,2,09,0.95,7.3,M,47.0,M,0000,0000*6D
$GPGSA,A,3,15,05,24,21,30,13,28,08,20,,,,1.66,0.95,1.36*0E
$GPRMC,124721.600,A,5212.0874,N,00005.9611,E,0.10,359.15,270119,,,D*6D
$GPVTG,359.15,T,,M,0.10,N,0.19,K,D*3A
$PMTKLOG,0,1,a,31,15,0,0,1,0,0*11
$PMTK001,183,3*3A
$PMTK869,2,0*37

$GPGGA,124721.700,5212.0874,N,00005.9611,E,2,09,0.95,7.3,M,47.0,M,0000,0000*6C
$GPGSA,A,3,15,05,24,21,30,13,28,08,20,,,,1.66,0.95,1.36*0E
$GPRMC,124721.700,A,5212.0874,N,00005.9611,E,0.11,357.79,270119,,,D*69
$GPVTG,357.79,T,,M,0.11,N,0.20,K,D*35
$PMTKLOG,0,1,a,31,15,0,0,1,0,0*11
$PMTK001,183,3*3A
$PMTK869,2,0*37
$GPGGA,124721.800,5212.0874,N,00005.9611,E,2,09,0.95,7.3,M,47.0,M,0000,0000*63
$GPGSA,A,3,15,05,24,21,30,1
3,28,08,20,,,,1.66,0.95,1.36*0E
$GPRMC,124721.800,A,5212.0874,N,00005.9611,E,0.11,357.42,270119,,,D*6E
$GPVTG,357.42,T,,M,0.11,N,0.20,K,D*3D
$PMTKLOG,0,1,a,31,15,0,0,1,0,0*11
$PMTK001,183,3*3A
$PMTK869,2,0*37

$GPGGA,124721.900,5212.0874,N,00005.9611,E,2,09,0.95,7.3,M,47.0,M,0000,0000*62
$GPGSA,A,3,15,05,24,21,30,13,28,08,20,,,,1.66,0.95,1.36*0E
$GPGSV,3,1,11,13,88,085,34,15,54,290,38,28,52,089,34,30,32,067,34*79
$GPGSV,3,2,11,49,30,173,29,05,29,187,27,24,20,249,25,20,14,322,20*77
$GPGSV,3,3,11,21,11,291,30,08,07,019,15,07,02,067,*44
$GPRMC,124721.900,A,5212.0874,N,00005.9611,E,0.11,357.59,270119,,,D*65
$GPVTG,357.59,T,,M,0.11,N,0.21,K,D*36

$GPGGA,124722.000,5212.0874,N,00005.9611,E,2,09,0.95,7.3,M,47.0,M,0000,0000*68
$GPGSA,A,3,15,05,24,21,30,13,28,08,20,,,,1.66,0.95,1.36*0E
$GPRMC,124722.000,A,5212.0874,N,00005.9611,E,0.11,359.27,270119,,,D*68
$GPVTG,359.27,T,,M,0.11,N,0.21,K,D*31
$PMTKLOG,0,1,a,31,15,0,0,1,0,0*11
$PMTK001,183,3*3A
$PMTK869,2,0*37

$GPGGA,124722.100,5212.0874,N,00005.9611,E,2,09,0.95,7.3,M,47.0,M,0000,0000*69
$GPGSA,A,3,15,05,24,21,30,13,28,08,20,,,,1.66,0.95,1.36*0E
$GPRMC,124722.100,A,5212.0874,N,00005.9611,E,0.11,1.20,270119,,,D*60
$GPVTG,1.20,T,,M,0.11,N,0.21,K,D*38
$PMTKLOG,0,1,a,31,15,0,0,1,0,0*11
$PMTK001,183,3*3A
$PMTK869,2,0*37

$GPGGA,124722.200,5212.0874,N,00005.9611,E,2,09,0.95,7.3,M,47.0,M,0000,0000*6A
$GPGSA,A,3,15,05,24,21,30,13,28,08,20,,,,1.66,0.95,1.36*0E
$GPRMC,124722.200,A,5212.0874,N,00005.9611,E,0.12,1.11,270119,,,D*62
$GPVTG,1.11,T,,M,0.12,N,0.21,K,D*39
$PMTKLOG,0,1,a,31,15,0,0,1,0,0*11
$PMTK001,183,3*3A
$PMTK869,2,0*37
$GPGGA,124722.300,5212.0874,N,00005.9611,E,2,09,0.95,7.3,M,47.0,M,0000,0000*6B
$GPGSA,A,3,15,05,24,21,30,13,28,08,20,,,,1.66,0.95,1.36*0E
$GPRMC,124722.300,A,5212.0874,N,00005.9611,E,0.12,1.10,270119,,,D*62
$GPVTG,1.10,T,,M,0.12,N,0.21,K,D*38
$PMTKLOG,0,1,a,31,15,0,0,1,0,0*11
$PMTK001,183,3*3A
$PMTK869,2,0*37

$GPGGA,124722.400,5212.0874,N,00005.9611,E,2,09,0.95,7.3,M,47.0,M,0000,0000*6C
$GPGSA,A,3,15,05,24,21,30,13,28,08,20,,,,1.66,0.95,1.36*0E
$GPGSV,3,1,11,13
,88,085,34,15,54,290,38,28,52,089,31,30,32,067,35*7D
$GPGSV,3,2,11,49,30,173,29,05,29,187,28,24,20,249,24,20,14,322,18*72
$GPGSV,3,3,11,21,11,291,29,08,07,019,15,07,02,067,*4C
$GPRMC,124722.400,A,5212.0874,N,00005.9611,E,0.12,1.41,270119,,,D*61
$GPVTG,1.41,T,,M,0.12,N,0.21,K,D*3C
$PMTKLOG,0,1,a,31,15,0,0,1,0,0*11
$PMTK001,183,3*3A
$PMTK869,2,0*37
$GPGGA,124722.500,5212.0874,N,00005.9611,E,2,09,0.95,7.3,M,47.0,M,0000,0000*6D
$GPGSA,A,3,15,05,24,21,30,13,28,08,20,,,,1.66,0.95,1.36*0E
$GPRMC,124722.500,A,5212.0874,N,00005.9611,E,0.12,1.87,270119,,,D*6A
$GPVTG,1.87,T,,M,0.12,N,0.21,K,D*36
$PMTKLOG,0,1,a,31,15,0,0,1,0,0*11
$PMTK001,183,3
*3A
$PMTK869,2,0*37
$GPGGA,124722.600,5212.0874,N,00005.9611,E,2,09,0.95,7.3,M,47.0,M,0000,0000*6E
$GPGSA,A,3,15,05,24,21,30,13,28,08,20,,,,1.66,0.95,1.36*0E
$GPRMC,124722.600,A,5212.0874,N,00005.9611,E,0.11,1.63,270119,,,D*60
$GPVTG,1.63,T,,M,0.11,N,0.21,K,D*3F
$PMTKLOG,0,1,a,31,15,0,0,1,0,0*11
$PMTK001,183,3*3A
$PMTK869,2,0*37

$GPGGA,124722.700,5212.0874,N,00005.9611,E,2,09,0.95,7.3,M,47.0,M,0000,0000*6F
$GPGSA,A,3,15,05,24,21,30,13,28,08,20,,,,1.66,0.95,1.36*0E
$GPRMC,124722.700,A,5212.0874,N,00005.9611,E,0.11,1.27,270119,,,D*61
$GPVTG,1.27,T,,M,0.11,N,0.21,K,D*3F
$PMTKLOG,0,1,a,31,15,0,0,1,0,0*11
$PMTK001,183,3*3A
$PMTK869,2,0*37

$GPGGA,124722.800,5212.0874,N,00005.9611,E,2,09,0.95,7.3,M,47.0,M,0000,0000*60
$GPGSA,A,3,15,05,24,21,30,13,28,08,20,,,,1.66,0.95,1.36*0E
$GPRMC,124722.800,A,5212.0874,N,00005.9611,E,0.11,0.10,270119,,,D*6B
$GPVTG,0.10,T,,M,0.11,N,0.21,K,D*3A
$PMTKLOG,0,1,a,31,15,0,0,1,0,0*11
$PMTK001,183,3*3A
$PMTK869,2,0*37
$GPGGA,124722.900,5212.0874,N,00005.9611,E,2,09,0.95,7.3,M,47.0,M,0000,0000*61
$GPGSA,A,3,15
,05,24,21,30,13,28,08,20,,,,1.66,0.95,1.36*0E
$GPGSV,3,1,11,13,88,085,32,15,54,290,38,28,52,089,33,30,32,067,33*7F
$GPGSV,3,2,11,49,30,173,31,05,29,187,27,24,20,249,26,20,14,322,18*76
$GPGSV,3,3,11,21,11,291,29,08,07,019,15,07,02,067,*4C
$GPRMC,124722.900,A,5212.0874,N,00005.9611,E,0.12,359.16,270119,,,D*60
$GPVTG,359.16,T,,M,0.12,N,0.21,K,D*30
$PMTKLOG,0,1,a,31,15,0,0,1,0,0*11
$PMTK001,183,3*3A
$PMTK869,2,0*37

$GPGGA,124723.000,5212.0874,N,00005.9611,E,2,09,0.95,7.4,M,47.0,M,0000,0000*6E
$GPGSA,A,3,15,05,24,21,30,13,28,08,20,,,,1.66,0.95,1.36*0E
$GPRMC,124723.000,A,5212.0874,N,00005.9611,E,0.12,357.52,270119,,,D*66
$GPVTG,357.52,T,,M,0.12,N,0.22,K,D*3D
$PMTKLOG,0,1,a,31,15,0,0,1,0,0*11
$PMTK001,183,3*3A
$PMTK869,2,0*37

$GPGGA,124723.100,5212.0874,N,00005.9611,E,2,09,0.95,7.4,M,47.0,M,0000,0000*6F
$GPGSA,A,3,15,05,24,21,30,13,28,08,20,,,,1.66,0.95,1.36*0E
$GPRMC,124723.100,A,5212.0874,N,00005.9611,E,0.12,356.52,270119,,,D*66
$GPVTG,356.52,T,,M,0.12,N,0.22,K,D*3C

$GPGGA,124723.200,5212.0874,N,00005.9611,E,2,09,0.95,7.4,M,47.0,M,0000,0000*6C
$GPGSA,A,3,15,05,24,21,30,13,28,08,20,,,,1.66,0.95,1.36*0E
$GPRMC,124723.200,A,5212.0874,N,00005.9611,E,0.12,356.23,270119,,,D*63
$GPVTG,356.23,T,,M,0.12,N,0.22,K,D*3A
$PMTKLOG,0,1,a,31,15,0,0,1,0,0*11
$PMTK001,183,3*3A
$PMTK869,2,0*37

$GPGGA,124723.300,5212.0874,N,00005.9611,E,2,09,0.95,7.4,M,47.0,M,0000,0000*6D
$GPGSA,A,3,15,05,24,21,30,13,28,08,20,,,,1.66,0.95,1.36*0E
$GPRMC,124723.300,A,5212.0874,N,00005.9611,E,0.12,356.37,270119,,,D*67
$GPVTG,356.37,T,,M,0.12,N,0.22,K,D*3F
$PMTKLOG,0,1,a,31,15,0,0,1,0,0*11
$PMTK001,183,3*3A
$PMTK869,2,0*37
$GPGGA,124723.400,5212.0874,N,00005.9611,E,2,09,0.95,7.4,M,47.0,M,0000,0000*6A
$GPGSA,A,3,15,05,24,21,30,13,28,08,20,,,,1.66,0.95,1.36*0E
$GPGSV,3,1,11,13,88,085,34,15,54,290,38,28,52,089,33,30,32,067,31*7B
$GPGSV,3,2,11,49,30,173,29,05,29,187,26,24,20,249,26,20,14,322,21*74
$GPGSV,3,3,11,21,11,291,29,08,07,019,17,07,02,067,*4E
$GPRMC,124723.400,A,5212.0874,N,00005.9611,E,0.12,357.04,270119,,,D*61
$GPVTG,357.04,T,,M,0.12,N,0.22,K,D*3E
$PMTKLOG,0,1,a,31,15,0,0,1,0,0*11
$PMTK001,183,3*3A
$PMTK869,2,0*37

$GPGGA,124723.500,5212.0874,N,00005.9611,E,2,09,0.95,7.4,M,47.0,M,0000,0000*6B
$GPGSA,A,3,15,05,24,21,30,13,28,08,20,,,,1.66,0.95,1.36*0E
$GPRMC,124723.500,A,5212.0874,N,00005.9611,E,0.12,357.31
,270119,,,D*66
$GPVTG,357.31,T,,M,0.12,N,0.22,K,D*38
$PMTKLOG,0,1,a,31,15,0,0,1,0,0*11
$PMTK001,183,3*3A
$PMTK869,2,0*37
$GPGGA,124723.600,5212.0874,N,00005.9611,E,2,09,0.95,7.4,M,47.0,M,0000,0000*68
$GPGSA,A,3,15,05,24,21,30,13,28,08,20,,,,1.66,0.95,1.36*0E
$GPRMC,124723.600,A,5212.0874,N,00005.9611,E,0.12,358.35,270119,,,D*6E
$GPVTG,358.35,T,,M,0.12,N,0.23,K,D*32
$PMTKLOG,0,1,a,31,15,0,0,1,0
,0*11
$PMTK001,183,3*3A
$PMTK869,2,0*37
$GPGGA,124723.700,5212.0875,N,00005.9611,E,2,09,0.95,7.4,M,47.0,M,0000,0000*68
$GPGSA,A,3,15,05,24,21,30,13,28,08,20,,,,1.66,0.95,1.36*0E
$GPRMC,124723.700,A,5212.0875,N,00005.9611,E,0.12,359.90,270119,,,D*60
$GPVTG,359.90,T,,M,0.12,N,0.23,K,D*3C
$PMTKLOG,0,1,a,31,15,0,0,1,0,0*11
$PMTK001,183,3*3A
$PMTK869,2,0*37

$GPGGA,124723.800,5212.0875,N,00005.9611,E,2,09,0.95,7.4,M,47.0,M,0000,0000*67
$GPGSA,A,3,15,05,24,21,30,13,28,08,20,,,,1.66,0.95,1.36*0E
$GPRMC,124723.800,A,5212.0875,N,00005.9611,E,0.12,1.34,270119,,,D*6F
$GPVTG,1.34,T,,M,0.12,N,0.23,K,D*3C
$PMTKLOG,0,1,a,31,15,0,0,1,0,0*11
$PMTK001,183,3*3A
$PMTK869,2,0*37

$GPGGA,124723.900,5212.0875,N,00005.9611,E,2,09,0.95,7.4,M,47.0,M,0000,0000*66
$GPGSA,A,3,15,05,24,21,30,13,28,08,20,,,,1.66,0.95,1.36*0E
$GPGSV,3,1,11,13,88,085,33,15,54,290,38,28,52,089,32,30,32,067,33*7F
$GPGSV,3,2,11,49,30,173,29,05,29,187,28,24,20,249,26,20,14,322,21*7A
$GPGSV,3,3,11,21,11,291,29,08,07,019,18,07,02,067,*41
$GPRMC,124723.900,A,5212.0875,N,00005.9611,E,0.12,1.97,270119,,,D*67
$GPVTG,1.97,T,,M,0.12,N,0.22,K,D*34
$PMTKLOG,0,1,a,31,15,0,0,1,0,0*11
$PMTK001,183,3*3A
$PMTK869,2,0*37
$GPGGA,124724.000,5212.0875,N,00005.9611,E,2,09,0.95,7.4,M,47.0,M,0000,0000*68
$GPGSA,A,3,15,05,24,21,30,13,28,08,20,,,,1
.66,0.95,1.36*0E
$GPRMC,124724.000,A,5212.0875,N,00005.9611,E,0.11,3.08,270119,,,D*6E
$GPVTG,3.08,T,,M,0.11,N,0.21,K,D*30
$PMTKLOG,0,1,a,31,15,0,0,1,0,0*11
$PMTK001,183,3*3A
$PMTK869,2,0*37

$GPGGA,124724.100,5212.0875,N,00005.9611,E,2,09,0.95,7.4,M,47.0,M,0000,0000*69
$GPGSA,A,3,15,05,24,21,30,13,28,08,20,,,,1.66,0.95,1.36*0E
$GPRMC,124724.100,A,5212.0875,N,00005.9611,E,0.11,3.84,270119,,,D*6B
$GPVTG,3.84,T,,M,0.11,N,0.20,K,D*35
$PMTKLOG,0,1,a,31,15,0,0,1,0,0*11
$PMTK001,183,3*3A
$PMTK869,2,0*37

$GPGGA,124724.200,5212.0875,N,00005.9611,E,2,09,0.95,7.4,M,47.0,M,0000,0000*6A
$GPGSA,A,3,15,05,24,21,30,13,28,08,20,,,,1.66,0.95,1.36*0E
$GPRMC,124724.200,A,5212.0875,N,00005.9611,E,0.10,5.19,270119,,,D*6B
$GPVTG,5.19,T,,M,0.10,N,0.19,K,D*3C
$PMTKLOG,0,1,a,31,15,0,0,1,0,0*11
$PMTK001,183,3*3A
$PMTK869,2,0*37

$GPGGA,124724.300,5212.0875,N,00005.9611,E,2,09,0.95,7.4,M,47.0,M,0000,0000*6B
$GPGSA,A,3,15,05,24,21,30,13,28,08,20,,,,1.66,0.95,1.36*0E
$GPRMC,124724.300,A,5212.0875,N,00005.9611,E,0.10,5.40,270119,,,D*66
$GPVTG,5.40,T,,M,0.10,N,0.19,K,D*30

$GPGGA,124724.400,5212.0875,N,00005.9611,E,2,09,0.95,7.4,M,47.0,M,0000,0000*6C
$GPGSA,A,3,15,05,24,21,30,13,28,08,20,,,,1.66,0.95,1.36*0E
$GPGSV,3,1,11,13,88,085,33,15,54,290,38,28,52,089,33,30,32,067,28*74
$GPGSV,3,2,11,49,30,173,29,05,29,187,29,24,20,249,26,20,14,322,21*7B
$GPGSV,3,3,11,21,11,291,28,08,07,019,18,07,02,067,*40
$GPRMC,124724.400,A,5212.0875,N,00005.9611,E,0.10,5.53,270119,,,D*63
$GPVTG,5.53,T,,M,0.10,N,0.19,K,D*32
$PMTKLOG,0,1,a,31,15,0,0,1,0,0*11
$PMTK001,183,3*3A
$PMTK869,2,0*37
$GPGGA,124724.500,5212.0875,N,00005.9611,E,2,09,0.95,7.4,M,47.0,M,0000,0000*6D
$GPGSA,A,3,15,05,24,21,30,13,28,08,20,,,,1.66,0.95,1.36*0E
$GPRMC,124724.500,A,5212.0875,N,00005.9611,E,0.10,4.34,270119,,,D*62
$GPVTG,4.34,T,,M,0.10,N,0.19,K,D*32
$PMTKLOG,0,1,a,31,15,0,0,1,0,0*11
$PMTK001,183,3*3A
$PMTK869,2,0*37

$GPGGA,124724.600,5212.0875,N,00005.9611,E,2,09,0.95,7.4,M,47.0,M,0000,0000*6E
$GPGSA,A,3,15,05,24,21,30,13,28,08,20,,,,1.66,0.95,1.36*0E
$GPRMC
,124724.600,A,5212.0875,N,00005.9611,E,0.10,3.18,270119,,,D*68
$GPVTG,3.18,T,,M,0.10,N,0.18,K,D*3A
$PMTKLOG,0,1,a,31,15,0,0,1,0,0*11
$PMTK001,183,3*3A
$PMTK869,2,0*37
$GPGGA,124724.700,5212.0875,N,00005.9611,E,2,09,0.95,7.4,M,47.0,M,0000,0000*6F
