$GPGGA,122042.000,5212.0852,N,00005.9605,E,1,06,1.36,0.2,M,47.0,M,,*6C
$GPGSA,A,3,15,05,21,30,13,28,,,,,,,2.61,1.36,2.23*09
$GPRMC,122042.000,A,5212.0852,N,00005.9605,E,0.02,136.06,270119,,,A*61
$GPVTG,136.06,T,,M,0.02,N,0.
03,K,A*3E
$PMTKLOG,
0,1,a,31,15,0,0,1,0,0*11
$PMTK001,183,3*3A
$PMTK869,2,1*36

$GPGGA,122043.000,5212.0852,N,00005.9605,E,1,07,1.23,0.2,M,47.0,M,,*68
$GPGSA,A,3,15,05,24,21,30,
13,28,,,,,,2.19,1.23,1.82*0C
$GPRMC,122043.000,A,5212.0852,N,00005.9605,E,0.03,27.19,270119,,,A*5
E
$GPVTG,27.19,T,,M,0.03,N,0.05,K,A*06

$PMTKLOG,0,1,a,31,15,0
,0,1,0,0*11
$PMTK001,183,3*3A
$PMTK869,2,1*36

$GPGGA,12204
4.000,5212.0852,N,00005.9605,E,1,07,1.23,0.2,M,47.0,M,,*6F
$GPGSA,A,3,15,05,24,21,30,13,28,,,,,,2.19,1.2
3,1.82*0C
$GPGSV,3,1,10,13,79,298,37,28,49,108,39,30,44,066,35,05,42,191,30*79
$GPGSV,3,2,10,15,42,290,
39,21,15,301,31,07,12,062,,24,09,243,18*7E
$GPGSV,3,3,10,27,02,001,,36,,,*4B
$GPRMC,122044.000,A,5212.0852,N,00005.9605,E,0.01,14.57,270119,,,A*51
$GPVTG,14.57,T,,M,0.01,N,0.02,K,A*09
$PMTKLOG,0,
1,a,31,15,0,0,1,0,0*11
$PMTK001,183,3*3A
$PMTK869,2,1*36

$GPGGA,122045.000,5212.0852,N,00005.9605,E,1,07,1.23,0.
2,M,47.0,M,,*6E
$GPGSA,A,3,15,05,24,21,30,13,28,,,,,,2.19,1.23,1.82*0C
$GPRMC,122045.000,A,5212.0852,N,
00005.9605,E,0.02,46.18,270119,,,A*5F
$GPVTG,46.18,T,,M,0.02,N,0.03,K,A*07

$PMTKLOG,0,1,a,31,15,0,0,1,0,0*11
$PMTK001,183,3*3
A
$PMTK869,2,1*36

$GPGGA,122046.000,5212.0852,N,00005.9605,E,1,07,1.23,0.2,M,47.0,M,,*6D

$GPGSA,A,3,15,05,24,21,30,13,28,,,,,,2.19,1.23,1.82*0C
$GPRMC,122046.000,A,5212.0852,N,00005.9
605,E,0.02,14.87,270119,,,A*5D
$GPVTG,14.87,T,,M,0.02,N,0.03,K,A*06

$PMTKLOG,0,1,a,31,15,0
,0,1,0,0*11
$PMTK001,183,3*3A
$PMTK869,2,1*36

$GPGGA,122047.000,5212.0852,N,00005.9605,E,1,07,1.23,0.2,M,47.
0,M,,*6C
$GPGSA,A,3,15,05,24,21,30,13,28,,,,,,2.19,1.23,1.82*0C
$GPRMC,122047.000,A,5212.0852,N,00005.9
605,E,0.02,39.26,270119,,,A*58
$GPVTG,39.26,T,,M,0.02,N,0.04,K,A*05
$PMTKLOG,0,1,a,31,15,0,0
,1,0,0*11
$PMTK001,183,3*3A
$PMTK869,2,1*36

$GPGGA,122048.000,5212.0852,
N,00005.9605,E,1,07,1.23,0.2,M,47.0,M,,*63
$GPGSA,A,3,15,05,24,21,30,13,28,,,,,,2.19,1.23,1.82*0C
$
GPRMC,122048.000,A,5212.0852,N,00005.9605,E,0.02,262.14,270119,,,A*6A
$GPVTG,262.14,T,,M,0.02,N,0.04
,K,A*38
$PMTKLOG,0,1,a,31,1
5,0,0,1,0,0*11
$PMTK001,183,3*3A
$PMTK869,2,1*36

$GPGGA,122049.000,5212.0852,N,00005.9605,E,1,07,1.23,0.2,M,47.0,M,,*62
$GPGSA,A,3,15,05,24,21,30,13,28,,,,
,,2.19,1.23,1.82*0C
$GPGSV,3,1,10,13,79,298,37,28,49,108,39,30,44,066,35,05,42,191,28*70
$GPGSV,3,2,10,
15,42,290,39,21,15,301,31,07,12,062,,24,09,243,20*75
$GPGSV,3,3,10,27,02,001,,38,,,*45
$GPRMC,122049.000,A,5212.0852,N,00005.9605,E,0.02,280.52,270119,,,A*65
$GPVTG,280.52,T,,M,0.02,N,0.04,K,A*36
$PMTKLOG,0,1,a,31,15,
0,0,1,0,0*11
$PMTK001,183,3*3A
$PMTK869,2,1*36

$GPGGA,122050.00
0,5212.0852,N,00005.9605,E,1,07,1.23,0.2,M,47.0,M,,*6A
$GPGSA,A,3,15,05,24,21,30,13,28,,,,,,2.19,1.23
,1.82*0C
$GPRMC,122050.000,A,5212.0852,N,00005.9605,E,0.01,91.15,270119,,,A*5F
$GPVTG,91.15,T,,M,0.01,N,0.
02,K,A*02
$PMTKLOG,0,1,a,31,15,0,0,1,0,0*11
$PMTK001,183,3*3A
$PMTK869
,2,1*36

$GPGGA,122051.000,5212
.0852,N,00005.9605,E,1,07,1.23,0.2,M,47.0,M,,*6B
$GPGSA,A,3,15,05,24,21,30,13,28,,,,,,2.19,1.23,1.82
*0C
$GPRMC,122051.000,A,5212.0852,N,00005.9605,E,0.02,333.54,270119,,,A*63
$GPVTG,333.54,T,,M,0.02,N,0.03,K
,A*3E
$PMTKLOG,0,1,a,3
1,15,0,0,1,0,0*11
$PMTK001,183,3*3A
$PMTK869,2,1*36

$GPGGA,122052.000,5212
.0852,N,00005.9605,E,1,07,1.23,0.2,M,47.0,M,,*68
$GPGSA,A,3,15,05,24,21,30,13,28,,,,,,2.19,1.23,1.82*0C

$GPRMC,122052.000,A,5212.0852,N,00005.9605,E,0.02,329.18,270119,,,A*63
$GPVTG,329.18,T,,M,0.02,N,0.
04,K,A*3A

$PMTKLOG,0,1,a,31
,15,0,0,1,0,0*11
$PMTK001,183,3*3A
$PMTK869,2,1*36

$GPGGA,122053.000,5212.0852,N,00005.9605,E,1,07,1.23,0.2,M,47.0,M,,*69
$GPGSA,A,3,15,05
,24,21,30,13,28,,,,,,2.19,1.23,1.82*0C
$GPRMC,122053.000,A,5212.0852,N,00005.9605,E,0.02,24.87,2
70119,,,A*5A
$GPVTG,24.87,T,,M,0.02,N,0.04,K,A*02
$PMTKLOG,0,1,a,31,1
5,0,0,1,0,0*11
$PMTK001,183,3*3A
$PMTK869,2,1*36

$GPGGA,122054.000,5212.0852,N,00005.9605,E,1,07,1.23,0.2,M,47.0,M,,*6E
$GPGSA,A,3,15,05,24,
21,30,13,28,,,,,,2.19,1.23,1.82*0C
$GPGSV,3,1,10,13,79,298,37,28,49,108,39,30,44,066,35,15,42,290,39*73

$GPGSV,3,2,10,05,41,191,31,21,15,301,30,07,12,062,,24,09,243,18*77
$GPGSV,3,3,10,27,02,001,,41,,,*4B
$GPRMC,122054.000,A,5212.0852,N,00005.9605,E,0.00,0.00,270119,,,A*66
$GPVTG,0.00,T,,M,0.00,N,0.00,K,A*3D
$PMTKLOG,0,
1,a,31,15,0,0,1,0,0*11
$PMTK001,183,3*3A
$PMTK869,2,1*36

$GPGGA,122055.000,5
212.0852,N,00005.9605,E,1,07,1.23,0.2,M,47.0,M,,*6F
$GPGSA,A,3,15,05,24,21,30,13,28,,,,,,2.20,1.23,1
.82*06
$GPRMC,122055.000,A,5212.0852,N,00005.9605,E,0.02,265.59,270119,,,A*68
$GPVTG,265.59,T,,M,0.02,N
,0.03,K,A*31
$PMTKLOG,0,1,a,31,15,0,0,1,0,0*11
$PMTK001,183,3*3A

$PMTK869,2,1*36

$GPGGA,122056.000,5212.0852,N,00005.9605,E,1,07,
1.23,0.2,M,47.0,M,,*6C
$GPGSA,A,3,15,05,24,21,30,13,28,,,,,,2.19,1.23,1.82*0C
$GPRMC,122056.000,A,5212.
0852,N,00005.9605,E,0.05,237.02,270119,,,A*65
$GPVTG,237.02,T,,M,0.05,N,0.10,K,A*3D

$PMTKLOG,0,1,a,31,15,0,0,1,0
,0*11
$PMTK001,183,3*3A
$PMTK869,2,1*36

$GPGGA,122057.000,5212.0852,N,00005.9605,E,1,07,1.23,0.2,M,47.0,M,,*6D
$GPGSA
,A,3,15,05,24,21,30,13,28,,,,,,2.19,1.23,1.82*0C
$GPRMC,122057.000,A,5212.0852,N,00005.9605,E,0.02,2
84.45,270119,,,A*68
$GPVTG,284.45,T,,M,0.02,N,0.03,K,A*33
$PMTKLOG,0,1,a,31,15,
0,0,1,0,0*11
$PMTK001,183,3*3A
$PMTK869,2,1*36

$GPGGA,122058.000,5212.0852,N,00005.960
5,E,1,07,1.23,0.2,M,47.0,M,,*62
$GPGSA,A,3,15,05,24,21,30,13,28,,,,,,2.19,1.23,1.82*0C
$GPRMC,122058.00
0,A,5212.0852,N,00005.9605,E,0.01,200.07,270119,,,A*6E
$GPVTG,200.07,T,,M,0.01,N,0.02,K,A*3B

$PMTKLOG,0,1,a,31,15,0,0,1
,0,0*11
$PMTK001,183,3*3A
$PMTK869,2,1*36

$GPGGA,122059.00
0,5212.0852,N,00005.9605,E,1,07,1.23,0.2,M,47.0,M,,*63
$GPGSA,A,3,15,05,24,21,30,13,28,,,,,,2.19,1.23,1.
82*0C
$GPGSV,3,1,10,13,79,298,36,28,49,108,39,30,44,066,37,15,42,290,39*70
$GPGSV,3,2,10,05,41,191,
28,21,15,301,30,07,12,063,,24,09,243,18*7E
$GPGSV,3,3,10,27,02,001,,43,,,*49
$GPRMC,122059.000,A,5212.0852,N,00005.9605,E,0.05,240.66,270119,,,A*68
$GPVTG,240.66,T,,M,0.05,N,0.09,K,A*37
$PMTKLOG,0,1,a,
31,15,0,0,1,0,0*11
$PMTK001,183,3*3A
$PMTK869,2,1*36

$GPGGA,122100.000,5212.0852,N,00
005.9605,E,1,07,1.23,0.2,M,47.0,M,,*6E
$GPGSA,A,3,15,05,24,21,30,13,28,,,,,,2.19,1.23,1.82*0C
$GPRM
C,122100.000,A,5212.0852,N,00005.9605,E,0.03,166.49,270119,,,A*69
$GPVTG,166.49,T,,M,0.03,N,0.06,K,A*34

$PMTKLOG,0,1,a,31,15,0,0,1,0,0*11
$PMTK001,183,3*3A

$PMTK869,2,1*36

$GPGGA,122101.000,5212.0852,N,00005.9604,E,1,07,1.23,0.2,M,47.0
,M,,*6E
$GPGSA,A,3,15,05,24,21,30,13,28,,,,,,2.19,1.23,1.82*0C
$GPRMC,122101.000,A,5212.0852,N,00005
.9604,E,0.02,167.80,270119,,,A*6C
$GPVTG,167.80,T,,M,0.02,N,0.04,K,A*33

$PMTKLOG,0,1,
a,31,15,0,0,1,0,0*11
$PMTK001,183,3*3A
$PMTK869,2,1*36

$GPGGA,122102.000,5212.0850,N,00005.9603,E,
1,07,1.23,0.2,M,47.0,M,,*68
$GPGSA,A,3,15,05,24,21,30,13,28,,,,,,2.19,1.23,1.82*0C
$GPRMC,122102.00
0,A,5212.0850,N,00005.9603,E,0.04,175.93,270119,,,A*6D
$GPVTG,175.93,T,,M,0.04,N,0.08,K,A*38

$PMTKLOG,0,1,
a,31,15,0,0,1,0,0*11
$PMTK001,183,3*3A
$PMTK869,2,1*36

$GPGGA,122103.000,5212.0850,N,00005.9602,E,1,06,1.36,0.2,M,47.0,
M,,*6D
$GPGSA,A,3,15,05,21,30,13,28,,,,,,,2.61,1.36,2.22*08
$GPRMC,122103.000,A,5212.0850,N,00005.9602,
E,0.03,209.54,270119,,,A*69
$GPVTG,209.54,T,,M,0.03,N,0.06,K,A*32

$PMTKLOG,0,1,a,31,15,0,0,1
,0,0*11
$PMTK001,183,3*3A
$PMTK869,2,1*36

$GPGGA,122104.0
00,5212.0849,N,00005.9602,E,1,07,1.23,0.2,M,47.0,M,,*67
$GPGSA,A,3,15,05,24,21,30,13,28,,,,,,2.19,1.23,1.82*
0C
$GPGSV,3,1,10,13,79,298,36,28,49,108,39,30,44,066,37,15,42,290,39*70
$GPGSV,3,2,10,05,41,191,27,
21,15,301,31,07,12,063,,24,09,243,15*7D
$GPGSV,3,3,10,27,02,001,,45,,,*4F
$GPRMC,122104.000,A,5212.0849,N,00005.9602,E,0.01,223.89,270119,,,A*6C
$GPVTG,223.89,T,,M,0.01,N,0.01,K,A*3F
$PMTKLOG,0,
1,a,31,15,0,0,1,0,0*11
$PMTK001,183,3*3A
$PMTK869,2,1*36

$GPGGA,122105.000,5212.0849
,N,00005.9602,E,1,06,1.36,0.2,M,47.0,M,,*63
$GPGSA,A,3,15,05,21,30,13,28,,,,,,,2.61,1.36,2.22*08
$GPRMC
,122105.000,A,5212.0849,N,00005.9602,E,0.01,238.20,270119,,,A*64
$GPVTG,238.20,T,,M,0.01,N,0.01,K,A*
36

$PMTKLOG,0,1,a,31,15,0,0,1,0,0*11
$PMTK001,183,3*3
A
$PMTK869,2,1*36

$GPGGA,122106.000,5212.0849
,N,00005.9602,E,1,06,1.36,0.2,M,47.0,M,,*60
$GPGSA,A,3,15,05,21,30,13,28,,,,,,,2.61,1.36,2.22*08
$GPRMC
,122106.000,A,5212.0849,N,00005.9602,E,0.01,23.51,270119,,,A*59
$GPVTG,23.51,T,,M,0.01,N,0.02,K,A*0B

$PMTKLOG,0,1,
a,31,15,0,0,1,0,0*11
$PMTK001,183,3*3A
$PMTK869,2,1*36

$GPGGA,122107.000,5212.0849,N,00005.9602,E,
1,06,1.36,0.2,M,47.0,M,,*61
$GPGSA,A,3,15,05,21,30,13,28,,,,,,,2.60,1.36,2.22*09
$GPRMC,122107.000,
A,5212.0849,N,00005.9602,E,0.03,262.09,270119,,,A*60
$GPVTG,262.09,T,,M,0.03,N,0.06,K,A*37

$PMTKLOG,0,1,a,31,15
,0,0,1,0,0*11
$PMTK001,183,3*3A
$PMTK869,2,1*36

$GPGGA,122108.00
0,5212.0849,N,00005.9602,E,1,07,1.23,0.2,M,47.0,M,,*6B
$GPGSA,A,3,15,05,24,21,30,13,28,,,,,,2.19,1.2
3,1.82*0C
$GPRMC,122108.000,A,5212.0849,N,00005.9602,E,0.01,20.53,270119,,,A*56
$GPVTG,20.53,T,,M,0
.01,N,0.02,K,A*0A
$PMTKLOG,0,1,
a,31,15,0,0,1,0,0*11
$PMTK001,183,3*3A
$PMTK869,2,1*36

$GPGGA,122109.000,5212.0849,N,00005.9602,E,1,07,1.23,0.
2,M,47.0,M,,*6A
$GPGSA,A,3,15,05,24,21,30,13,28,,,,,,2.19,1.23,1.82*0C
$GPGSV,3,1,10,13,79,298,36,28,49,108
,39,30,44,066,38,15,42,290,39*7F
$GPGSV,3,2,10,05,41,191,30,21,15,301,31,07,12,063,,24,09,243,16
*78
$GPGSV,3,3,10,27,02,001,,45,,,*4F
$GPRMC,122109.000,A,5212.0849,N,00005.9602,E,0.04,33.02,270119,,,A*54
$GPVTG,33.02,T,,M,0.04,N,0
.07,K,A*0C
$PMTKLOG,0,1,a,31,15,0,0,1,0,0*11
$PMTK001,183,3*3A
$PMTK869,2,1*36

$GPGGA,122110.000,5212.0849,N,00005.
9602,E,1,07,1.23,0.3,M,47.0,M,,*63
$GPGSA,A,3,15,05,24,21,30,13,28,,,,,,2.19,1.23,1.82*0C
$GPRMC,122110
.000,A,5212.0849,N,00005.9602,E,0.01,41.29,270119,,,A*55
$GPVTG,41.29,T,,M,0.01,N,0.02,K,A*00

$PMTKLOG,0,1,a,31,15,0,0,1,0,0*11
$PMTK001,183,3*3A

$PMTK869,2,1*36

$GPGGA,122111.000,5212.0849,N,00005.9602,E,1,0
7,1.23,0.3,M,47.0,M,,*62
$GPGSA,A,3,15,05,24,21,30,13,28,,,,,,2.19,1.23,1.82*0C
$GPRMC,122111.000,A,521
2.0849,N,00005.9602,E,0.03,311.18,270119,,,A*62
$GPVTG,311.18,T,,M,0.03,N,0.05,K,A*31

$PMTKLOG,0,1,a,3
1,15,0,0,1,0,0*11
$PMTK001,183,3*3A
$PMTK869,2,1*36

$GPGGA,122112.000,5212.0849,N,00005.9602,E,1,07,1.23,0.3,M,47.0,M,,*61
$GPGSA,A,3,15,05,2
4,21,30,13,28,,,,,,2.19,1.23,1.82*0C
$GPRMC,122112.000,A,5212.0849,N,00005.9602,E,0.04,358.25,270119,,,A
*65
$GPVTG,358.25,T,,M,0.04,N,0.07,K,A*37
$PMTKLOG,0,1,a,31,15
,0,0,1,0,0*11
$PMTK001,183,3*3A
$PMTK869,2,1*36

$GPGGA,122113.000,5212
.0850,N,00005.9602,E,1,07,1.23,0.3,M,47.0,M,,*68
$GPGSA,A,3,15,05,24,21,30,13,28,,,,,,2.19,1.23,1.82*0C

$GPRMC,122113.000,A,5212.0850,N,00005.9602,E,0.01,300.95,270119,,,A*6F
$GPVTG,300.95,T,,M,0.01,N,0.01,K
,A*32
$PMTKLOG,0,1,a,31,15,0,0,
1,0,0*11
$PMTK001,183,3*3A
$PMTK869,2,1*36

$GPGGA,122114
.000,5212.0850,N,00005.9602,E,1,07,1.23,0.3,M,47.0,M,,*6F
$GPGSA,A,3,15,05,24,21,30,13,28,,,,,,2.19,1.23
,1.82*0C
$GPGSV,3,1,11,13,79,298,36,28,49,108,39,30,44,066,38,15,42,290,39*7E
$GPGSV,3,2,11,05,41,191,3
0,21,15,301,31,07,12,063,,24,10,243,16*71
$GPGSV,3,3,11,08,09,029,,27,02,001,,46,,,*77
$GPRMC,122114.000,A,5212.0850,N,00005.9602,E,0.01,73.35,270119,,,A*55
$GPVTG,73.35,T,,M,0.01,N,0.02,K,A*0C
$PMTKLOG,0,1
,a,31,15,0,0,1,0,0*11
$PMTK001,183,3*3A
$PMTK869,2,1*36

$GPGGA,122115.000,5212.0850,N,00005.9602,E,1,07,1.23,0.3,M,47.0,M,,*6E
$GPGSA
,A,3,15,05,24,21,30,13,28,,,,,,2.19,1.23,1.82*0C
$GPRMC,122115.000,A,5212.0850,N,00005.9602,E,0.02,38
.76,270119,,,A*5F
$GPVTG,38.76,T,,M,0.02,N,0.03,K,A*06

$PMTKLOG,0,1,a,31,15,0,0,1,0,0*11
$PMTK001,18
3,3*3A
$PMTK869,2,1*36

$GPGGA,122116.000,5
212.0850,N,00005.9602,E,1,07,1.23,0.3,M,47.0,M,,*6D
$GPGSA,A,3,15,05,24,21,30,13,28,,,,,,2.19,1.23,1
.82*0C
$GPRMC,122116.000,A,5212.0850,N,00005.9602,E,0.03,66.66,270119,,,A*57
$GPVTG,66.66,T,,M,0.03,N,0
.05,K,A*0B
$PMTKLOG,0,1,a,31,15,0,
0,1,0,0*11
$PMTK001,183,3*3A
$PMTK869,2,1*36

$GPGGA,122117.000,5212.
0850,N,00005.9602,E,1,06,1.36,0.3,M,47.0,M,,*69
$GPGSA,A,3,15,05,21,30,13,28,,,,,,,2.60,1.36,2.22*09
$G
PRMC,122117.000,A,5212.0850,N,00005.9602,E,0.01,258.83,270119,,,A*60
$GPVTG,258.83,T,,M,0.01,N,0.02,
K,A*3A
$PMTKLOG,0,1,a,31,15,0
,0,1,0,0*11
$PMTK001,183,3*3A
$PMTK869,2,1*36

$GPGGA,122118.000,5212.0850,N,00005.9602,E,1,07,1.23,0.3,M,47.0,M,,*63
$GPGSA,A,3,15,
05,24,21,30,13,28,,,,,,2.19,1.23,1.82*0C
$GPRMC,122118.000,A,5212.0850,N,00005.9602,E,0.03,166.64,270119
,,,A*6A
$GPVTG,166.64,T,,M,0.03,N,0.05,K,A*38
$PMTKLOG,0,1,a,3
1,15,0,0,1,0,0*11
$PMTK001,183,3*3A
$PMTK869,2,1*36

$GPGGA,122119.000,5212.085
0,N,00005.9602,E,1,07,1.23,0.3,M,47.0,M,,*62
$GPGSA,A,3,15,05,24,21,30,13,28,,,,,,2.19,1.23,1.82*0C
$G
PGSV,3,1,11,13,79,298,35,28,49,108,39,30,43,066,36,15,42,290,39*74
$GPGSV,3,2,11,05,41,191,29,21,15,301,3
1,07,12,063,,24,10,243,16*79
$GPGSV,3,3,11,08,09,029,,27,02,001,,47,,,*76
$GPRMC,122119.000,A,5212.0850,N,00005.9602,E,0.04,81.82,270119,,,A*5C
$GPVTG,81.82,T,,M,0.04,N,0.07,K,A*0D
$PMTKLOG,0
,1,a,31,15,0,0,1,0,0*11
$PMTK001,183,3*3A
$PMTK869,2,1*36

$GPGGA,122
120.000,5212.0850,N,00005.9602,E,1,06,1.36,0.3,M,47.0,M,,*6D
$GPGSA,A,3,15,05,21,30,13,28,,,,,,,2.60,
1.36,2.22*09
$GPRMC,122120.000,A,5212.0850,N,00005.9602,E,0.01,197.14,270119,,,A*6A
$GPVTG,197.14,T,,M
,0.01,N,0.01,K,A*37

$PMTKLOG,0,1,a,31,15,0,0,1,0,0*11
$PMTK001,183,3*3A
$P
MTK869,2,1*36

$GP
GGA,122121.000,5212.0850,N,00005.9602,E,1,07,1.23,0.3,M,47.0,M,,*69
$GPGSA,A,3,15,05,24,21,30,13,28,,
,,,,2.19,1.23,1.82*0C
$GPRMC,122121.000,A,5212.0850,N,00005.9602,E,0.00,204.88,270119,,,A*66
$GPVTG
,204.88,T,,M,0.00,N,0.00,K,A*3B

$PMTKLOG,0,1,a,31,
15,0,0,1,0,0*11
$PMTK001,183,3*3A
$PMTK869,2,1*36

$GPGGA,122122.000,5212.0850,N,000
05.9602,E,1,07,1.23,0.3,M,47.0,M,,*6A
$GPGSA,A,3,15,05,24,21,30,13,28,,,,,,2.19,1.23,1.82*0C
$GPRMC,122
122.000,A,5212.0850,N,00005.9602,E,0.02,60.82,270119,,,A*5D
$GPVTG,60.82,T,,M,0.02,N,0.04,K,A*07

$PMTKLOG,0,1,a,31,15,
0,0,1,0,0*11
$PMTK001,183,3*3A
$PMTK869,2,1*36

$GPGGA,122123.000,5212.0850,N,00005.
9602,E,1,07,1.23,0.3,M,47.0,M,,*6B
$GPGSA,A,3,15,05,24,21,30,13,28,,,,,,2.19,1.23,1.82*0C
$GPRMC,122
123.000,A,5212.0850,N,00005.9602,E,0.03,16.47,270119,,,A*55
$GPVTG,16.47,T,,M,0.03,N,0.05,K,A*0F

$PMTKLOG,0,1,a,3
1,15,0,0,1,0,0*11
$PMTK001,183,3*3A
$PMTK869,2,1*36

$GPGGA,122124.000,5212.0850,N,00005.9602,E,1,07,1.23,0.3,M,47.0,M,,*6
C
$GPGSA,A,3,15,05,24,21,30,13,28,,,,,,2.19,1.23,1.82*0C
$GPGSV,3,1,11,13,79,298,35,28,49,108,38,30,43,
066,34,15,42,290,39*77
$GPGSV,3,2,11,05,41,191,31,21,15,301,31,07,12,063,,24,10,243,16*70
$GPGSV,3,3,11
,08,09,029,,27,02,001,,49,,,*78
$GPRMC,122124.000,A,5212.0850,N,00005.9602,E,0.02,296.94,270119,,,A*67
$GPVTG,296.94,T,,M,0.02,N,0.03,K
,A*3C
$PMTKLOG,0,1,a,31,15,0,0,1,0,0*11
$PMTK001,183,3*3A
$PMTK869,2,1*36

$GPGGA,122125.00
0,5212.0850,N,00005.9602,E,1,07,1.23,0.3,M,47.0,M,,*6D
$GPGSA,A,3,15,05,24,21,30,13,28,,,,,,2.19,1.23
,1.82*0C
$GPRMC,122125.000,A,5212.0850,N,00005.9602,E,0.01,359.24,270119,,,A*6C
$GPVTG,359.24,T,,M,
0.01,N,0.03,K,A*36
$PMTKLOG,0,1,a,31,15,0,0,1,0,0*11
$PMTK001,183,3*3A
$PMTK869,2,1*36

$GPGGA,122126.000,5212.0850,N,00005.9602,E,1,07,1.23,0.3,M,47.0,M,,*6E
$
GPGSA,A,3,15,05,24,21,30,13,28,,,,,,2.19,1.23,1.82*0C
$GPRMC,122126.000,A,5212.0850,N,00005.9602,E,0.01,
266.25,270119,,,A*63
$GPVTG,266.25,T,,M,0.01,N,0.03,K,A*3A

$PMTKLOG,0,1,a,31,1
5,0,0,1,0,0*11
$PMTK001,183,3*3A
$PMTK869,2,1*36

$
GPGGA,122127.000,5212.0850,N,00005.9602,E,1,07,1.23,0.3,M,47.0,M,,*6F
$GPGSA,A,3,15,05,24,21,30,13,28,,,
,,,2.19,1.23,1.82*0C
$GPRMC,122127.000,A,5212.0850,N,00005.9602,E,0.01,101.25,270119,,,A*60
$GPVTG,101.
25,T,,M,0.01,N,0.02,K,A*39
$PMTKLO
G,0,1,a,31,15,0,0,1,0,0*11
$PMTK001,183,3*3A
$PMTK869,2,1*36

$GPGGA,122128.000,5
212.0850,N,00005.9602,E,1,07,1.23,0.4,M,47.0,M,,*67
$GPGSA,A,3,15,05,24,21,30,13,28,,,,,,2.19,1.23,1.
82*0C
$GPRMC,122128.000,A,5212.0850,N,00005.9602,E,0.01,139.55,270119,,,A*63
$GPVTG,139.55,T,,M,0.0
1,N,0.02,K,A*35

$PMTKLOG,0,1
,a,31,15,0,0,1,0,0*11
$PMTK001,183,3*3A
$PMTK869,2,1*36

$GPGGA,122129.000,5212.0851,N,00005.9602,E
,1,07,1.23,0.5,M,47.0,M,,*66
$GPGSA,A,3,15,05,24,21,30,13,28,,,,,,2.19,1.23,1.82*0C
$GPGSV,3,1,11,13,79
,298,35,28,49,108,38,30,43,066,37,15,42,290,39*74
$GPGSV,3,2,11,05,41,190,30,21,15,301,31,07,12,063,,24,
10,243,18*7E
$GPGSV,3,3,11,08,09,029,,27,02,001,,49,,,33*78
$GPRMC,122129.000,A,5212.0851,N,00005.9602,E,0.01,358.14,270119,,,A*63
$GPVTG,358.14,T,,M,0.01,N,0.02,K,A*35
$PMTKLOG,0,1,a,31,15,0,0
,1,0,0*11
$PMTK001,183,3*3A
$PMTK869,2,1*36

$GPGGA,122130.000,5212.0852,N,00005.9604,E,1,07,1.23,0.5,M,47.0,M,,*6B
$GPGSA,A,3,15,
05,24,21,30,13,28,,,,,,2.19,1.23,1.82*0C
$GPRMC,122130.000,A,5212.0852,N,00005.9604,E,0.05,65.91,270119,,,A*
5A
$GPVTG,65.91,T,,M,0.05,N,0.09,K,A*0A
$PMTKLOG,0,1,a,31,15,0,0,1,0,0*11
$PMTK001,183,3*3
A
$PMTK869,2,1*36

$GPGGA,122131.000,5212.0852,N,00005.9605,E,1,07,1.23,0.6,M,47.0,M,,*68

$GPGSA,A,3,15,05,24,21,30,13,28,,,,,,2.19,1.23,1.82*0C
$GPRMC,122131.000,A,5212.0852,N,00005.9605,E,0.0
3,77.24,270119,,,A*51
$GPVTG,77.24,T,,M,0.03,N,0.05,K,A*0D

$PMTKLOG,0,1,a,31,
15,0,0,1,0,0*11
$PMTK001,183,3*3A
$PMTK869,2,1*36

$GPGGA,122132.000,5212.0852,N,00005.9605,E,1,07,1.2
3,0.6,M,47.0,M,,*6B
$GPGSA,A,3,15,05,24,21,30,13,28,,,,,,2.19,1.23,1.82*0C
$GPRMC,122132.000,A,
5212.0852,N,00005.9605,E,0.05,17.49,270119,,,A*59
$GPVTG,17.49,T,,M,0.05,N,0.09,K,A*0A

$PMTKLOG,0,1,a,31,15,0,
0,1,0,0*11
$PMTK001,183,3*3A
$PMTK869,2,1*36

$GPGGA,122133.000,5212.0852,N,00005.9605,E,1,07,1.23,0.6,M,47.0,M,,*6A
$GPGSA,A,3,1
5,05,24,21,30,13,28,,,,,,2.19,1.23,1.82*0C
$GPRMC,122133.000,A,5212.0852,N,00005.9605,E,0.02,68.96,270119,,,
A*55
$GPVTG,68.96,T,,M,0.02,N,0.03,K,A*0D
$PMTKLOG,0,1,a,31,1
5,0,0,1,0,0*11
$PMTK001,183,3*3A
$PMTK869,2,1*36

$GPGGA,122134.000,5212.0852,
N,00005.9605,E,1,07,1.23,0.6,M,47.0,M,,*6D
$GPGSA,A,3,15,05,24,21,30,13,28,,,,,,2.19,1.23,1.82*0C
$GPGSV,3,
1,11,13,79,298,35,28,49,108,38,30,43,066,37,15,42,290,39*74
$GPGSV,3,2,11,05,41,190,29,21,15,301,
32,07,11,063,,24,10,243,18*76
$GPGSV,3,3,11,08,09,029,,27,02,001,,49,,,32*79
$GPRMC,122134.000,A,5212.0852,N,00005.9605,E,0.03,178.58,270119,,,A*61
$GPVTG,178.58,T,,M,0.03,N,0.05,K,A*38
$PMTKLO
G,0,1,a,31,15,0,0,1,0,0*11
$PMTK001,183,3*3A
$PMTK869,2,1*36

$GPGGA,122135
.000,5212.0852,N,00005.9604,E,1,07,1.23,0.7,M,47.0,M,,*6C
$GPGSA,A,3,15,05,24,21,30,13,28,,,,,,2.19,1.23
,1.82*0C
$GPRMC,122135.000,A,5212.0852,N,00005.9604,E,0.01,185.58,270119,,,A*61
$GPVTG,185.58,T,,M,0
.01,N,0.02,K,A*3F

$PMTKLOG,0,1,a,31,15,0,0,1,0,0*11
$PMTK001,183,3*3A
$PMTK869,2,1
*36

$GPGGA,122136.000,5212.
0852,N,00005.9604,E,1,07,1.23,0.7,M,47.0,M,,*6F
$GPGSA,A,3,15,05,24,21,30,13,28,,,,,,2.19,1.23,1.82*0C

$GPRMC,122136.000,A,5212.0852,N,00005.9604,E,0.00,218.34,270119,,,A*6E
$GPVTG,218.34,T,,M,0.00,N,0.0
1,K,A*30
$PMTKLOG
,0,1,a,31,15,0,0,1,0,0*11
$PMTK001,183,3*3A
$PMTK869,2,1*36

$GPGGA,122137.000,5212.0
852,N,00005.9604,E,1,07,1.23,0.8,M,47.0,M,,*61
$GPGSA,A,3,15,05,24,21,30,13,28,,,,,,2.19,1.23,1.
82*0C
$GPRMC,122137.000,A,5212.0852,N,00005.9604,E,0.01,351.52,270119,,,A*62
$GPVTG,351.52,T,,M,0.01,N,0.02
,K,A*3E

$PMTKLOG
,0,1,a,31,15,0,0,1,0,0*11
$PMTK001,183,3*3A
$PMTK869,2,1*36

$GPGGA,122138.000,5212.0852,N,00005.
9603,E,1,07,1.23,0.8,M,47.0,M,,*69
$GPGSA,A,3,15,05,24,21,30,13,28,,,,,,2.19,1.23,1.82*0C
$GPRMC,122
138.000,A,5212.0852,N,00005.9603,E,0.00,315.13,270119,,,A*6E
$GPVTG,315.13,T,,M,0.00,N,0.01,K,A*39

$PMTKLOG,0,1,a,31,15,0,0,1,
0,0*11
$PMTK001,183,3*3A
$PMTK869,2,1*36

$GPGGA,122139.
000,5212.0852,N,00005.9603,E,1,07,1.23,0.9,M,47.0,M,,*69
$GPGSA,A,3,15,05,24,21,30,13,28,,,,,,2.19,1
.23,1.82*0C
$GPGSV,3,1,11,13,80,298,35,28,49,108,38,30,43,066,36,15,42,290,39*73
$GPGSV,3,2,11,05,4
1,190,29,21,15,301,32,07,11,063,,24,10,243,20*7D
$GPGSV,3,3,11,08,09,029,,27,02,001,,49,,,33*78
$GPRMC,122139.000,A,5212.0852,N,00005.9603,E,0.02,286.53,270119,,,A*62
$GPVTG,286.53,T,,M,0.02,N,0.03,K,A*36
$PMTKLOG,0,1
,a,31,15,0,0,1,0,0*11
$PMTK001,183,3*3A
$PMTK869,2,1*36

$G
PGGA,122140.000,5212.0852,N,00005.9603,E,1,07,1.23,0.7,M,47.0,M,,*69
$GPGSA,A,3,15,05,24,21,30,13,28
,,,,,,2.19,1.23,1.82*0C
$GPRMC,122140.000,A,5212.0852,N,00005.9603,E,0.01,16.41,270119,,,A*57
$GPVTG,16.41,
T,,M,0.01,N,0.02,K,A*0C
$PMTKLOG,0,1,a,31,15,0,0,1,0,0*11
$PMTK001,183,3*3A
$
PMTK869,2,1*36

$GPGGA,122141.000,5212.0853,N,00005.9602,E,1,07,1.23,1.1,M,47.0,M,,*6F
$GPGSA,A,3
,15,05,24,21,30,13,28,,,,,,2.19,1.23,1.82*0C
$GPRMC,122141.000,A,5212.0853,N,00005.9602,E,0.01,240.3
6,270119,,,A*67
$GPVTG,240.36,T,,M,0.01,N,0.02,K,A*3D

$PMTKLOG,0,1,a,31,15,0,0,
1,0,0*11
$PMTK001,183,3*3A
$PMTK869,2,1*36

$GPGGA,122142.000,5212.0853,N,00005.9603,E,1,07,1.23,1.0,M,
47.0,M,,*6C
$GPGSA,A,3,15,05,24,21,30,13,28,,,,,,2.19,1.23,1.82*0C
$GPRMC,122142.000,A,5212.0853,N,0000
5.9603,E,0.04,26.79,270119,,,A*59
$GPVTG,26.79,T,,M,0.04,N,0.07,K,A*04

$PMTKLOG,0,1,a,31,15,0,0,1
,0,0*11
$PMTK001,183,3*3A
$PMTK869,2,1*36

$GPGGA,122143.000,5212.0853,N,00005.9602,E,1,07,
1.23,1.1,M,47.0,M,,*6D
$GPGSA,A,3,15,05,24,21,30,13,28,,,,,,2.19,1.23,1.82*0C
$GPRMC,122143.000,
A,5212.0853,N,00005.9602,E,0.05,207.22,270119,,,A*67
$GPVTG,207.22,T,,M,0.05,N,0.09,K,A*34

$PMTKLOG,0,1,a,31,1
5,0,0,1,0,0*11
$PMTK001,183,3*3A
$PMTK869,2,1*36

$GPGGA,122144.000,5212.0853,N,00005.9602,E
,1,07,1.23,1.2,M,47.0,M,,*69
$GPGSA,A,3,15,05,24,21,30,13,28,,,,,,2.19,1.23,1.82*0C
$GPGSV,3,1,11,13,80
,298,35,28,49,108,38,30,43,066,36,15,43,290,39*72
$GPGSV,3,2,11,05,41,190,28,21,15,301,32,07,11,063,
,24,10,243,20*7C
$GPGSV,3,3,11,08,09,029,27,27,02,001,,49,,,33*7D
$GPRMC,122144.000,A,5212.0853,N,00005.9602,E,0.03,16.13,270119,,,A*56
$GPVTG,16.13,T,,M,0.03,N,0.06,K,A*0D
$PMTKLOG,
0,1,a,31,15,0,0,1,0,0*11
$PMTK001,183,3*3A
$PMTK869,2,1*36

$G
PGGA,122145.000,5212.0854,N,00005.9602,E,1,07,1.23,1.4,M,47.0,M,,*69
$GPGSA,A,3,15,05,24,21,30,1
3,28,,,,,,2.19,1.23,1.82*0C
$GPRMC,122145.000,A,5212.0854,N,00005.9602,E,0.01,355.75,270119,,,A*66
$GPV
TG,355.75,T,,M,0.01,N,0.02,K,A*3F

$PMTKLOG,0,1,a,31,15,0,0,1,0,0*11
$PMTK001,183
,3*3A
$PMTK869,2,1*36

$GPGGA,122146.000,5212.0853,N,00005.9602,E,1,07,1.23,1.4,M,47.0,M,,*6D
$GPGSA,A,3,15,0
5,24,21,30,13,28,,,,,,2.19,1.23,1.82*0C
$GPRMC,122146.000,A,5212.0853,N,00005.9602,E,0.00,97.17,270119,,
,A*5A
$GPVTG,97.17,T,,M,0.00,N,0.01,K,A*04

$PMTKLOG
,0,1,a,31,15,0,0,1,0,0*11
$PMTK001,183,3*3A
$PMTK869,2,1*36

$GPGGA,122147.000,5212.0854,N,00005.96
02,E,1,07,1.23,1.5,M,47.0,M,,*6A
$GPGSA,A,3,15,05,24,21,30,13,28,,,,,,2.19,1.23,1.82*0C
$GPRMC,12214
7.000,A,5212.0854,N,00005.9602,E,0.00,41.96,270119,,,A*5E
$GPVTG,41.96,T,,M,0.00,N,0.00,K,A*07

$PMTKLOG,0,
1,a,31,15,0,0,1,0,0*11
$PMTK001,183,3*3A
$PMTK869,2,1*36

$GPGGA,122148.000,5212.0853,N,00005.9602,E,1,07,1.23,1.6,M,47.0,M,,*61
$GPGSA,A,3,15,05,24,21,30,13,
28,,,,,,2.19,1.23,1.82*0C
$GPRMC,122148.000,A,5212.0853,N,00005.9602,E,0.03,196.54,270119,,,A*60
$GPVTG
,196.54,T,,M,0.03,N,0.05,K,A*34

$PMTKLOG,0,1,a,31,1
5,0,0,1,0,0*11
$PMTK001,183,3*3A
$PMTK869,2,1*36

$GPGGA,122149.000,5212.0
854,N,00005.9602,E,1,07,1.22,1.7,M,47.0,M,,*67
$GPGSA,A,3,15,05,24,21,30,13,28,,,,,,2.19,1.22,1.82*0D
$
GPGSV,3,1,11,13,80,298,35,28,49,108,38,30,43,066,36,15,43,290,39*72
$GPGSV,3,2,11,05,41,190,28,21,14,301
,32,07,11,063,,24,10,243,20*7D
$GPGSV,3,3,11,08,09,029,26,27,02,001,,49,,,33*7C
$GPRMC,122149.000,A,5212.0854,N,00005.9602,E,0.02,39.18,270119,,,A*5B
$GPVTG,39.18,T,,M,0.02,N,0.04,K,A*08
$PMTKL
OG,0,1,a,31,15,0,0,1,0,0*11
$PMTK001,183,3*3A
$PMTK869,2,1*36

$GPGGA,122150.000,5212.0854,N,00005.9601,E,1,07,1.2
3,1.9,M,47.0,M,,*63
$GPGSA,A,3,15,05,24,21,30,13,28,,,,,,2.19,1.23,1.82*0C
$GPRMC,122150.000,A,5
212.0854,N,00005.9601,E,0.01,206.61,270119,,,A*63
$GPVTG,206.61,T,,M,0.01,N,0.03,K,A*3C

$PMTKLOG,0,1,a,31,15,0,0,1,0,0*11
$PMTK001,18
3,3*3A
$PMTK869,2,1*36

$GPGGA,122151.000,5212.0854,N,00005.96
01,E,1,07,1.22,1.9,M,47.0,M,,*63
$GPGSA,A,3,15,05,24,21,30,13,28,,,,,,2.19,1.22,1.82*0D
$GPRMC,122151.0
00,A,5212.0854,N,00005.9601,E,0.01,249.46,270119,,,A*6C
$GPVTG,249.46,T,,M,0.01,N,0.03,K,A*32

$PMTKLOG,0,1,a,31,1
5,0,0,1,0,0*11
$PMTK001,183,3*3A
$PMTK869,2,1*36

$GPGGA,122152.000,5212.0854,N,00005.96
01,E,1,07,1.22,2.0,M,47.0,M,,*6A
$GPGSA,A,3,15,05,24,21,30,13,28,,,,,,2.19,1.22,1.82*0D
$GPRMC,1221
52.000,A,5212.0854,N,00005.9601,E,0.01,63.69,270119,,,A*58
$GPVTG,63.69,T,,M,0.01,N,0.02,K,A*04

$PMTKLOG
,0,1,a,31,15,0,0,1,0,0*11
$PMTK001,183,3*3A
$PMTK869,2,1*36

$GPGGA,122153.000,5212.0854,N,00005.
9601,E,1,07,1.23,2.0,M,47.0,M,,*6A
$GPGSA,A,3,15,05,24,21,30,13,28,,,,,,2.20,1.23,1.82*06
$GPRM
C,122153.000,A,5212.0854,N,00005.9601,E,0.01,327.73,270119,,,A*61
$GPVTG,327.73,T,,M,0.01,N,0.01,K,A*3F

$PMTKLOG,0,
1,a,31,15,0,0,1,0,0*11
$PMTK001,183,3*3A
$PMTK869,2,1*36

$GPGGA,122154.000,5212.0854,N,00005.9601,E,1,07,1.23,2.2,M,47.0,M,,*6F
$GPGSA,A,3,15,
05,24,21,30,13,28,,,,,,2.19,1.23,1.82*0C
$GPGSV,3,1,11,13,80,298,35,28,49,107,38,30,43,066,36,15,43,290,39*
7D
$GPGSV,3,2,11,05,41,190,27,21,14,301,32,07,11,063,,24,10,243,21*73
$GPGSV,3,3,11,08,09,029,26,27,
02,001,,49,,,33*7C
$GPRMC,122154.000,A,5212.0854,N,00005.9601,E,0.01,19.27,270119,,,A*59
$GPVTG,19.27,T,,M,0.01,N,0.02,K,A*03

$PMTKLOG,0,1,a,31,15,0,0,1,0,0*11
$PMTK001,183,3*3A
$PMTK869,2,1*36

$GPGGA,122155.000,5212.0855,N,00005.9601
,E,1,07,1.23,2.2,M,47.0,M,,*6F
$GPGSA,A,3,15,05,24,21,30,13,28,,,,,,2.19,1.23,1.82*0C
$GPRMC,122155
.000,A,5212.0855,N,00005.9601,E,0.01,170.68,270119,,,A*6C
$GPVTG,170.68,T,,M,0.01,N,0.01,K,A*35

$PMTKLOG,0,1,a,31,15,0,0,1,0,0*11
$PMTK001,183,3*3A
$PMTK869,2,1*
36

$GPGGA,122156.000,5212.0854,N,00005.9601,E,1,07,1.22,2.2,M,47.0,M,,*6C
$GPGSA,A,3,15,05,24,21,30,1
3,28,,,,,,2.19,1.22,1.82*0D
$GPRMC,122156.000,A,5212.0854,N,00005.9601,E,0.00,0.00,270119,,,A*67
$GPVTG
,0.00,T,,M,0.00,N,0.00,K,A*3D

$PMTKLOG,0,1,a,31,15,0,0,
1,0,0*11
$PMTK001,183,3*3A
$PMTK869,2,1*36

$GPG
GA,122157.000,5212.0854,N,00005.9602,E,1,07,1.22,2.4,M,47.0,M,,*68
$GPGSA,A,3,15,05,24,21,30,13,28,,,,,,2
.19,1.22,1.82*0D
$GPRMC,122157.000,A,5212.0854,N,00005.9602,E,0.01,19.12,270119,,,A*5F
$GPVTG,19.12,T,
,M,0.01,N,0.02,K,A*05
$PMTKLOG,0,1,a,31,15,0,
0,1,0,0*11
$PMTK001,183,3*3A
$PMTK869,2,1*36

$GPGGA,122158.000,5212.0854,N,00005.9602,E,1,0
7,1.22,2.5,M,47.0,M,,*66
$GPGSA,A,3,15,05,24,21,30,13,28,,,,,,2.19,1.22,1.82*0D
$GPRMC,122158.000,A
,5212.0854,N,00005.9602,E,0.01,230.79,270119,,,A*64
$GPVTG,230.79,T,,M,0.01,N,0.02,K,A*31

$PMTKLOG,
0,1,a,31,15,0,0,1,0,0*11
$PMTK001,183,3*3A
$PMTK869,2,1*36

$GPGGA,122159.000,5212.0855,N,00005.
9602,E,1,07,1.23,2.6,M,47.0,M,,*64
$GPGSA,A,3,15,05,24,21,30,13,28,,,,,,2.19,1.23,1.82*0C
$GPGSV,3,
1,11,13,80,298,35,28,49,107,38,30,43,066,36,15,43,290,39*7D
$GPGSV,3,2,11,05,41,190,28,21,14,301,33,07,1
1,063,,24,10,243,21*7D
$GPGSV,3,3,11,08,09,029,20,27,02,001,,49,,,33*7A
$GPRMC,122159.000,A,5212.08
55,N,00005.9602,E,0.01,137.76,270119,,,A*6F
$GPVTG,137.76,T,,M,0.01,N,0.02,K,A*3A
$PMTKLOG,0,1,a,31,1
5,0,0,1,0,0*11
$PMTK001,183,3*3A
$PMTK869,2,1*36

$GPGGA,122200.000,5212.0854,N,00005.9602,E,1,07,1.22,2.6,M,47.0,M,,*6B
$GPGSA,A,3,15,05,24,2
1,30,13,28,,,,,,2.19,1.22,1.82*0D
$GPRMC,122200.000,A,5212.0854,N,00005.9602,E,0.02,226.86,270119,,,A*6E

$GPVTG,226.86,T,,M,0.02,N,0.03,K,A*34
$PMTKLOG,0,1,a,31,15,0,0,1,0,0*11
$PMTK001,183,3*3A

$PMTK869,2,1*36

$GPGGA,122201.000,5212.0854,N,00005.9603,
E,1,07,1.22,2.7,M,47.0,M,,*6A
$GPGSA,A,3,15,05,24,21,30,13,28,,,,,,2.19,1.22,1.82*0D
$GPRMC,122201.000,
A,5212.0854,N,00005.9603,E,0.00,194.62,270119,,,A*6C
$GPVTG,194.62,T,,M,0.00,N,0.01,K,A*34

$PMTKLOG,0,1,a,31,15,
0,0,1,0,0*11
$PMTK001,183,3*3A
$PMTK869,2,1*36

$GPGGA,122202.000,5212.0854,N,00005.9603,E,1
,07,1.22,2.8,M,47.0,M,,*66
$GPGSA,A,3,15,05,24,21,30,13,28,,,,,,2.19,1.22,1.82*0D
$GPRMC,122202.000,
A,5212.0854,N,00005.9603,E,0.01,3.71,270119,,,A*63
$GPVTG,3.71,T,,M,0.01,N,0.01,K,A*38

$PMTKLOG,0,1,a,31,15,0,0
,1,0,0*11
$PMTK001,183,3*3A
$PMTK869,2,1*36

$GPGGA,122203.000,5212.0854,N,00005.9603,E,1,07,1.22,2.8,M,47.
0,M,,*67
$GPGSA,A,3,15,05,24,21,30,13,28,,,,,,2.19,1.22,1.82*0D
$GPRMC,122203.000,A,5212.0854,N,00005.9603,
E,0.01,15.83,270119,,,A*58
$GPVTG,15.83,T,,M,0.01,N,0.01,K,A*02

$PMTKLOG,0,1,a,31,15,0,
0,1,0,0*11
$PMTK001,183,3*3A
$PMTK869,2,1*36

$GPGGA,122204.000,5212.0854,N,00005.9603,E,1,07,1.22,2.9,M,47.0
,M,,*61
$GPGSA,A,3,15,05,24,21,30,13,28,,,,,,2.19,1.22,1.82*0D
$GPGSV,3,1,11,13,80,298,36,28,49,107
,38,30,43,066,36,15,43,290,39*7E
$GPGSV,3,2,11,05,41,190,28,21,14,301,32,07,11,063,,24,10,243,20*7D
$GP
GSV,3,3,11,08,09,029,,27,02,001,,49,,,32*79
$GPRMC,122204.000,A,5212.0854,N,00005.9603,E,0.00,12.65,270119,,,A*51
$GPVTG,12.65,T,,M,0.00,N,0.00,K,A*0D
$PMTKLOG,0,1,a
,31,15,0,0,1,0,0*11
$PMTK001,183,3*3A
$PMTK869,2,1*36

$GPGGA,122205.000,5212.0854,N,00005.9603,E,1,07,1.22,2.9,M,47
.0,M,,*60
$GPGSA,A,3,15,05,24,21,30,13,28,,,,,,2.19,1.22,1.82*0D
$GPRMC,122205.000,A,5212.0854,N,00005.
9603,E,0.01,281.02,270119,,,A*68
$GPVTG,281.02,T,,M,0.01,N,0.01,K,A*34

$PMTKLOG,0,1,a,31,15,0,0,1,0,0*11
$PMTK001,183,3*3A
$PMTK8
69,2,1*36

$GPGGA,122206.000,5212.
0854,N,00005.9603,E,1,07,1.22,2.9,M,47.0,M,,*63
$GPGSA,A,3,15,05,24,21,30,13,28,,,,,,2.19,1.22,1.82*0D
$GPR
MC,122206.000,A,5212.0854,N,00005.9603,E,0.01,194.12,270119,,,A*6D
$GPVTG,194.12,T,,M,0.01,N,0.01,K,
A*32
$PMTKLOG,0,1,a,31,15,0
,0,1,0,0*11
$PMTK001,183,3*3A
$PMTK869,2,1*36

$GPGGA,122207.000,5212.0854,N,00005.9603,E,1,07,1.22,3.
0,M,47.0,M,,*6A
$GPGSA,A,3,15,05,24,21,30,13,28,,,,,,2.19,1.22,1.82*0D
$GPRMC,122207.000,A,5212.0854
,N,00005.9603,E,0.02,359.54,270119,,,A*6E
$GPVTG,359.54,T,,M,0.02,N,0.04,K,A*35

$PMTKLOG,0,1
,a,31,15,0,0,1,0,0*11
$PMTK001,183,3*3A
$PMTK869,2,1*36

$GPGGA,122208.000,5212.0855,N,00005.9603,E,1,07,
1.22,3.1,M,47.0,M,,*65
$GPGSA,A,3,15,05,24,21,30,13,28,,,,,,2.19,1.22,1.82*0D
$GPRMC,122208.000,A,5212.
0855,N,00005.9603,E,0.00,272.93,270119,,,A*61
$GPVTG,272.93,T,,M,0.00,N,0.01,K,A*31

$PMTKLOG,0,1,a,31,15
,0,0,1,0,0*11
$PMTK001,183,3*3A
$PMTK869,2,1*36

$GPGGA,1222
09.000,5212.0855,N,00005.9603,E,1,07,1.22,3.1,M,47.0,M,,*64
$GPGSA,A,3,15,05,24,21,30,13,28,,,,,,2.19,1.
22,1.82*0D
$GPGSV,3,1,11,13,80,298,36,28,49,107,38,30,43,066,36,15,43,290,39*7E
$GPGSV,3,2,11,05,41,190
,29,21,14,301,32,07,11,063,,24,10,243,19*76
$GPGSV,3,3,11,08,09,029,,27,02,001,,49,,,32*79
$GPRMC,122209.000,A,5212.0855,N,00005.9603,E,0.01,175.70,270119,,,A*68
$GPVTG,175.70,T,,M,0.01,N,0.02,K,A*3A
$PMTKLOG,0,1,a,31,
15,0,0,1,0,0*11
$PMTK001,183,3*3A
$PMTK869,2,1*36

$GPGGA,122210.000,5212.0855,N,00005.9603,E,1,07,1.22,3.2,M,47.0
,M,,*6F
$GPGSA,A,3,15,05,24,21,30,13,28,,,,,,2.19,1.22,1.82*0D
$GPRMC,122210.000,A,5212.0855,N,00005.96
03,E,0.01,317.30,270119,,,A*62
$GPVTG,317.30,T,,M,0.01,N,0.02,K,A*38

$PMTKLOG,0,1,a,31,15,0,0,1,0,0*11
$PMTK001,183,3*3
A
$PMTK869,2,1*36

$GPGGA,122211.000,5212.0856,N,00005.9603,E,1,07,1.22,3.3,M,47.0,M,,*6C
$GPGSA
,A,3,15,05,24,21,30,13,28,,,,,,2.19,1.22,1.82*0D
$GPRMC,122211.000,A,5212.0856,N,00005.9603,E,0.00,3
21.65,270119,,,A*64
$GPVTG,321.65,T,,M,0.00,N,0.01,K,A*3F

$PMTKLOG,0,1,
a,31,15,0,0,1,0,0*11
$PMTK001,183,3*3A
$PMTK869,2,1*36

$GPGGA,122212.000,5212.0856,N,00005.9603,E,1,07,1.22,3.3,M,47.0,M,,*6F
$GPGSA,A,3,15,05,2
4,21,30,13,28,,,,,,2.19,1.22,1.82*0D
$GPRMC,122212.000,A,5212.0856,N,00005.9603,E,0.01,321.16,27
0119,,,A*62
$GPVTG,321.16,T,,M,0.01,N,0.01,K,A*3A

$PMTKLOG,0,1,
a,31,15,0,0,1,0,0*11
$PMTK001,183,3*3A
$PMTK869,2,1*36

$GPGGA,122213.000,5212.0856,N,0000
5.9604,E,1,07,1.22,3.4,M,47.0,M,,*6E
$GPGSA,A,3,15,05,24,21,30,13,28,,,,,,2.19,1.22,1.82*0D
$GPRMC,1222
13.000,A,5212.0856,N,00005.9604,E,0.00,40.07,270119,,,A*51
$GPVTG,40.07,T,,M,0.00,N,0.01,K,A*0F

$PMTKL
OG,0,1,a,31,15,0,0,1,0,0*11
$PMTK001,183,3*3A
$PMTK869,2,1*36

$GPGGA,122214.000,5212.0857,N,00005.9604,E,1
,07,1.22,3.5,M,47.0,M,,*69
$GPGSA,A,3,15,05,24,21,30,13,28,,,,,,2.19,1.22,1.82*0D
$GPGSV,3,1,11,13,
80,298,36,28,49,107,38,30,43,066,36,15,43,290,39*7E
$GPGSV,3,2,11,05,41,190,29,49,30,173,33,21,14,301,32
,07,11,063,*77
$GPGSV,3,3,11,24,10,243,18,08,09,028,,27,02,001,*4F
$GPRMC,122214.000,A,5212.0857,N,0
0005.9604,E,0.00,250.64,270119,,,A*61
$GPVTG,250.64,T,,M,0.00,N,0.01,K,A*39
$PMTKLO
G,0,1,a,31,15,0,0,1,0,0*11
$PMTK001,183,3*3A
$PMTK869,2,1*36

$GPGGA,122215.00
0,5212.0858,N,00005.9604,E,1,07,1.22,3.6,M,47.0,M,,*64
$GPGSA,A,3,15,05,24,21,30,13,28,,,,,,2.19,1.2
2,1.82*0D
$GPRMC,122215.000,A,5212.0858,N,00005.9604,E,0.02,7.13,270119,,,A*6D
$GPVTG,7.13,T,,M,0.02,N,
0.04,K,A*3E
$PMTKLOG,0,1,a,31,15,0,0,1,0,0*11
$PMTK
001,183,3*3A
$PMTK869,2,1*36

$GPGGA,122216.000,5212.0859,N,00005.9604,E,1,07,1.22,3.6,M,47.0,M,,*66
$GP
GSA,A,3,15,05,24,21,30,13,28,,,,,,2.19,1.22,1.82*0D
$GPRMC,122216.000,A,5212.0859,N,00005.9604,E,0.00,10
1.56,270119,,,A*6B
$GPVTG,101.56,T,,M,0.00,N,0.01,K,A*3F

$PMTKLOG,0,1,a,31,1
5,0,0,1,0,0*11
$PMTK001,183,3*3A
$PMTK869,2,1*36

$GPGGA,122217.000,5212.0860,N,00005.9604,E
,1,07,1.22,3.7,M,47.0,M,,*6C
$GPGSA,A,3,15,05,24,21,30,13,28,,,,,,2.19,1.22,1.82*0D
$GPRMC,122217.00
0,A,5212.0860,N,00005.9604,E,0.02,298.22,270119,,,A*62
$GPVTG,298.22,T,,M,0.02,N,0.04,K,A*38

$PMTKLOG,0,1,a,31,15,0,0
,1,0,0*11
$PMTK001,183,3*3A
$PMTK869,2,1*36

$GPGGA,122218.000,
5212.0861,N,00005.9604,E,1,07,1.22,3.7,M,47.0,M,,*62
$GPGSA,A,3,15,05,24,21,30,13,28,,,,,,2.19,1.22,
1.82*0D
$GPRMC,122218.000,A,5212.0861,N,00005.9604,E,0.01,139.15,270119,,,A*63
$GPVTG,139.15,T,,M,0
.01,N,0.02,K,A*31
$PMTKLOG,0,1
,a,31,15,0,0,1,0,0*11
$PMTK001,183,3*3A
$PMTK869,2,1*36

$GPGGA,122219.000,5212.0861,N,00
005.9604,E,1,07,1.22,3.8,M,47.0,M,,*6C
$GPGSA,A,3,15,05,24,21,30,13,28,,,,,,2.19,1.22,1.82*0D
$GPGSV,3,
1,11,13,80,299,36,28,49,107,38,30,43,066,36,15,43,290,39*7F
$GPGSV,3,2,11,05,41,190,29,49,30,173,33,21,1
4,301,32,07,11,063,*77
$GPGSV,3,3,11,24,10,243,17,08,09,028,,27,02,001,*40
$GPRMC,122219.000,A,5212
.0861,N,00005.9604,E,0.00,356.31,270119,,,A*6E
$GPVTG,356.31,T,,M,0.00,N,0.00,K,A*3F
$PMTKLOG,0,1,a,
31,15,0,0,1,0,0*11
$PMTK001,183,3*3A
$PMTK869,2,1*36

$GPGGA,122220.000,5212.0861,N,00005.9604,E,1
,07,1.22,3.8,M,47.0,M,,*66
$GPGSA,A,3,15,05,24,21,30,13,28,,,,,,2.19,1.22,1.82*0D
$GPRMC,122220.000
,A,5212.0861,N,00005.9604,E,0.01,226.31,270119,,,A*63
$GPVTG,226.31,T,,M,0.01,N,0.02,K,A*3A

$PMTKLOG,0,1,a,31,15,0,0,1,0,0*11
$PMTK001,183,3
*3A
$PMTK869,2,1*36

$GPGGA,122221.000,52
12.0862,N,00005.9604,E,1,07,1.22,3.8,M,47.0,M,,*64
$GPGSA,A,3,15,05,24,21,30,13,28,,,,,,2.19,1.22,1.82*0D

$GPRMC,122221.000,A,5212.0862,N,00005.9604,E,0.00,58.64,270119,,,A*5B
$GPVTG,58.64,T,,M,0.00,N,0.00,K,
A*02
$PMTKLOG,0,1,a,31
,15,0,0,1,0,0*11
$PMTK001,183,3*3A
$PMTK869,2,1*36

$GPGGA,122222.000,5212.0862,N,00005.9604,E,1,07,1.22,3.9,M,47.0,M,,*66
$GPGSA,A,3,15,05,24,21,30
,13,28,,,,,,2.19,1.22,1.82*0D
$GPRMC,122222.000,A,5212.0862,N,00005.9604,E,0.02,225.68,270119,,,A*6E
$G
PVTG,225.68,T,,M,0.02,N,0.03,K,A*37
$PMTKLOG,0,1,a,31
,15,0,0,1,0,0*11
$PMTK001,183,3*3A
$PMTK869,2,1*36

$GPGGA,122223.000,5212.0863,N,00005.9604,
E,1,07,1.22,3.9,M,47.0,M,,*66
$GPGSA,A,3,15,05,24,21,30,13,28,,,,,,2.19,1.22,1.82*0D
$GPRMC,122223.000,A,52
12.0863,N,00005.9604,E,0.02,20.41,270119,,,A*52
$GPVTG,20.41,T,,M,0.02,N,0.03,K,A*0B

$PMTKLOG,0,1,a,31,15,0,
0,1,0,0*11
$PMTK001,183,3*3A
$PMTK869,2,1*36

$GPGGA,122224.000,5212.0863,N,00005.9604,E,1,06,1.35,4.
0,M,47.0,M,,*68
$GPGSA,A,3,15,05,21,30,13,28,,,,,,,2.58,1.35,2.19*09
$GPGSV,3,1,11,13,80,299,36,28,49,1
07,38,30,43,066,36,15,43,290,39*7F
$GPGSV,3,2,11,05,41,190,29,49,30,173,33,21,14,301,32,07,11,063,*7
7
$GPGSV,3,3,11,24,10,243,,08,09,028,28,27,02,001,*4C
$GPRMC,122224.000,A,5212.0863,N,00005.9604,E,0.01,184.77,270119,,,A*6C
$GPVTG,184.77,T,,M,0.01,N,0.01,K,A*30
$PMTKLOG,0,1,a,31,15,0,0,1,
0,0*11
$PMTK001,183,3*3A
$PMTK869,2,1*36

$GPGGA,122225.000,5212.0863,N,00005.9604,E,1,06,1.35,4.0,M,47.0,M,,*69

$GPGSA,A,3,15,05,21,30,13,28,,,,,,,2.58,1.35,2.19*09
$GPRMC,122225.000,A,5212.0863,N,00005.
9604,E,0.00,100.10,270119,,,A*61
$GPVTG,100.10,T,,M,0.00,N,0.01,K,A*3C

$PMTKLOG,0,1,a,31,15,0,0,1,0,0*11
$PMTK001,183,3*3A
$PMTK8
69,2,1*36

$GPGGA,122226.000,5212.0863,N,00005.9604,E,1,06,1.35,4.0,M,47.0,M,,*6A
$GPGSA,A,3,15,05,21,30,13,2
8,,,,,,,2.58,1.35,2.19*09
$GPRMC,122226.000,A,5212.0863,N,00005.9604,E,0.02,275.55,270119,,,A*60
$GP
VTG,275.55,T,,M,0.02,N,0.03,K,A*3C

$PMTKLOG,0,1,a,31,15,0,0,1,0,0*
11
$PMTK001,183,3*3A
$PMTK869,2,1*36

$GPGGA,122227.000,5
212.0863,N,00005.9604,E,1,06,1.35,4.0,M,47.0,M,,*6B
$GPGSA,A,3,15,05,21,30,13,28,,,,,,,2.58,1.35,2.19*09

$GPRMC,122227.000,A,5212.0863,N,00005.9604,E,0.01,180.12,270119,,,A*68
$GPVTG,180.12,T,,M,0.01,N,0.01,
K,A*37
$PMTKLOG,0,1,a,31,15,
0,0,1,0,0*11
$PMTK001,183,3*3A
$PMTK869,2,1*36

$GPGGA,122228.000,5212.0863,N,00005.9604,E,1,06,1.35,4.0,M,47.0,M,,*6
4
$GPGSA,A,3,15,05,21,30,13,28,,,,,,,2.58,1.35,2.19*09
$GPRMC,122228.000,A,5212.0863,N,00005.96
04,E,0.02,25.31,270119,,,A*5B
$GPVTG,25.31,T,,M,0.02,N,0.03,K,A*09

$PMTKLOG,
0,1,a,31,15,0,0,1,0,0*11
$PMTK001,183,3*3A
$PMTK869,2,1*36

$GPGGA,122229.000,5212.0863,N,00005.9604,E,1
,06,1.35,4.0,M,47.0,M,,*65
$GPGSA,A,3,15,05,21,30,13,28,,,,,,,2.57,1.35,2.19*06
$GPGSV,3,1,11,13,80
,299,36,28,49,107,38,30,43,066,36,15,43,290,39*7F
$GPGSV,3,2,11,05,41,190,28,49,30,173,33,21,14,
301,32,07,11,063,*76
$GPGSV,3,3,11,24,10,243,,08,09,028,,27,02,001,*46
$GPRMC,122229.000,A,5212.0863,N,0
0005.9604,E,0.01,233.91,270119,,,A*66
$GPVTG,233.91,T,,M,0.01,N,0.03,K,A*35
$PMTKLOG,0,1,a,31,1
5,0,0,1,0,0*11
$PMTK001,183,3*3A
$PMTK869,2,1*36

$
GPGGA,122230.000,5212.0863,N,00005.9604,E,1,06,1.35,4.0,M,47.0,M,,*6D
$GPGSA,A,3,15,05,21,30,13,28,,,,,,
,2.57,1.35,2.19*06
$GPRMC,122230.000,A,5212.0863,N,00005.9604,E,0.02,41.73,270119,,,A*56
$GPVTG,41.
73,T,,M,0.02,N,0.05,K,A*0B
$PMTKLOG,0,1,a,31,15,0,0,1,0,0*11
$PMTK001,183,3
*3A
$PMTK869,2,1*36

$GPGGA,122231.000,5212.0863,N,00005.9604,E,1,06,1.35,4.0,M,47.0,M,,*6C
$
GPGSA,A,3,15,05,21,30,13,28,,,,,,,2.57,1.35,2.19*06
$GPRMC,122231.000,A,5212.0863,N,00005.9604,E,0.0
3,221.87,270119,,,A*69
$GPVTG,221.87,T,,M,0.03,N,0.05,K,A*35

$PMTKLOG,0,1,a,31,
15,0,0,1,0,0*11
$PMTK001,183,3*3A
$PMTK869,2,1*36

$GPGGA,122232.000,5212.0863,N,00005.9603
,E,1,07,1.22,4.1,M,47.0,M,,*6E
$GPGSA,A,3,15,05,24,21,30,13,28,,,,,,2.19,1.22,1.82*0D
$GPRMC,122232.000
,A,5212.0863,N,00005.9603,E,0.01,43.06,270119,,,A*50
$GPVTG,43.06,T,,M,0.01,N,0.02,K,A*0F

$PMTKLOG,0,1,a,31,
15,0,0,1,0,0*11
$PMTK001,183,3*3A
$PMTK869,2,1*36

$GPGGA
,122233.000,5212.0863,N,00005.9603,E,1,07,1.22,4.2,M,47.0,M,,*6C
$GPGSA,A,3,15,05,24,21,30,13,28,,,,,,2.
19,1.22,1.82*0D
$GPRMC,122233.000,A,5212.0863,N,00005.9603,E,0.01,316.75,270119,,,A*66
$GPVTG,3
16.75,T,,M,0.01,N,0.01,K,A*3B
$PMTKLOG,0,1,a,31,15,0
,0,1,0,0*11
$PMTK001,183,3*3A
$PMTK869,2,1*36

$GPGGA,122234.000,5212.0863,N,00005.9603,E,1,07,1.22,
4.2,M,47.0,M,,*6B
$GPGSA,A,3,15,05,24,21,30,13,28,,,,,,2.19,1.22,1.82*0D
$GPGSV,3,1,11,13,80,29
9,36,28,49,107,38,30,43,066,36,15,43,290,39*7F
$GPGSV,3,2,11,05,41,190,28,49,30,173,33,21,14,301,32,07,11
,063,*76
$GPGSV,3,3,11,24,10,243,20,08,09,028,,27,02,001,*44
$GPRMC,122234.000,A,5212.0863,N,00005.9603,E,0.00,345.13,270119,,,A*66
$GPVTG,345.13,T,,M,0.00,N,0.01,K,A*3C
$PMTKLOG,0,1,a,31,15
,0,0,1,0,0*11
$PMTK001,183,3*3A
$PMTK869,2,1*36

$GPGGA,122235.000,5212.0863,N,00005.9603,
E,1,07,1.22,4.3,M,47.0,M,,*6B
$GPGSA,A,3,15,05,24,21,30,13,28,,,,,,2.19,1.22,1.82*0D
$GPRMC,122235.
000,A,5212.0863,N,00005.9603,E,0.01,312.96,270119,,,A*69
$GPVTG,312.96,T,,M,0.01,N,0.01,K,A*32

$PMTKLOG,0,1,a,31,15,0,0,1,0,0*11
$PMTK001,183,3*3A

$PMTK869,2,1*36

$GPGGA,122236.000,5212.0863,N,00
005.9603,E,1,07,1.22,4.3,M,47.0,M,,*68
$GPGSA,A,3,15,05,24,21,30,13,28,,,,,,2.19,1.22,1.82*0D
$GPRMC,122236
.000,A,5212.0863,N,00005.9603,E,0.00,143.54,270119,,,A*63
$GPVTG,143.54,T,,M,0.00,N,0.01,K,A*3B

$PMTKLOG,0,1,a,31,15,0,
0,1,0,0*11
$PMTK001,183,3*3A
$PMTK869,2,1*36

$GPGGA,122237.000,5212.0863,N,00005.9603,E,
1,07,1.22,4.3,M,47.0,M,,*69
$GPGSA,A,3,15,05,24,21,30,13,28,,,,,,2.19,1.22,1.82*0D
$GPRMC,122237.000,A,
5212.0863,N,00005.9603,E,0.01,174.42,270119,,,A*60
$GPVTG,174.42,T,,M,0.01,N,0.01,K,A*39

$PMTKLOG,
0,1,a,31,15,0,0,1,0,0*11
$PMTK001,183,3*3A
$PMTK869,2,1*36

$GPGGA,122238.000,5212.0863,N,00005.
9603,E,1,07,1.22,4.3,M,47.0,M,,*66
$GPGSA,A,3,15,05,24,21,30,13,28,,,,,,2.19,1.22,1.82*0D
$GPRMC,122238
.000,A,5212.0863,N,00005.9603,E,0.02,202.07,270119,,,A*6F
$GPVTG,202.07,T,,M,0.02,N,0.03,K,A*3B

$PMTKLOG,0,1,a,
31,15,0,0,1,0,0*11
$PMTK001,183,3*3A
$PMTK869,2,1*36

$GPGGA,122239.000,5212.0863,N,00005.9603,E,1,07,1.22,4.3,M,47.0,M,,*67
$GPGSA,A,3,15,05,24,21,
30,13,28,,,,,,2.19,1.22,1.82*0D
$GPGSV,3,1,11,13,80,299,36,28,49,107,38,30,43,066,36,15,43,290,39*7F

$GPGSV,3,2,11,05,41,190,28,49,30,173,33,21,14,301,32,07,11,063,*76
$GPGSV,3,3,11,24,10,243,20,08,09,028,,27,02,001,*44
$GPRMC,122239.000,A,5212.0863,N,00005.9603,E,0.01,151.30,270119,,,A*6C
$GPVTG,151.30,T,,M,0.01,N,0.02
,K,A*38
$PMTKLOG,0,1,a,31,15,0,0,1,0,0*11
$PMTK001,183,3*3A
$PMTK869,2,1*36

$GPGGA,122240.000,5212.0863,N,00005.9603,E,1,07,1.22,4.3,M,47.0,M,,*69
$GPGSA,
A,3,15,05,24,21,30,13,28,,,,,,2.19,1.22,1.82*0D
$GPRMC,122240.000,A,5212.0863,N,00005.9603,E,0.02,6.
44,270119,,,A*61
$GPVTG,6.44,T,,M,0.02,N,0.04,K,A*3D

$PMTKLOG,0,1,a,31,15,0,0,1,0,0*11
$PMTK001,183,3*3A
$
PMTK869,2,1*36

$GPGGA,1
22241.000,5212.0863,N,00005.9603,E,1,07,1.22,4.3,M,47.0,M,,*68
$GPGSA,A,3,15,05,24,21,30,13,28,,,,,,
2.19,1.22,1.82*0D
$GPRMC,122241.000,A,5212.0863,N,00005.9603,E,0.00,348.81,270119,,,A*62
$GPVTG,348
.81,T,,M,0.00,N,0.01,K,A*3A

$PMTKLOG,0,1,a,
31,15,0,0,1,0,0*11
$PMTK001,183,3*3A
$PMTK869,2,1*36

$GPGGA,122242.000,
5212.0863,N,00005.9603,E,1,07,1.22,4.3,M,47.0,M,,*6B
$GPGSA,A,3,15,05,24,21,30,13,28,,,,,,2.19,1.22,1.82
*0D
$GPRMC,122242.000,A,5212.0863,N,00005.9603,E,0.01,26.12,270119,,,A*51
$GPVTG,26.12,T,,M,0.01
,N,0.02,K,A*09

$PMTKLOG,0,1,a,31
,15,0,0,1,0,0*11
$PMTK001,183,3*3A
$PMTK869,2,1*36

$GPGGA,122243.000,5212.0863,N,00005.9603,E,1,07
,1.22,4.3,M,47.0,M,,*6A
$GPGSA,A,3,15,05,24,21,30,13,28,,,,,,2.19,1.22,1.82*0D
$GPRMC,122243.000,A,5212
.0863,N,00005.9603,E,0.01,309.48,270119,,,A*61
$GPVTG,309.48,T,,M,0.01,N,0.01,K,A*3B

$PMTKLOG,
0,1,a,31,15,0,0,1,0,0*11
$PMTK001,183,3*3A
$PMTK869,2,1*36

$GPGGA,122244.000,5212.0863,N,00005.9603,E,1,07,1.22,4
.3,M,47.0,M,,*6D
$GPGSA,A,3,15,05,24,21,30,13,28,,,,,,2.19,1.22,1.82*0D
$GPGSV,3,1,11,13,80,299,36,28,4
9,107,38,30,43,066,36,15,43,290,39*7F
$GPGSV,3,2,11,05,41,190,28,49,30,173,33,21,14,301,32,07,11,063
,*76
$GPGSV,3,3,11,24,10,243,19,08,09,028,,27,02,001,*4E
$GPRMC,122244.000,A,5212.0863,N,00005.9603,E,0
.01,232.89,270119,,,A*62
$GPVTG,232.89,T,,M,0.01,N,0.02,K,A*3C
$PMTKLOG,0,1,a,31,15,0,0,1
,0,0*11
$PMTK001,183,3*3A
$PMTK869,2,1*36

$GPGGA,122245.000,5212.0863,N,00005.9603,E,1,07,1.22
,4.3,M,47.0,M,,*6C
$GPGSA,A,3,15,05,24,21,30,13,28,,,,,,2.19,1.22,1.82*0D
$GPRMC,122245.000,A,5212.0863
,N,00005.9603,E,0.01,217.29,270119,,,A*6E
$GPVTG,217.29,T,,M,0.01,N,0.02,K,A*31

$PMTKLOG,0,1,a,31,15,0,0,1,0,0*11
$PMTK001,183,3*3A

$PMTK869,2,1*36

$GPGGA,122246.000,5212.0863,N,00005
.9603,E,1,07,1.22,4.3,M,47.0,M,,*6F
$GPGSA,A,3,15,05,24,21,30,13,28,,,,,,2.19,1.22,1.82*0D
$GPRMC,1
22246.000,A,5212.0863,N,00005.9603,E,0.01,192.36,270119,,,A*6D
$GPVTG,192.36,T,,M,0.01,N,0.02,K,A*31

$PMTKLOG,0,1,a,
31,15,0,0,1,0,0*11
$PMTK001,183,3*3A
$PMTK869,2,1*36

$GPGGA,122247.000,5212.0863,N,00005.9603,E,1,07,1.22,4.3,M,
47.0,M,,*6E
$GPGSA,A,3,15,05,24,21,30,13,28,,,,,,2.19,1.22,1.82*0D
$GPRMC,122247.000,A,5212.0863,N,0000
5.9603,E,0.01,356.25,270119,,,A*64
$GPVTG,356.25,T,,M,0.01,N,0.02,K,A*39

$PMTKLOG,0,1,a,31,15,
0,0,1,0,0*11
$PMTK001,183,3*3A
$PMTK869,2,1*36

$GPGGA
,122248.000,5212.0863,N,00005.9603,E,1,07,1.22,4.3,M,47.0,M,,*61
$GPGSA,A,3,15,05,24,21,30,13,28,,,,
,,2.19,1.22,1.82*0D
$GPRMC,122248.000,A,5212.0863,N,00005.9603,E,0.01,186.24,270119,,,A*65
$GPVTG,1
86.24,T,,M,0.01,N,0.02,K,A*37
$PMTKLOG,0,1,a,31,15,
0,0,1,0,0*11
$PMTK001,183,3*3A
$PMTK869,2,1*36

$GPGGA,122249.000,5212.0863,N,00005.9603,E,1,07,1.2
2,4.3,M,47.0,M,,*60
$GPGSA,A,3,15,05,24,21,30,13,28,,,,,,2.19,1.22,1.82*0D
$GPGSV,3,1,11,13,80,299,3
5,28,49,107,38,30,43,066,36,15,43,290,39*7C
$GPGSV,3,2,11,05,41,190,28,49,30,173,33,21,14,301,32,07,11,
063,*76
$GPGSV,3,3,11,24,10,243,19,08,09,028,,27,02,001,*4E
$GPRMC,122249.000,A,5212.0863,N,00005.9603,E,0.01,340.63,270119,,,A*6F
$GPVTG,340.63,T,,M,0.01,N,0.01,K,A*3F
$PMTKLOG,0,1,a,31,15
,0,0,1,0,0*11
$PMTK001,183,3*3A
$PMTK869,2,1*36

$GPGGA,122250.000,5212.0863,N,00005.9603,E,1,07,1.22,4.3
,M,47.0,M,,*68
$GPGSA,A,3,15,05,24,21,30,13,28,,,,,,2.19,1.22,1.82*0D
$GPRMC,122250.000,A,5212.0863
,N,00005.9603,E,0.00,358.40,270119,,,A*6E
$GPVTG,358.40,T,,M,0.00,N,0.01,K,A*36

$PMTKLOG,0,1,a,31,15,0,0,1,0,0*11
$PMTK001,
183,3*3A
$PMTK869,2,1*36

$GPGGA,122251.000,5212.0863,N,00005.9603,E,1
,07,1.22,4.3,M,47.0,M,,*69
$GPGSA,A,3,15,05,24,21,30,13,28,,,,,,2.19,1.22,1.82*0D
$GPRMC,122251.000,A,5
212.0863,N,00005.9603,E,0.01,314.71,270119,,,A*64
$GPVTG,314.71,T,,M,0.01,N,0.02,K,A*3E

$PMTKLOG,0,1,a,31,
15,0,0,1,0,0*11
$PMTK001,183,3*3A
$PMTK869,2,1*36

$GPGGA,122252.000,5212.0863,N,00005.9603,E,1,07,1.22,4.
3,M,47.0,M,,*6A
$GPGSA,A,3,15,05,24,21,30,13,28,,,,,,2.19,1.22,1.82*0D
$GPRMC,122252.000,A,5212.0863,N,00005.9603,E,0.0
1,333.97,270119,,,A*6A
$GPVTG,333.97,T,,M,0.01,N,0.02,K,A*33

$PMTKLOG
,0,1,a,31,15,0,0,1,0,0*11
$PMTK001,183,3*3A
$PMTK869,2,1*36

$GPGGA,122253.000,5212.0863,N,00005.9603,E,1
,07,1.22,4.3,M,47.0,M,,*6B
$GPGSA,A,3,15,05,24,21,30,13,28,,,,,,2.19,1.22,1.82*0D
$GPRMC,122253.000,A,5
212.0863,N,00005.9603,E,0.01,216.27,270119,,,A*66
$GPVTG,216.27,T,,M,0.01,N,0.01,K,A*3D

$PMTKLOG,0,1,a,3
1,15,0,0,1,0,0*11
$PMTK001,183,3*3A
$PMTK869,2,1*36

$GPGGA,122254.000,5212.0863,N,00005.9603,E,1,07,1.22,4.3,M,47.0,M,,*6C
$GPGSA,A,3,15,05,2
4,21,30,13,28,,,,,,2.19,1.22,1.82*0D
$GPGSV,3,1,11,13,80,299,35,28,49,107,38,30,43,066,36,15,43,290,39*7C
$
GPGSV,3,2,11,05,41,190,28,49,30,173,33,21,14,301,32,07,11,063,*76
$GPGSV,3,3,11,24,10,243,19,08,09,028,,27,02,001,*4E
$GPRMC,122254.000,A,5212.0863,N,00005.9603,E,0.01,241.41,270119,,,A*63
$GPVTG,241.
41,T,,M,0.01,N,0.01,K,A*3F
$PMTKLOG,0,1,a,31,15,0,0,1,0,0*11
$PMTK001,183,3*3A
$PMTK869,2,1*36

$GPGGA,122255.000,5212.
0863,N,00005.9603,E,1,07,1.22,4.3,M,47.0,M,,*6D
$GPGSA,A,3,15,05,24,21,30,13,28,,,,,,2.19,1.22,1.82*0D
$GPRMC,122255.000,A,
5212.0863,N,00005.9603,E,0.00,170.54,270119,,,A*66
$GPVTG,170.54,T,,M,0.00,N,0.01,K,
A*3B

$PMTKLOG,0,1,a,31,15,0,0,1,0,0*11
$PMTK001,183,3*3A
$PMTK86
9,2,1*36

$GPGGA,122256.000,5212.0863,N,00005.9603,E,1,07,1.22,4.3,M,47.0,M,,*6E
$GPGSA,A,3,15,05,24,21,
30,13,28,,,,,,2.19,1.22,1.82*0D
$GPRMC,122256.000,A,5212.0863,N,00005.9603,E,0.01,193.99,270119,,,A*68
$GPV
TG,193.99,T,,M,0.01,N,0.02,K,A*35

$PMTKLOG,0,1,a,31,1
5,0,0,1,0,0*11
$PMTK001,183,3*3A
$PMTK869,2,1*36

$GPGGA,122257.000,
5212.0863,N,00005.9603,E,1,07,1.22,4.3,M,47.0,M,,*6F
$GPGSA,A,3,15,05,24,21,30,13,28,,,,,,2.19,1
.22,1.82*0D
$GPRMC,122257.000,A,5212.0863,N,00005.9603,E,0.01,246.87,270119,,,A*6D
$GPVTG,246.87,T,,M,0.01,
N,0.02,K,A*31
$PMTKLOG,0
,1,a,31,15,0,0,1,0,0*11
$PMTK001,183,3*3A
$PMTK869,2,1*36

$GPGGA,122258.000,5212.0863,N,00005.9603,E,1,07,1
.22,4.3,M,47.0,M,,*60
$GPGSA,A,3,15,05,24,21,30,13,28,,,,,,2.19,1.22,1.82*0D
$GPRMC,122258.000,A,521
2.0863,N,00005.9603,E,0.03,48.91,270119,,,A*5B
$GPVTG,48.91,T,,M,0.03,N,0.05,K,A*0F

$PMTKLOG,0,1,a,31,15
,0,0,1,0,0*11
$PMTK001,183,3*3A
$PMTK869,2,1*36

$GPGGA,122259.000,5212.0863,N,00005.9603,E,1,07,1.22,4.3,
M,47.0,M,,*61
$GPGSA,A,3,15,05,24,21,30,13,28,,,,,,2.19,1.22,1.82*0D
$GPGSV,3,1,11,13,80,299,35,28,49,1
07,38,30,43,066,36,15,43,290,39*7C
$GPGSV,3,2,11,05,41,190,28,49,30,173,33,21,14,301,32,07,11,063,*76
$
GPGSV,3,3,11,24,10,243,18,08,09,028,,27,02,001,*4F
$GPRMC,122259.000,A,5212.0863,N,00005.9603,E,0.01,212.49,270119,,,A*60
$GPVTG,212.49,T,,M,0.01,N,0.02,K,A*32
$PMTKLOG,0,1,a,31,15,0,
0,1,0,0*11
$PMTK001,183,3*3A
$PMTK869,2,1*36

$GPGGA,122300.000,5212.0863,N,00005.9603,E,1,07,1.22,4.3,M,47.0,M,,*6C
$GPGSA,A,3,15,05,24,21,30
,13,28,,,,,,2.19,1.22,1.82*0D
$GPRMC,122300.000,A,5212.0863,N,00005.9603,E,0.00,175.98,270119,,,A*62

$GPVTG,175.98,T,,M,0.00,N,0.01,K,A*3E
$PMTKLOG,0,1,a,31,15,0,0,1,0,0*11
$PMTK001,183,3*3A

$PMTK869,2,1*36

$GPGGA,122301.000,5212.0863,N,00005.9603,E,1,07,1.22,4.3,M,47.0,M,,*6D
$GPGSA,A,3,1
5,05,24,21,30,13,28,,,,,,2.19,1.22,1.82*0D
$GPRMC,122301.000,A,5212.0863,N,00005.9603,E,0.01,348.85,
270119,,,A*62
$GPVTG,348.85,T,,M,0.01,N,0.01,K,A*3F

$PMTKLOG,0,1,a,31,15,
0,0,1,0,0*11
$PMTK001,183,3*3A
$PMTK869,2,1*36

$GPGGA,122302.000,5212.0863,N,00005.9603,E,1,07,
1.22,4.3,M,47.0,M,,*6E
$GPGSA,A,3,15,05,24,21,30,13,28,,,,,,2.19,1.22,1.82*0D
$GPRMC,122302.000
,A,5212.0863,N,00005.9603,E,0.02,191.03,270119,,,A*6A
$GPVTG,191.03,T,,M,0.02,N,0.04,K,A*31

$PMTKLOG,
0,1,a,31,15,0,0,1,0,0*11
$PMTK001,183,3*3A
$PMTK869,2,1*36

$GPGGA,122303.000,5212.0863,N,00005.9603,E,1,07,1.22,4.3,M,47.0,M,,*6F
$GPGSA,A,3,15,05
,24,21,30,13,28,,,,,,2.19,1.22,1.82*0D
$GPRMC,122303.000,A,5212.0863,N,00005.9603,E,0.00,272.63,270119,,
,A*61
$GPVTG,272.63,T,,M,0.00,N,0.01,K,A*3E

$PMTKLOG,0,1,a,31,15,0,0
,1,0,0*11
$PMTK001,183,3*3A
$PMTK869,2,1*36

$GPGGA,122304.000,5212.0863,N,00005.9603,E,
1,07,1.22,4.3,M,47.0,M,,*68
$GPGSA,A,3,15,05,24,21,30,13,28,,,,,,2.19,1.22,1.82*0D
$GPGSV,3,1,11,13,80,
299,35,28,49,107,38,30,43,066,36,15,43,290,39*7C
$GPGSV,3,2,11,05,41,190,28,49,30,173,33,21,14,300,32,07,
11,063,*77
$GPGSV,3,3,11,24,10,244,18,08,09,028,,27,02,001,*48
$GPRMC,122304.000,A,5212.0863,N,00005.9603,E,0.01,321.82,270119,,,A*6F
$GPVTG,321.82,T,,M,0.01,N,0.02,K,A*34
$PMTKLOG,0,1,a,
31,15,0,0,1,0,0*11
$PMTK001,183,3*3A
$PMTK869,2,1*36

$GPGGA,122305.000,5212.0863,N,00005.9603,E,1,07,1.22,4.3,M,
47.0,M,,*69
$GPGSA,A,3,15,05,24,21,30,13,28,,,,,,2.19,1.22,1.82*0D
$GPRMC,122305.000,A,5212.0863,N,
00005.9603,E,0.00,210.35,270119,,,A*60
$GPVTG,210.35,T,,M,0.00,N,0.01,K,A*39

$PMTKLOG,0,1,a,31,15,0,0,1,0,0*11
$PMTK001,183,3
*3A
$PMTK869,2,1*36

$GPGGA,122306.000,5212.0863,N,00005.9603,E,1,07,1.22,4.3,M,47.0,M,,*
6A
$GPGSA,A,3,15,05,24,21,30,13,28,,,,,,2.19,1.22,1.82*0D
$GPRMC,122306.000,A,5212.0863,N,00005.9603,E,
0.01,25.56,270119,,,A*53
$GPVTG,25.56,T,,M,0.01,N,0.01,K,A*09

$PMTKLOG,0,1,a,31,
15,0,0,1,0,0*11
$PMTK001,183,3*3A
$PMTK869,2,1*36

$GPGGA,1223
07.000,5212.0863,N,00005.9603,E,1,07,1.22,4.3,M,47.0,M,,*6B
$GPGSA,A,3,15,05,24,21,30,13,28,,,,,,2.19,1.22,1
.82*0D
$GPRMC,122307.000,A,5212.0863,N,00005.9603,E,0.01,203.43,270119,,,A*60
$GPVTG,203.43,T,,
M,0.01,N,0.01,K,A*3B
$PMTKLOG,0,
1,a,31,15,0,0,1,0,0*11
$PMTK001,183,3*3A
$PMTK869,2,1*36

$GPGGA,122308.000,5212.0863,N,0000
5.9603,E,1,07,1.22,4.3,M,47.0,M,,*64
$GPGSA,A,3,15,05,24,21,30,13,28,,,,,,2.19,1.22,1.82*0D
$GPRMC,1223
08.000,A,5212.0863,N,00005.9603,E,0.01,108.10,270119,,,A*61
$GPVTG,108.10,T,,M,0.01,N,0.01,K,A*35

$PMTKLOG,0
,1,a,31,15,0,0,1,0,0*11
$PMTK001,183,3*3A
$PMTK869,2,1*36

$GPGGA,122309.000,5212.
0863,N,00005.9603,E,1,07,1.22,4.3,M,47.0,M,,*65
$GPGSA,A,3,15,05,24,21,30,13,28,,,,,,2.19,1.22,1.82*0D

$GPGSV,3,1,11,13,80,299,35,28,50,106,38,30,43,066,36,15,43,290,39*75
$GPGSV,3,2,11,05,41,190,28,49,30,173,33
,21,14,300,31,07,11,063,*74
$GPGSV,3,3,11,24,10,244,16,08,09,028,,27,02,001,*46
$GPRMC,122309.0
00,A,5212.0863,N,00005.9603,E,0.01,280.64,270119,,,A*60
$GPVTG,280.64,T,,M,0.01,N,0.01,K,A*35
$PMTKLOG,0,
1,a,31,15,0,0,1,0,0*11
$PMTK001,183,3*3A
$PMTK869,2,1*36

$GPGGA,122310.000,5212.0863,N,00005.9603,E,1,07,1.22,4.3,M,47.0,M,,*6D
$GPGSA,A,3,15,05,24,21,30,13,
28,,,,,,2.19,1.22,1.82*0D
$GPRMC,122310.000,A,5212.0863,N,00005.9603,E,0.00,0.00,270119,,,A*61
$GPV
TG,0.00,T,,M,0.00,N,0.00,K,A*3D
$PMTKLOG,0,1,a,31,15,0,0,1,0,0*11
$PMTK001,183,3*3A
$
PMTK869,2,1*36

$GPGGA,122311.000,5212.0863,N,00005.9603,E,1,06,1.35,4.3,M,47.0,M,,*6B
$GPGSA,A,3,15,05,21,30,
13,28,,,,,,,2.56,1.35,2.18*06
$GPRMC,122311.000,A,5212.0863,N,00005.9603,E,0.00,99.68,270119,,,A*5E
$GP
VTG,99.68,T,,M,0.00,N,0.00,K,A*03

$PMTKLOG,0,1,a,31,15,0
,0,1,0,0*11
$PMTK001,183,3*3A
$PMTK869,2,1*36

$GPGGA,122
312.000,5212.0863,N,00005.9603,E,1,07,1.22,4.3,M,47.0,M,,*6F
$GPGSA,A,3,15,05,24,21,30,13,28,,,,
,,2.19,1.22,1.82*0D
$GPRMC,122312.000,A,5212.0863,N,00005.9603,E,0.01,138.82,270119,,,A*62
$GPVTG,138.8
2,T,,M,0.01,N,0.01,K,A*3D
$PMTKLOG,0,1,a,31,15,
0,0,1,0,0*11
$PMTK001,183,3*3A
$PMTK869,2,1*36

$GPGGA,122313.000,5212.0863,N,00005.960
3,E,1,07,1.22,4.3,M,47.0,M,,*6E
$GPGSA,A,3,15,05,24,21,30,13,28,,,,,,2.19,1.22,1.82*0D
$GPRMC,12231
3.000,A,5212.0863,N,00005.9603,E,0.02,89.21,270119,,,A*52
$GPVTG,89.21,T,,M,0.02,N,0.03,K,A*0E

$PMTKLOG,0,1,a,31,15,0
,0,1,0,0*11
$PMTK001,183,3*3A
$PMTK869,2,1*36

$GPGGA,122314.000,5212.0863,N,00005.9603,E,1,07,1.22,
4.3,M,47.0,M,,*69
$GPGSA,A,3,15,05,24,21,30,13,28,,,,,,2.19,1.22,1.82*0D
$GPGSV,3,1,11,13,80,299,35,28,
50,106,38,30,43,066,36,15,43,290,39*75
$GPGSV,3,2,11,05,41,190,29,49,30,173,32,21,14,300,32,07,11,063,*7
7
$GPGSV,3,3,11,24,10,244,15,08,09,028,,27,02,001,*45
$GPRMC,122314.000,A,5212.0863,N,00005.9603,E,0.01,341.98,270119,,,A*63
$GPVTG,341.98,T,,M,0.01,N,0.01,K,A*3A
$PMTKLOG,0,1,a,31,15
,0,0,1,0,0*11
$PMTK001,183,3*3A
$PMTK869,2,1*36

$GPGGA,122315.000,5212.0863,N,00005.9603,E,1,06,
1.35,4.3,M,47.0,M,,*6F
$GPGSA,A,3,15,05,21,30,13,28,,,,,,,2.56,1.35,2.17*09
$GPRMC,122315.000,A
,5212.0863,N,00005.9603,E,0.01,271.17,270119,,,A*67
$GPVTG,271.17,T,,M,0.01,N,0.02,K,A*3C

$PMTKLOG,0,1,a,31,15,0,0,1,0,0*11
$PMTK001,183,3*3A
$PMTK8
69,2,1*36

$GPGGA,122316.000,5212.0863,N,00005.9603,E,1
,07,1.22,4.3,M,47.0,M,,*6B
$GPGSA,A,3,15,05,24,21,30,13,28,,,,,,2.19,1.22,1.82*0D
$GPRMC,122316.000,A,5
212.0863,N,00005.9603,E,0.01,93.37,270119,,,A*58
$GPVTG,93.37,T,,M,0.01,N,0.01,K,A*03

$PMTKLOG,0,1,a,31,15,0,0
,1,0,0*11
$PMTK001,183,3*3A
$PMTK869,2,1*36

$GPGGA,122317.000,5212.0863,N,00005.9603,E,1
,07,1.22,4.3,M,47.0,M,,*6A
$GPGSA,A,3,15,05,24,21,30,13,28,,,,,,2.19,1.22,1.82*0D
$GPRMC,122317.000
,A,5212.0863,N,00005.9603,E,0.01,316.30,270119,,,A*60
$GPVTG,316.30,T,,M,0.01,N,0.02,K,A*39

$PMTKLOG,0,
1,a,31,15,0,0,1,0,0*11
$PMTK001,183,3*3A
$PMTK869,2,1*36

$GPGGA,122318.000,5212.0863,N,00005.9603,E,1,07,1.22,4.3,M,47.0,M,,*65
$GPGSA,A,3,15,05,24,21,30,
13,28,,,,,,2.19,1.22,1.82*0D
$GPRMC,122318.000,A,5212.0863,N,00005.9603,E,0.01,98.08,270119,,,A*51
$GPVTG,9
8.08,T,,M,0.01,N,0.02,K,A*07

$PMTKLOG,0,1,a,31,15,0
,0,1,0,0*11
$PMTK001,183,3*3A
$PMTK869,2,1*36

$GPGGA,122319.000,5212.0863,N,00005.9603,E,1
,07,1.22,4.3,M,47.0,M,,*64
$GPGSA,A,3,15,05,24,21,30,13,28,,,,,,2.19,1.22,1.82*0D
$GPGSV,3,1,11,13,
80,299,35,28,50,106,38,30,43,066,36,15,43,290,39*75
$GPGSV,3,2,11,05,41,190,29,49,30,173,32,21,14,300,31
,07,11,063,19*7C
$GPGSV,3,3,11,24,10,244,17,08,09,028,,27,02,001,*47
$GPRMC,122319.000,A,5212.0863,N,00005.9603,E,0.01,147.94,270119,,,A*66
$GPVTG,147.94,T,,M,0.01,N,0.01,K,A*32
$PMTKLOG,0,1,a,31,15,0
,0,1,0,0*11
$PMTK001,183,3*3A
$PMTK869,2,1*36

$GPGGA,122320.000,5212.0863,N,00005.9603,E,1,07,1.22,4.3,M,
47.0,M,,*6E
$GPGSA,A,3,15,05,24,21,30,13,28,,,,,,2.19,1.22,1.82*0D
$GPRMC,122320.000,A,5212.0863,N,0000
5.9603,E,0.00,35.53,270119,,,A*52
$GPVTG,35.53,T,,M,0.00,N,0.01,K,A*0C

$PMTKLOG,0,1,a,31,15,0,0,1,0,0*11
$PMTK001,183,3*3A
$PMTK869
,2,1*36

$GPGGA,122321.000,5212.0863,N,00005.9603,
E,1,07,1.22,4.3,M,47.0,M,,*6F
$GPGSA,A,3,15,05,24,21,30,13,28,,,,,,2.19,1.22,1.82*0D
$GPRMC,122321.
000,A,5212.0863,N,00005.9603,E,0.02,307.86,270119,,,A*6B
$GPVTG,307.86,T,,M,0.02,N,0.04,K,A*31

$PMTKLOG,0,1,a
,31,15,0,0,1,0,0*11
$PMTK001,183,3*3A
$PMTK869,2,1*36

$GPGGA,122322.000,5212.0863,N,00005.9603,E,1,07,1.22,4
.3,M,47.0,M,,*6C
$GPGSA,A,3,15,05,24,21,30,13,28,,,,,,2.19,1.22,1.82*0D
$GPRMC,122322.000,A,5212.0863,N
,00005.9603,E,0.02,48.55,270119,,,A*5E
$GPVTG,48.55,T,,M,0.02,N,0.03,K,A*00

$PMTKLOG,0,
1,a,31,15,0,0,1,0,0*11
$PMTK001,183,3*3A
$PMTK869,2,1*36

$GPGGA,122323.000,5212.0863,N,00005.9603,E,1,07,1
.22,4.3,M,47.0,M,,*6D
$GPGSA,A,3,15,05,24,21,30,13,28,,,,,,2.19,1.22,1.82*0D
$GPRMC,122323.000,
A,5212.0863,N,00005.9603,E,0.01,243.29,270119,,,A*6E
$GPVTG,243.29,T,,M,0.01,N,0.03,K,A*31

$PMTKLOG,0,1,a,3
1,15,0,0,1,0,0*11
$PMTK001,183,3*3A
$PMTK869,2,1*36

$GPGGA,122324.00
0,5212.0863,N,00005.9603,E,1,06,1.34,4.3,M,47.0,M,,*6C
$GPGSA,A,3,15,05,21,30,13,28,,,,,,,2.55,1.34,2.1
7*0B
$GPGSV,3,1,11,13,80,299,35,28,50,106,38,30,43,066,36,15,43,290,39*75
$GPGSV,3,2,11,05,40,190,29
,49,30,173,32,21,14,300,32,07,11,063,22*76
$GPGSV,3,3,11,24,10,244,16,08,09,028,29,27,02,001,*4D
$GPRMC,122324.000,A,5212.0863,N,00005.9603,E,0.03,313.73,270119,,,A*60
$GPVTG,313.73,T,,M,0.03,N,0.05,K,A*3E
$PMTKLOG,0,
1,a,31,15,0,0,1,0,0*11
$PMTK001,183,3*3A
$PMTK869,2,1*36

$GPGGA,122325.000,5212.0863,N,00005.9603,E,1
,06,1.35,4.3,M,47.0,M,,*6C
$GPGSA,A,3,15,05,21,30,13,28,,,,,,,2.55,1.35,2.17*0A
$GPRMC,122325.000,A
,5212.0863,N,00005.9603,E,0.00,352.49,270119,,,A*6E
$GPVTG,352.49,T,,M,0.00,N,0.01,K,A*35

$PMTKLOG,0,1,a,31,15,0,0,1,0,0*11
$PMTK001,183,3*3A
$PMTK869,2,1*36


$G
PGGA,122326.000,5212.0863,N,00005.9603,E,1,07,1.22,4.3,M,47.0,M,,*68
$GPGSA,A,3,15,05,24,21,30,1
3,28,,,,,,2.19,1.22,1.82*0D
$GPRMC,122326.000,A,5212.0863,N,00005.9603,E,0.00,216.16,270119,,,A*66
$GPVTG,2
16.16,T,,M,0.00,N,0.01,K,A*3E

$PMTKLOG,0,1,a,
31,15,0,0,1,0,0*11
$PMTK001,183,3*3A
$PMTK869,2,1*36

$GPGGA,122327.000,5212.0863,N,00005.96
03,E,1,07,1.22,4.3,M,47.0,M,,*69
$GPGSA,A,3,15,05,24,21,30,13,28,,,,,,2.19,1.22,1.82*0D
$GPRMC,122327.0
00,A,5212.0863,N,00005.9603,E,0.03,85.35,270119,,,A*5D
$GPVTG,85.35,T,,M,0.03,N,0.05,K,A*00

$PMTKLOG,0,1,a,31,15,0,0
,1,0,0*11
$PMTK001,183,3*3A
$PMTK869,2,1*36

$GPGGA,12232
8.000,5212.0863,N,00005.9603,E,1,07,1.22,4.3,M,47.0,M,,*66
$GPGSA,A,3,15,05,24,21,30,13,28,,,,,,2.19,1.2
2,1.82*0D
$GPRMC,122328.000,A,5212.0863,N,00005.9603,E,0.01,223.75,270119,,,A*6A
$GPVTG,223.75,T,,M
,0.01,N,0.01,K,A*3C
$PMTKLOG,0,1,a
,31,15,0,0,1,0,0*11
$PMTK001,183,3*3A
$PMTK869,2,1*36

$GPGGA,122329.000,5212.0863,N,
00005.9603,E,1,07,1.22,4.3,M,47.0,M,,*67
$GPGSA,A,3,15,05,24,21,30,13,28,,,,,,2.19,1.22,1.82*0D
$GPGSV,3,1
,11,13,80,299,35,28,50,106,38,30,43,066,36,15,43,290,39*75
$GPGSV,3,2,11,05,40,190,29,49,30,173,32,21
,14,300,32,07,11,063,21*75
$GPGSV,3,3,11,24,10,244,17,08,09,028,28,27,02,001,*4D
$GPRMC,122329.000,A,5
212.0863,N,00005.9603,E,0.03,284.98,270119,,,A*67
$GPVTG,284.98,T,,M,0.03,N,0.06,K,A*37
$PMTKLO
G,0,1,a,31,15,0,0,1,0,0*11
$PMTK001,183,3*3A
$PMTK869,2,1*36

$GPGGA,122330.000,5212.0863,N,00005.9603,E,1,07,1
