1
$PMTKLOG,0,1,a,31,15,0,0,1,0,0*11
$PMTK001,183,3*3A
$PMTK869,2,1*36

$G
PGGA,122051.000,5212.0837,N,00005.9591,E,2,07,1.14,6.7,M,47.0,M,0000,0000*62
$GPGSA,A,3,24,15,21,30,
05,28,13,,,,,,1.44,1.14,0.88*08
$GPRMC,122051.000,A,5212.0837,N,00005.9591,E,0.00,0.00,270119,,,D*6B
$G
PVTG,0.00,T,,M,0.00,N,0.00,K,D*38
$PMTKLOG,0,1,a,31,15,0,0,1,0,0*11
$PMTK001,183,3*3A
$PMTK869,2,1
*36

$GPGGA,122052.000,5212.0837,N,00
005.9591,E,2,07,1.14,6.8,M,47.0,M,0000,0000*6E
$GPGSA,A,3,24,15,21,30,05,28,13,,,,,,1.44,1.14,0.88*08
$
GPGSV,3,1,10,13,79,298,42,28,49,108,38,30,44,066,40,05,42,191,44*7B
$GPGSV,3,2,10,15,42,290,43,36,23,142
,38,21,15,301,35,07,12,062,18*75
$GPGSV,3,3,10,24,09,243,32,27,02,002,*76
$GPRMC,122052.000,A,5212.0837
,N,00005.9591,E,0.00,243.19,270119,,,D*65
$GPVTG,243.19,T,,M,0.00,N,0.01,K,D*34
$PMTKLOG,0,1,a,3
1,15,0,0,1,0,0*11
$PMTK001,183,3*3A
$PMTK869,2,1*36

$GPGGA,122053.000,5212.0837,N,00005.9590,E,2,07,1.14,6.8,M,47.0,M,0000,0000*6E
$GPGSA,A,3,24,15,21,
30,05,28,13,,,,,,1.44,1.14,0.88*08
$GPRMC,122053.000,A,5212.0837,N,00005.9590,E,0.00,23.21,270119,,,
D*5A
$GPVTG,23.21,T,,M,0.00,N,0.01,K,D*0B
$PMTKLOG,0,1,a,31,15,0,0,1,0,0*11
$PMTK001,183,3*3A
$PMTK86
9,2,1*36

$GPGGA,122054.000,5212.0837,N,00005.9590,E,2,07,1.14,6.8,M,47.0,M,0000,0000*69
$GPGSA,A,3,24,15,21,3
0,05,28,13,,,,,,1.44,1.14,0.88*08
$GPRMC,122054.000,A,5212.0837,N,00005.9590,E,0.00,240.41,270119,,,D*6C
$G
PVTG,240.41,T,,M,0.00,N,0.00,K,D*3B
$PMTKLOG,0,1,a,31,15,0,0,1,0,0*11
$PMTK001,183,3*3A
$PMTK8
69,2,1*36

$GPGGA,122055.000,5212.0837,N,00005.95
89,E,2,07,1.14,6.8,M,47.0,M,0000,0000*60
$GPGSA,A,3,24,15,21,30,05,28,13,,,,,,1.44,1.14,0.88*08

$GPRMC,122055.000,A,5212.0837,N,00005.9589,E,0.00,37.58,270119,,,D*5F
$GPVTG,37.58,T,,M,0.00,N,0.01,K,D
*00
$PMTKLOG,0,1,a,31,15,0,0,1,0,0*11
$PMTK001,183,3*3A
$PMTK869,2,1*36

$GPGGA,122056.000,5212.0837,N,00005.9589,E,
2,07,1.14,6.8,M,47.0,M,0000,0000*63
$GPGSA,A,3,24,15,21,30,05,28,13,,,,,,1.44,1.14,0.88*08
$GPRMC,1
22056.000,A,5212.0837,N,00005.9589,E,0.00,18.27,270119,,,D*59
$GPVTG,18.27,T,,M,0.00,N,0.00,K,D*04
$PMT
KLOG,0,1,a,31,15,0,0,1,0,0*11
$PMTK001,183,3*3A
$PMTK869,2,1*36

$GPGGA,122057.000,5212.0837,N,00005.9589,
E,2,07,1.14,6.8,M,47.0,M,0000,0000*62
$GPGSA,A,3,24,15,21,30,05,28,13,,,,,,1.44,1.14,0.88*08
$GPGSV,3,1
,10,13,79,298,40,28,49,108,37,30,44,066,38,05,42,191,42*7F
$GPGSV,3,2,10,15,42,290,42,36,23,142,36,2
1,15,301,33,07,12,062,17*73
$GPGSV,3,3,10,24,10,243,29,27,02,002,*74
$GPRMC,122057.000,A,5212.0837,N,00005.
9589,E,0.00,126.89,270119,,,D*60
$GPVTG,126.89,T,,M,0.00,N,0.01,K,D*3D
$PMTKLOG,0,1,a,31,15,0,0,1,0
,0*11
$PMTK001,183,3*3A
$PMTK869,2,1*36

$GPGGA,122058.000,5212.0837,N,00005.95
88,E,2,07,1.14,6.8,M,47.0,M,0000,0000*6C
$GPGSA,A,3,24,15,21,30,05,28,13,,,,,,1.44,1.14,0.88*08
$GPRMC,
122058.000,A,5212.0837,N,00005.9588,E,0.00,92.32,270119,,,D*50
$GPVTG,92.32,T,,M,0.00,N,0.00,K,D*02

$PMTKLOG,0,1,a,31,15,0,0,1,0,0*11
$PMTK001,183,3*3A
$PMTK869,2,1*36

$GPGGA,122059.000,5212.0
837,N,00005.9588,E,2,07,1.14,6.8,M,47.0,M,0000,0000*6D
$GPGSA,A,3,24,15,21,30,05,28,13,,,,,,1.44,1.14,0.
88*08
$GPRMC,122059.000,A,5212.0837,N,00005.9588,E,0.00,44.73,270119,,,D*5F
$GPVTG,44.73,T,,M,0.00,N,0.
01,K,D*0D
$PMTKLOG,0,1,a,31,15,0,0,1,0,0*11
$PMTK001,183,3*3A
$PMTK869,2,1*36

$GPGGA,122100.000,5212.0838,N,00005.9588,E,2,07,1.14,6.8,M,47.0,M,0000,0000*6F
$GPGSA,A,3,24,15,2
1,30,05,28,13,,,,,,1.44,1.14,0.88*08
$GPRMC,122100.000,A,5212.0838,N,00005.9588,E,0.01,307.83,270119,,,D*67

$GPVTG,307.83,T,,M,0.01,N,0.01,K,D*37
$PMTKLOG,0,1,a,31,15,0,0,1,0,0*11
$PMTK001,183,3*3A
$PMTK86
9,2,1*36

$GPG
GA,122101.000,5212.0838,N,00005.9588,E,2,07,1.14,6.9,M,47.0,M,0000,0000*6F
$GPGSA,A,3,24,15,21,3
0,05,28,13,,,,,,1.44,1.14,0.88*08
$GPRMC,122101.000,A,5212.0838,N,00005.9588,E,0.01,331.83,270119,,,D*63

$GPVTG,331.83,T,,M,0.01,N,0.02,K,D*31
$PMTKLOG,0,1,a,31,15,0,0,1,0,0*11
$PMTK001,183,3*3A
$PMTK869,2
,1*36

$GPGGA,122102.000,5212.0838,N,00005.95
87,E,2,07,1.14,6.9,M,47.0,M,0000,0000*63
$GPGSA,A,3,24,15,21,30,05,28,13,,,,,,1.44,1.14,0.88*08
$GPGSV,
3,1,10,13,79,298,39,28,49,108,36,30,43,066,36,05,42,191,41*7A
$GPGSV,3,2,10,15,42,290,41,36,23,142,35,21
,15,301,31,07,12,062,17*71
$GPGSV,3,3,10,24,10,243,29,27,02,001,*77
$GPRMC,122102.000,A,5212.0838,N,000
05.9587,E,0.00,303.34,270119,,,D*63
$GPVTG,303.34,T,,M,0.00,N,0.01,K,D*3E
$PMTKLOG,0,1,a,31,15,0,0,1,0,
0*11
$PMTK001,183,3*3A
$PMTK869,2,1*36

$GPGGA,122103.000,5212.0838,N,00005.9587,E,2,07,1.14,6.9,M,47.0,M,0000,0000*62
$GPGSA,A,3,24,15,21,30,05,28,13,,,,,,1.
44,1.14,0.88*08
$GPRMC,122103.000,A,5212.0838,N,00005.9587,E,0.00,127.91,270119,,,D*69
$GPVTG,127.9
1,T,,M,0.00,N,0.00,K,D*34
$PMTKLOG,0,1,a,31,15,0,0,1,0,0*11
$PMTK001,183,3*3A
$PMTK869,2,1*36

$GPGGA,12
2104.000,5212.0838,N,00005.9587,E,2,07,1.14,7.0,M,47.0,M,0000,0000*6D
$GPGSA,A,3,24,15,21,30,05,28,13,,,
,,,1.44,1.14,0.88*08
$GPRMC,122104.000,A,5212.0838,N,00005.9587,E,0.00,24.50,270119,,,D*51
$GPVTG,24
.50,T,,M,0.00,N,0.01,K,D*0A
$PMTKLOG,0,1,a,31,15,0,0,1,0,0*11
$PMTK001,183,3*3A
$PMTK869,2,1*36

$GPGGA,122105.000,5212.083
9,N,00005.9587,E,2,07,1.14,7.0,M,47.0,M,0000,0000*6D
$GPGSA,A,3,24,15,21,30,05,28,13,,,,,,1.44,1.14,0.88
*08
$GPRMC,122105.000,A,5212.0839,N,00005.9587,E,0.00,45.60,270119,,,D*55
$GPVTG,45.60,T,,M,0.00,N,0.01
,K,D*0E
$PMTKLOG,0,1,a,31,15,0,0,1,0,0*11
$PMTK001,183,3*3A
$PMTK869,2,1*36

$GPGGA,122106.000,5212.0839,N,00005.9587,E,2,07,1.14,7.1,M,47.0,M,0000,0000*6F
$GPGSA,A,3
,24,15,21,30,05,28,13,,,,,,1.44,1.14,0.88*08
$GPRMC,122106.000,A,5212.0839,N,00005.9587,E,0.01,61.34,270
119,,,D*50
$GPVTG,61.34,T,,M,0.01,N,0.01,K,D*08
$PMTKLOG,0,1,a,31,15,0,0,1,0,0*11
$PMTK001,183,3*3
A
$PMTK869,2,1*36

$GPGGA,122107.
000,5212.0839,N,00005.9587,E,2,07,1.14,7.3,M,47.0,M,0000,0000*6C
$GPGSA,A,3,24,15,21,30,05,28,13,
,,,,,1.44,1.14,0.88*08
$GPGSV,3,1,10,13,79,298,40,28,49,108,38,30,43,066,39,05,42,191,43*77
$GPGSV,3,2
,10,15,42,290,43,36,23,142,37,21,15,301,34,07,12,062,18*7B
$GPGSV,3,3,10,24,10,243,30,27,02,001,*7F
$GP
RMC,122107.000,A,5212.0839,N,00005.9587,E,0.01,285.48,270119,,,D*62
$GPVTG,285.48,T,,M,0.01,N,0.02,K,D*38

$PMTKLOG,0,1,a,31,15,0,0,1,0,0*11
$PMTK001,183,3*3A
$PMTK869,2,1*36

$GPGGA,122108.000,5212.0839,N,00005.9587,E,2,07,1.14,7.4,M,47.0,M,0000,0000*64
$GPGSA,A,3,24,15,21,30,05,28,13,,,,,,1.44,1.14,0.88*08
$GPRMC,122108.000,A,5212.0839,N,00005.9587,E,0.00,336
.90,270119,,,D*60
$GPVTG,336.90,T,,M,0.00,N,0.00,K,D*37
$PMTKLOG,0,1,a,31,15,0,0,1,0,0*11
$PMTK001,183
,3*3A
$PMTK869,2,1*36

$GPGGA,122109.000,5212.0839,N,00005.9587,E,2,07,1.14,7.4,M,47.0,M,0000,0000*65
$GPGSA,A,3,24,1
5,21,30,05,28,13,,,,,,1.44,1.14,0.88*08
$GPRMC,122109.000,A,5212.0839,N,00005.9587,E,0.00,219.58,270119,
,,D*69
$GPVTG,219.58,T,,M,0.00,N,0.00,K,D*3F
$PMTKLOG,0,1,a,31,15,0,0,1,0,0*11
$PMTK001,183,3*3A
$PMT
K869,2,1*36

$GPGGA,122110.000,5212.0839,N,00005.9587,E,2,
07,1.14,7.4,M,47.0,M,0000,0000*6D
$GPGSA,A,3,24,15,21,30,05,28,13,,,,,,1.44,1.14,0.88*08
$GPRMC,122
110.000,A,5212.0839,N,00005.9587,E,0.00,0.00,270119,,,D*66
$GPVTG,0.00,T,,M,0.00,N,0.00,K,D*38
$PMTK
LOG,0,1,a,31,15,0,0,1,0,0*11
$PMTK001,183,3*3A
$PMTK869,2,1*36

$GPGGA,122111.000,5212.0839,N,00005.9587,E,2,07,1.14,7.4,M,47.0,M,0000,0000*6C
$GPGSA,
A,3,24,15,21,30,05,28,13,,,,,,1.44,1.14,0.88*08
$GPRMC,122111.000,A,5212.0839,N,00005.9587,E,0.00,156.71
,270119,,,D*63
$GPVTG,156.71,T,,M,0.00,N,0.01,K,D*3D
$PMTKLOG,0,1,a,31,15,0,0,1,0,0*11
$PMTK001,18
3,3*3A
$PMTK869,2,1*36

$GPGGA,122112.000,5212.0839,N,00005.9587,E,2,07,1.14,7.4,M,47.0,M,0000,0000*6F

$GPGSA,A,3,24,15,21,30,05,28,13,,,,,,1.44,1.14,0.88*08
$GPGSV,3,1,10,13,79,298,40,28,49,108,37,30,43,0
66,39,15,42,290,43*7B
$GPGSV,3,2,10,05,41,191,43,36,23,142,37,21,15,301,34,07,12,062,17*74
$GPGSV,3
,3,10,24,10,243,29,27,02,001,*77
$GPRMC,122112.000,A,5212.0839,N,00005.9587,E,0.00,25.98,270119,,,D*52
$GPV
TG,25.98,T,,M,0.00,N,0.01,K,D*0F
$PMTKLOG,0,1,a,31,15,0,0,1,0,0*11
$PMTK001,183,3*3A
$PMTK869,2,1*
36

$GPGGA,122113.000,5212.0839,N,00005.9587,E,2,07,1.14,7.4,M,47.0,M,0000,0000*6E
$GPGSA,A,3,24,15,21,30,05,28,13,,,,,,1.44,1.14,0.88*08
$GPRMC,122113.000,A,5212.0839,
N,00005.9587,E,0.03,167.27,270119,,,D*63
$GPVTG,167.27,T,,M,0.03,N,0.05,K,D*3B
$PMTKLOG,0,1,a,31,15
,0,0,1,0,0*11
$PMTK001,183,3*3A
$PMTK869,2,1*36

$GPGGA,122114.000,5212.0839,N,00
005.9587,E,2,07,1.14,7.4,M,47.0,M,0000,0000*69
$GPGSA,A,3,24,15,21,30,05,28,13,,,,,,1.44,1.14,0.88*08
$GPRM
C,122114.000,A,5212.0839,N,00005.9587,E,0.01,198.42,270119,,,D*65
$GPVTG,198.42,T,,M,0.01,N,0.01,K,D
*3E
$PMTKLOG,0,1,a,31,15,0,0,1,0,0*11
$PMTK001,183,3*3A
$PMTK869,2,1*36

$GPGGA,122115.000,5212.0839,N,00005.9587,E,2,07,1.14,7.4,M,47.0,M,0000,0000*68
$GPGSA,A,3,24,15,21,
30,05,28,13,,,,,,1.44,1.14,0.88*08
$GPRMC,122115.000,A,5212.0839,N,00005.9587,E,0.00,128.17,270119,,,D*6
E
$GPVTG,128.17,T,,M,0.00,N,0.01,K,D*34
$PMTKLOG,0,1,a,31,15,0,0,1,0,0*11
$PMTK001,183,3*3A
$PMTK
869,2,1*36

$GPGGA,122116.000,5212.0839,N,00005.9587,E,2,07,1.14,7.4,M,47.0,M,0000,0000*6B
$GPGSA,A,3,24,15,
21,30,05,28,13,,,,,,1.44,1.14,0.88*08
$GPRMC,122116.000,A,5212.0839,N,00005.9587,E,0.00,123.50,270119,,,
D*65
$GPVTG,123.50,T,,M,0.00,N,0.01,K,D*3C
$PMTKLOG,0,1,a,31,15,0,0,1,0,0*11
$PMTK001,183,3*3A
$P
MTK869,2,1*36

$GPGGA,122117.000,5212.0839,N,00
005.9588,E,2,07,1.14,7.5,M,47.0,M,0000,0000*64
$GPGSA,A,3,24,15,21,30,05,28,13,,,,,,1.44,1.14,0.88*0
8
$GPGSV,3,1,11,13,79,298,41,28,49,108,38,30,43,066,39,15,42,290,43*74
$GPGSV,3,2,11,05,41,191,43,36,23
,142,37,21,15,301,35,07,12,063,16*74
$GPGSV,3,3,11,24,10,243,29,08,09,029,,27,02,001,*4C
$GPRMC,122117.
000,A,5212.0839,N,00005.9588,E,0.00,162.43,270119,,,D*6C
$GPVTG,162.43,T,,M,0.00,N,0.00,K,D*3A
$PMTK
LOG,0,1,a,31,15,0,0,1,0,0*11
$PMTK001,183,3*3A
$PMTK869,2,1*36

$GPGGA,122118.000,5212.0838,N,00005.9589,E,2,07,1.14,7.5,M,47.0,M,0000,0000*6B
$GPGSA,A,3,24,15,21,30,05,28,13,,,,,,1.44,1.14,0.88*08
$GPRMC,1221
18.000,A,5212.0838,N,00005.9589,E,0.01,46.07,270119,,,D*55
$GPVTG,46.07,T,,M,0.01,N,0.01,K,D*0D
$PM
TKLOG,0,1,a,31,15,0,0,1,0,0*11
$PMTK001,183,3*3A
$PMTK869,2,1*36

$GPGGA,12211
9.000,5212.0838,N,00005.9590,E,2,07,1.14,7.6,M,47.0,M,0000,0000*61
$GPGSA,A,3,24,15,21,30,05,28,
13,,,,,,1.44,1.14,0.88*08
$GPRMC,122119.000,A,5212.0838,N,00005.9590,E,0.03,200.53,270119,,,D*6F
$G
PVTG,200.53,T,,M,0.03,N,0.05,K,D*3A
$PMTKLOG,0,1,a,31,15,0,0,1,0,0*11
$PMTK001,183,3*3A
$PMTK869,2,1*3
6

$GPGGA,122120.000,5212.0838,N,00005.9590,E,2,07,
1.14,7.6,M,47.0,M,0000,0000*6B
$GPGSA,A,3,24,15,21,30,05,28,13,,,,,,1.44,1.14,0.88*08
$GPRMC,122120.000
,A,5212.0838,N,00005.9590,E,0.01,232.43,270119,,,D*67
$GPVTG,232.43,T,,M,0.01,N,0.01,K,D*3C
$PMTKLOG,0,1,a,31,
15,0,0,1,0,0*11
$PMTK001,183,3*3A
$PMTK869,2,1*36

$GPGGA,122121.000,5212.0838,N,00005.9590,E,2,07,1.14,7.6,M,47.0,M,0000,0000*6A
$GPGSA,A,3,24,
15,21,30,05,28,13,,,,,,1.44,1.14,0.88*08
$GPRMC,122121.000,A,5212.0838,N,00005.9590,E,0.00,105.91,270119
,,,D*6F
$GPVTG,105.91,T,,M,0.00,N,0.01,K,D*35
$PMTKLOG,0,1,a,31,15,0,0,1,0,0*11
$PMTK001,183,3
*3A
$PMTK869,2,1*36

$GPGGA,122122.000,5212.0
838,N,00005.9590,E,2,07,1.14,7.6,M,47.0,M,0000,0000*69
$GPGSA,A,3,24,15,21,30,05,28,13,,,,,,1.44,1.1
4,0.88*08
$GPGSV,3,1,11,13,79,298,39,28,49,108,37,30,43,066,37,15,43,290,41*79
$GPGSV,3,2,11,05,41,191,
42,36,23,142,37,21,15,301,33,07,12,063,19*7C
$GPGSV,3,3,11,24,10,243,28,08,09,029,,27,02,001,*4D
$GPRMC
,122122.000,A,5212.0838,N,00005.9590,E,0.00,190.03,270119,,,D*6B
$GPVTG,190.03,T,,M,0.00,N,0.00,K,D*33

$PMTKLOG,0,1,a,31,15,0,0,1,0,0*11
$PMTK001,183,3*3A
$PMTK869,2,1*36

$GPGGA,122123.000,5212.0838,N,00005.9590,E,2,07,1.23,7.6,M,47.0,M,0000,0000*6C
$GPGSA,A,3,24,15,21,30,05,28,13,,,,,,2.19,1.23,1.82*0C
$GPRMC,122123.000,A,5212.0838,N,000
05.9590,E,0.00,0.00,270119,,,D*61
$GPVTG,0.00,T,,M,0.00,N,0.00,K,D*38
$PMTKLOG,0,1,a,31,15,0,0,
1,0,0*11
$PMTK001,183,3*3A
$PMTK869,2,1*36

$GPGGA,122124.000,5212.0838,N,00005.9590,E,2,07
,1.23,7.6,M,47.0,M,0000,0000*6B
$GPGSA,A,3,24,15,21,30,05,28,13,,,,,,2.20,1.23,1.82*06
$GPRMC,12212
4.000,A,5212.0838,N,00005.9590,E,0.00,0.00,270119,,,D*66
$GPVTG,0.00,T,,M,0.00,N,0.00,K,D*38
$PMTKLOG,0
,1,a,31,15,0,0,1,0,0*11
$PMTK001,183,3*3A
$PMTK869,2,1*36

$GPGGA,122125.00
0,5212.0838,N,00005.9590,E,2,07,1.23,7.6,M,47.0,M,0000,0000*6A
$GPGSA,A,3,24,15,21,30,05,28,13,,,,,,
2.20,1.23,1.82*06
$GPRMC,122125.000,A,5212.0838,N,00005.9590,E,0.00,134.31,270119,,,D*63
$GPVTG,134.
31,T,,M,0.00,N,0.01,K,D*3D
$PMTKLOG,0,1,a,31,15,0,0,1,0,0*11
$PMTK001,183,3*3A
$PMTK869,2,1*36

$GPGGA,122126.000,5212.0838,N,00
005.9590,E,2,07,1.23,7.6,M,47.0,M,0000,0000*69
$GPGSA,A,3,24,15,21,30,05,28,13,,,,,,2.19,1.23,1.
82*0C
$GPRMC,122126.000,A,5212.0838,N,00005.9590,E,0.00,306.86,270119,,,D*6F
$GPVTG,306.86,T,,M,0.00,N,0.00
,K,D*33
$PMTKLOG,0,1,a,31,15,0,0,1,0,0*11
$PMTK001,183,3*3A
$PMTK869,2,1*36

$GPGGA,122127.000,5212.0838,N,00005.9590,E,2,07,1.23,7.6,M,47.0,M,0000,0000*68
$GPGSA,A,3,24,15,
21,30,05,28,13,,,,,,2.20,1.23,1.82*06
$GPGSV,3,1,11,13,79,298,39,28,49,108,36,30,43,066,37,15,43,290,39*
77
$GPGSV,3,2,11,05,41,191,41,36,23,142,36,21,15,301,31,07,12,063,20*76
$GPGSV,3,3,11,24,10,243,28,08,09,02
9,,27,02,001,*4D
$GPRMC,122127.000,A,5212.0838,N,00005.9590,E,0.00,169.25,270119,,,D*6C
$GPVTG,
169.25,T,,M,0.00,N,0.01,K,D*30
$PMTKLOG,0,1,a,31,15,0,0,1,0,0*11
$PMTK001,183,3*3A
$PMTK869,2,1*36

$GPGGA,122128.000,5212.0838,N,00005.9590,E,2,07,1.23,7.6,M,47.0,M,0000,0000*67
$GPGSA,A,3,24,15,21,30,05,28,13,,,,,
,2.19,1.23,1.82*0C
$GPRMC,122128.000,A,5212.0838,N,00005.9590,E,0.00,246.50,270119,,,D*6F
$GPVTG,24
6.50,T,,M,0.00,N,0.00,K,D*3D
$PMTKLOG,0,1,a,31,15,0,0,1,0,0*11
$PMTK001,183,3*3A
$PMTK869,2,1*36

$GPGGA,122129.000,5212
.0838,N,00005.9590,E,2,07,1.23,7.6,M,47.0,M,0000,0000*66
$GPGSA,A,3,24,15,21,30,05,28,13,,,,,,2.19,1.23,1
.82*0C
$GPRMC,122129.000,A,5212.0838,N,00005.9590,E,0.01,80.03,270119,,,D*51
$GPVTG,80.03,T,,M,0.01,N,
0.02,K,D*00
$PMTKLOG,0,1,a,31,15,0,0,1,0,0*11
$PMTK001,183,3*3A
$PMTK869,2,1*36

$GPGGA,122130.000,5212.0838,N,00005.9590,E,2,07,1.23,7.6,M,47.0,M,0000,0000*6E
$GPGSA,A,3,24,15,21,3
0,05,28,13,,,,,,2.19,1.23,1.82*0C
$GPRMC,122130.000,A,5212.0838,N,00005.9590,E,0.00,192.83,270119,,,D*62

$GPVTG,192.83,T,,M,0.00,N,0.01,K,D*38
$PMTKLOG,0,1,a,31,15,0,0,1,0,0*11
$PMTK001,183,3*3A
$PMTK8
69,2,1*36

$GPGGA,122131.000
,5212.0838,N,00005.9590,E,2,07,1.23,7.6,M,47.0,M,0000,0000*6F
$GPGSA,A,3,24,15,21,30,05,28,13,,,,,,2
.19,1.23,1.82*0C
$GPRMC,122131.000,A,5212.0838,N,00005.9590,E,0.00,295.36,270119,,,D*69
$GPVTG,295.36,T,
,M,0.00,N,0.01,K,D*32
$PMTKLOG,0,1,a,31,15,0,0,1,0,0*11
$PMTK001,183,3*3A
$PMTK869,2,1*36

$GPGGA,122132.000,5212.0838,N,00005.9590,E,2,07,1.23,7.6,M,47.0,M,0000,0000*6C
$GPGSA,A,3,24,
15,21,30,05,28,13,,,,,,2.19,1.23,1.82*0C
$GPGSV,3,1,11,13,79,298,41,28,49,108,40,30,43,066,40,15,43,290,42*7
5
$GPGSV,3,2,11,05,41,191,44,36,23,142,37,21,15,301,35,07,12,063,20*76
$GPGSV,3,3,11,24,10,243,
30,08,09,029,24,27,02,001,*42
$GPRMC,122132.000,A,5212.0838,N,00005.9590,E,0.00,282.26,270119,,,D*6D
$GPVTG
,282.26,T,,M,0.00,N,0.00,K,D*34
$PMTKLOG,0,1,a,31,15,0,0,1,0,0*11
$PMTK001,183,3*3A
$PMTK869,2,1*3
6

$GPGGA,122133.000,5212.0838,N,00005.9590,E,2,07,1.23,7.6,M,4
7.0,M,0000,0000*6D
$GPGSA,A,3,24,15,21,30,05,28,13,,,,,,2.19,1.23,1.82*0C
$GPRMC,122133.000,A,5212.
0838,N,00005.9590,E,0.00,231.24,270119,,,D*66
$GPVTG,231.24,T,,M,0.00,N,0.00,K,D*3E
$PMTKLOG,0,1,a,
31,15,0,0,1,0,0*11
$PMTK001,183,3*3A
$PMTK869,2,1*36

$GPGGA,122134.000,5212.0838,N,00005.9590,E,2,
07,1.23,7.6,M,47.0,M,0000,0000*6A
$GPGSA,A,3,24,15,21,30,05,28,13,,,,,,2.19,1.23,1.82*0C
$GPRMC,122
134.000,A,5212.0838,N,00005.9590,E,0.00,274.27,270119,,,D*63
$GPVTG,274.27,T,,M,0.00,N,0.00,K,D*3C
$PMT
KLOG,0,1,a,31,15,0,0,1,0,0*11
$PMTK001,183,3*3A
$PMTK869,2,1*36

$GPGGA,122135.000,5212.0838,N,00005.9590,E,2
,07,1.23,7.6,M,47.0,M,0000,0000*6B
$GPGSA,A,3,24,15,21,30,05,28,13,,,,,,2.20,1.23,1.82*06
$GPRMC,122135
.000,A,5212.0838,N,00005.9590,E,0.00,0.00,270119,,,D*66
$GPVTG,0.00,T,,M,0.00,N,0.00,K,D*38
$PMTKLOG,0,1
,a,31,15,0,0,1,0,0*11
$PMTK001,183,3*3A
$PMTK869,2,1*36

$GPGGA,122136.000,5212.0838,N,00005.9590,E,2,07,1.23,7.6,M,47.0,M,0000,0000*68
$GPGSA,A,3,24,1
5,21,30,05,28,13,,,,,,2.19,1.23,1.82*0C
$GPRMC,122136.000,A,5212.0838,N,00005.9590,E,0.00,115.59,270119,
,,D*6C
$GPVTG,115.59,T,,M,0.00,N,0.01,K,D*30
$PMTKLOG,0,1,a,31,15,0,0,1,0,0*11
$PMTK001,183,3*3A
$PMT
K869,2,1*36

$GPGGA,122137
.000,5212.0838,N,00005.9590,E,2,07,1.22,7.6,M,47.0,M,0000,0000*68
$GPGSA,A,3,24,15,21,30,05,28,13,,,,,,2
.19,1.22,1.82*0D
$GPGSV,3,1,11,13,79,298,40,28,49,107,38,30,43,066,39,15,43,290,42*7A
$GPGSV,3,2,11,05,4
1,191,42,36,23,142,36,21,15,301,34,07,12,063,20*70
$GPGSV,3,3,11,24,10,243,30,08,09,029,20,27,02,001
,*46
$GPRMC,122137.000,A,5212.0838,N,00005.9590,E,0.01,131.93,270119,,,D*6C
$GPVTG,131.93,T,,M,0.01,N,0
.01,K,D*31
$PMTKLOG,0,1,a,31,15,0,0,1,0,0*11
$PMTK001,183,3*3A
$PMTK869,2,1*36

$GPGGA,122138.000,5212.0838,N,00005.9590,E,2,07,1.23,7.6,M,47.0,M,0000,0000*66
$GPGSA,A,3,24,15,21,30,05,28,13,,,,,,2.20,1.23,1.82*06
$GPRMC,122138.000,A,5212.0838,N,00005.9590,E,0.00,163.56
,270119,,,D*6C
$GPVTG,163.56,T,,M,0.00,N,0.00,K,D*3F
$PMTKLOG,0,1,a,31,15,0,0,1,0,0*11
$PMTK001,18
3,3*3A
$PMTK869,2,1*36

$GPGGA,122139.000,5212.0838,N,00005.9590,E,2,07,1.23,7.6,M,47.0,M,0000,0000*67
$GPGSA,A,3,24,15,21,30
,05,28,13,,,,,,2.19,1.23,1.82*0C
$GPRMC,122139.000,A,5212.0838,N,00005.9590,E,0.00,129.65,270119,,,D
*63
$GPVTG,129.65,T,,M,0.00,N,0.00,K,D*31
$PMTKLOG,0,1,a,31,15,0,0,1,0,0*11
$PMTK001,183,3*3A
$PMTK86
9,2,1*36

$GPGGA,122140.000,5212.08
38,N,00005.9590,E,2,07,1.23,7.6,M,47.0,M,0000,0000*69
$GPGSA,A,3,24,15,21,30,05,28,13,,,,,,2.19,1.23,
1.82*0C
$GPRMC,122140.000,A,5212.0838,N,00005.9590,E,0.00,138.88,270119,,,D*6E
$GPVTG,138.88,T,,M,0.00,N,0
.01,K,D*33
$PMTKLOG,0,1,a,31,15,0,0,1,0,0*11
$PMTK001,183,3*3A
$PMTK869,2,1*36

$GPGGA,122141.000,5212.
0838,N,00005.9590,E,2,07,1.23,7.6,M,47.0,M,0000,0000*68
$GPGSA,A,3,24,15,21,30,05,28,13,,,,,,2.19,1.23,1
.82*0C
$GPRMC,122141.000,A,5212.0838,N,00005.9590,E,0.00,175.72,270119,,,D*63
$GPVTG,175.72,T,,M,0.
00,N,0.01,K,D*3F
$PMTKLOG,0,1,a,31,15,0,0,1,0,0*11
$PMTK001,183,3*3A
$PMTK869,2,1*36

$GPGGA,122142.000,5212.0838,N,00005.9590,E,2,07,1.23,7.6,M,47.0,M,0000,0000*6B
$GPGSA,A,3,24,
15,21,30,05,28,13,,,,,,2.19,1.23,1.82*0C
$GPGSV,3,1,11,13,79,298,39,28,49,107,37,30,43,066,38,15,43,
290,41*79
$GPGSV,3,2,11,05,41,191,41,36,23,142,36,21,15,301,32,07,12,063,18*7E
$GPGSV,3,3,11,24,10,243,
29,08,09,029,20,27,02,001,*4E
$GPRMC,122142.000,A,5212.0838,N,00005.9590,E,0.01,110.52,270119,,,D*60
$G
PVTG,110.52,T,,M,0.01,N,0.01,K,D*3F
$PMTKLOG,0,1,a,31,15,0,0,1,0,0*11
$PMTK001,183,3*3A
$PMTK869,2,1*3
6

$GPGGA,122143.000,5212.0838,N,00005
.9590,E,2,07,1.23,7.6,M,47.0,M,0000,0000*6A
$GPGSA,A,3,24,15,21,30,05,28,13,,,,,,2.19,1.23,1.82*0C
$GPR
MC,122143.000,A,5212.0838,N,00005.9590,E,0.00,330.81,270119,,,D*6E
$GPVTG,330.81,T,,M,0.00,N,0.01,K,
D*30
$PMTKLOG,0,1,a,31,15,0,0,1,0,0*11
$PMTK001,183,3*3A
$PMTK869,2,1*36

$GPGGA,122144.000,5212.083
8,N,00005.9590,E,2,07,1.23,7.6,M,47.0,M,0000,0000*6D
$GPGSA,A,3,24,15,21,30,05,28,13,,,,,,2.20,1.23,1.82
*06
$GPRMC,122144.000,A,5212.0838,N,00005.9590,E,0.00,158.50,270119,,,D*69
$GPVTG,158.50,T,,M,0.00,
N,0.01,K,D*30
$PMTKLOG,0,1,a,31,15,0,0,1,0,0*11
$PMTK001,183,3*3A
$PMTK869,2,1*36

$GPGGA,122145.000,5212.0838,N,00005.
9590,E,2,07,1.23,7.6,M,47.0,M,0000,0000*6C
$GPGSA,A,3,24,15,21,30,05,28,13,,,,,,2.19,1.23,1.82*0C
$GPRM
C,122145.000,A,5212.0838,N,00005.9590,E,0.01,151.28,270119,,,D*6F
$GPVTG,151.28,T,,M,0.01,N,0.01,K,D*37

$PMTKLOG,0,1,a,31,15,0,0,1,0,0*11
$PMTK001,183,3*3A
$PMTK869,2,1*36

$GPGGA,122146.000,5212.0838,N,00005.9590,E,
2,07,1.23,7.6,M,47.0,M,0000,0000*6F
$GPGSA,A,3,24,15,21,30,05,28,13,,,,,,2.19,1.23,1.82*0C
$GPRM
C,122146.000,A,5212.0838,N,00005.9590,E,0.00,206.85,270119,,,D*6B
$GPVTG,206.85,T,,M,0.00,N,0.00,K,D*31
$PM
TKLOG,0,1,a,31,15,0,0,1,0,0*11
$PMTK001,183,3*3A
$PMTK869,2,1*36

$GPGGA,122147.000,5212.0838,N,
00005.9590,E,2,07,1.23,7.7,M,47.0,M,0000,0000*6F
$GPGSA,A,3,24,15,21,30,05,28,13,,,,,,2.19,1.23,1.82
*0C
$GPGSV,3,1,11,13,79,298,42,28,49,107,40,30,43,066,40,15,43,290,43*78
$GPGSV,3,2,11,05,41,191,44
,36,23,142,37,21,15,301,35,07,12,063,18*7D
$GPGSV,3,3,11,24,10,243,32,08,09,029,22,27,02,001,*46
$GPRMC
,122147.000,A,5212.0838,N,00005.9590,E,0.00,117.88,270119,,,D*64
$GPVTG,117.88,T,,M,0.00,N,0.01,K,D*3E

$PMTKLOG,0,1,a,31,15,0,0,1,0,0*11
$PMTK001,183,3*3A
$PMTK869,2,1*36

$GPGGA,122148.000,5212.0838,N,00005.9590,E,2,07,1.22,7.7,M,47.0,M,0000,0000*61
$GPGSA,A,3,24,15,21,30,05
,28,13,,,,,,2.19,1.22,1.82*0D
$GPRMC,122148.000,A,5212.0838,N,00005.9590,E,0.01,268.15,270119,,,D*65
$
GPVTG,268.15,T,,M,0.01,N,0.02,K,D*33
$PMTKLOG,0,1,a,31,15,0,0,1,0,0*11
$PMTK001,183,3*3A
$PMTK869,2
,1*36

$GPGGA,122149.000,5212.08
38,N,00005.9590,E,2,07,1.23,7.7,M,47.0,M,0000,0000*61
$GPGSA,A,3,24,15,21,30,05,28,13,,,,,,2.20,1.23,1.8
2*06
$GPRMC,122149.000,A,5212.0838,N,00005.9590,E,0.02,279.98,270119,,,D*62
$GPVTG,279.98,T,,M,0.02,N,0
.03,K,D*34
$PMTKLOG,0,1,a,31,15,0,0,1,0,0*11
$PMTK001,183,3*3A
$PMTK869,2,1*36

$GPGGA,122150.000,5212.0838,N,00005.959
0,E,2,07,1.22,7.7,M,47.0,M,0000,0000*68
$GPGSA,A,3,24,15,21,30,05,28,13,,,,,,2.19,1.22,1.82*0D
$GPRMC,1
22150.000,A,5212.0838,N,00005.9590,E,0.01,274.89,270119,,,D*64
$GPVTG,274.89,T,,M,0.01,N,0.02,K,D*3B
$P
MTKLOG,0,1,a,31,15,0,0,1,0,0*11
$PMTK001,183,3*3A
$PMTK869,2,1*36

$GPGGA,122151.000,5212.0838,N,00005.9590,E,2,07,1.22,7.7,M,47.0,M,0000,0000*69
$GPGSA,A
,3,24,15,21,30,05,28,13,,,,,,2.19,1.22,1.82*0D
$GPRMC,122151.000,A,5212.0838,N,00005.9590,E,0.02,282
.92,270119,,,D*65
$GPVTG,282.92,T,,M,0.02,N,0.03,K,D*3A
$PMTKLOG,0,1,a,31,15,0,0,1,0,0*11
$PMTK001,183
,3*3A
$PMTK869,2,1*36

$GPGGA,122152.000,5212.0838,N,000
05.9590,E,2,07,1.23,7.7,M,47.0,M,0000,0000*6B
$GPGSA,A,3,24,15,21,30,05,28,13,,,,,,2.19,1.23,1.82*0C

$GPGSV,3,1,11,13,79,298,40,28,49,107,39,30,43,066,40,15,43,290,42*75
$GPGSV,3,2,11,05,41,190,43,36,23,142,
36,21,15,301,33,07,11,063,17*70
$GPGSV,3,3,11,24,10,243,31,08,09,028,21,27,02,001,*47
$GPRMC,122152
.000,A,5212.0838,N,00005.9590,E,0.00,182.86,270119,,,D*62
$GPVTG,182.86,T,,M,0.00,N,0.00,K,D*3D
$PMT
KLOG,0,1,a,31,15,0,0,1,0,0*11
$PMTK001,183,3*3A
$PMTK869,2,1*36

$GPGGA,122153.000,5212.0838,N,00005.9590,E,2,07,1.23,7.7,M,47.0,M,0000,0000*6A
$GPGSA,A,3,24,15,21,30,05,28,13,,,,,,2.19,1.23,1.8
2*0C
$GPRMC,122153.000,A,5212.0838,N,00005.9590,E,0.00,100.84,270119,,,D*6B
$GPVTG,100.84,T,,M,0.00,N,0
.01,K,D*34
$PMTKLOG,0,1,a,31,15,0,0,1,0,0*11
$PMTK001,183,3*3A
$PMTK869,2,1*36

$GPGGA,122154.000,5212.0838,N,00005.9590,E,2,07,1.22,7.7,M,47.0,M,0000,0000*6C
$GPGSA,A,3,24,15,21,30,
05,28,13,,,,,,2.19,1.22,1.82*0D
$GPRMC,122154.000,A,5212.0838,N,00005.9590,E,0.00,289.07,270119,,,D*65

$GPVTG,289.07,T,,M,0.00,N,0.00,K,D*3C
$PMTKLOG,0,1,a,31,15,0,0,1,0,0*11
$PMTK001,183,3*3A
$PMTK869,2,1
*36

$GPGGA,122155.000,5212.0838,N,00005.
9590,E,2,07,1.22,7.7,M,47.0,M,0000,0000*6D
$GPGSA,A,3,24,15,21,30,05,28,13,,,,,,2.19,1.22,1.82*0D
$
GPRMC,122155.000,A,5212.0838,N,00005.9590,E,0.04,0.09,270119,,,D*6D
$GPVTG,0.09,T,,M,0.04,N,0.08,K,D
*3D
$PMTKLOG,0,1,a,31,15,0,0,1,0,0*11
$PMTK001,183,3*3A
$PMTK869,2,1*36

$GPGGA,122156.000,5212.0838,N,
00005.9590,E,2,07,1.22,7.7,M,47.0,M,0000,0000*6E
$GPGSA,A,3,24,15,21,30,05,28,13,,,,,,2.19,1.22,1.82*0D

$GPRMC,122156.000,A,5212.0838,N,00005.9590,E,0.01,18.92,270119,,,D*50
$GPVTG,18.92,T,,M,0.01,N,0.02,K,D
*09
$PMTKLOG,0,1,a,31,15,0,0,1,0,0*11
$PMTK001,183,3*3A
$PMTK869,2,1*36

$GPGGA,122157.000,5212.0838,N,00005.9590,E,2,07,1.22,7.7,M,47.0,M,0000,0000*6F
$GPG
SA,A,3,24,15,21,30,05,28,13,,,,,,2.19,1.22,1.82*0D
$GPGSV,3,1,11,13,80,298,40,28,49,107,40,30,43,066,40,
15,43,290,42*7D
$GPGSV,3,2,11,05,41,190,43,36,23,142,37,21,15,301,33,07,11,063,17*71
$GPGSV,3,3,11,24,1
0,243,31,08,09,028,21,27,02,001,*47
$GPRMC,122157.000,A,5212.0838,N,00005.9590,E,0.01,8.44,270119,,,
D*6B
$GPVTG,8.44,T,,M,0.01,N,0.01,K,D*30
$PMTKLOG,0,1,a,31,15,0,0,1,0,0*11
$PMTK001,183,3*3A
$PMTK869
,2,1*36

$GPGGA,122158.000,5212.0838,N,00005.9591,E
,2,07,1.22,7.8,M,47.0,M,0000,0000*6E
$GPGSA,A,3,24,15,21,30,05,28,13,,,,,,2.19,1.22,1.82*0D
$GPRMC,1221
58.000,A,5212.0838,N,00005.9591,E,0.00,22.85,270119,,,D*51
$GPVTG,22.85,T,,M,0.00,N,0.01,K,D*04
$PMTKLO
G,0,1,a,31,15,0,0,1,0,0*11
$PMTK001,183,3*3A
$PMTK869,2,1*36

$GPGGA,122159.000,5212.0837,N,0000
5.9591,E,2,07,1.22,7.9,M,47.0,M,0000,0000*61
$GPGSA,A,3,24,15,21,30,05,28,13,,,,,,2.19,1.22,1.82*0D
$GPRMC,
122159.000,A,5212.0837,N,00005.9591,E,0.00,313.98,270119,,,D*62
$GPVTG,313.98,T,,M,0.00,N,0.01,K
,D*39
$PMTKLOG,0,1,a,31,15,0,0,1,0,0*11
$PMTK001,183,3*3A
$PMTK869,2,1*36

$GPGGA,122200.000,5212.0837,N,00005.9592,E,2,07,1.22,8.2,M,47.0,M,0000,0000*69
$GPGSA,A,3
,24,15,21,30,05,28,13,,,,,,2.19,1.22,1.82*0D
$GPRMC,122200.000,A,5212.0837,N,00005.9592,E,0.00,22.60,270119,,,D*58

$GPVTG,22.60,T,,M,0.00,N,0.01,K,D*0F
$PMTKLOG,0,1,a,31,15,0,0,1,0,0*11
$PMTK001,183,3*3
A
$PMTK869,2,1*36

$GPGGA,12
2201.000,5212.0837,N,00005.9592,E,2,07,1.22,8.2,M,47.0,M,0000,0000*68
$GPGSA,A,3,24,15,21,30,05,28,13,,,
,,,2.19,1.22,1.82*0D
$GPRMC,122201.000,A,5212.0837,N,00005.9592,E,0.00,319.42,270119,,,D*62
$GPVTG,319.
42,T,,M,0.00,N,0.00,K,D*35
$PMTKLOG,0,1,a,31,15,0,0,1,0,0*11
$PMTK001,183,3*3A
$PMTK869,2,1*36

$GPGGA,122202.000,5212.0837,N,00005.9592,E,
2,07,1.22,8.2,M,47.0,M,0000,0000*6B
$GPGSA,A,3,24,15,21,30,05,28,13,,,,,,2.19,1.22,1.82*0D
$GPGSV,3
,1,11,13,80,298,41,28,49,107,40,30,43,066,40,15,43,290,42*7C
$GPGSV,3,2,11,05,41,190,43,36,23,142,37,21,15,3
01,34,07,11,063,16*77
$GPGSV,3,3,11,24,10,243,32,08,09,028,20,27,02,001,*45
$GPRMC,122202.000,A,5212.08
37,N,00005.9592,E,0.00,112.24,270119,,,D*68
$GPVTG,112.24,T,,M,0.00,N,0.01,K,D*3D
$PMTKLOG,0,1,a,31
,15,0,0,1,0,0*11
$PMTK001,183,3*3A
$PMTK869,2,1*36

$GPGGA,122203.000,5212.0837,N,00005.9592,E,2,07,1.22,8.2,M,47.0,M,0000,0000*6A
$GPGSA,A,3,24,15,21,30,05,28,13,,,,,,2.19,1.22,1.82*0D
$GPRMC,122203.000,A,5212.0837,
N,00005.9592,E,0.00,171.48,270119,,,D*66
$GPVTG,171.48,T,,M,0.00,N,0.01,K,D*32
$PMTKLOG,0,1,a,31,15,0,0
,1,0,0*11
$PMTK001,183,3*3A
$PMTK869,2,1*36

$GPGGA,122204.000,5212.0837,N,0000
5.9592,E,2,07,1.23,8.2,M,47.0,M,0000,0000*6C
$GPGSA,A,3,24,15,21,30,05,28,13,,,,,,2.19,1.23,1.82*0C

$GPRMC,122204.000,A,5212.0837,N,00005.9592,E,0.00,83.22,270119,,,D*51
$GPVTG,83.22,T,,M,0.00,N,0.01,K,D
*02
$PMTKLOG,0,1,a,31,15,0,0,1,0,0*11
$PMTK001,183,3*3A
$PMTK869,2,1*36

$GPGGA,122205.000,5212.
0837,N,00005.9592,E,2,07,1.22,8.2,M,47.0,M,0000,0000*6C
$GPGSA,A,3,24,15,21,30,05,28,13,,,,,,2.19,1.22,1
.82*0D
$GPRMC,122205.000,A,5212.0837,N,00005.9592,E,0.00,104.53,270119,,,D*68
$GPVTG,104.53,T,,M,0.
00,N,0.01,K,D*3A
$PMTKLOG,0,1,a,31,15,0,0,1,0,0*11
$PMTK001,183,3*3A
$PMTK869,2,1*36

$GPGGA,122206.000,5212.0837,N,00005.9592,E,
2,07,1.22,8.2,M,47.0,M,0000,0000*6F
$GPGSA,A,3,24,15,21,30,05,28,13,,,,,,2.19,1.22,1.82*0D
$GPRMC,122206.0
00,A,5212.0837,N,00005.9592,E,0.00,0.00,270119,,,D*68
$GPVTG,0.00,T,,M,0.00,N,0.00,K,D*38
$PMTKL
OG,0,1,a,31,15,0,0,1,0,0*11
$PMTK001,183,3*3A
$PMTK869,2,1*36

$GPGGA,122
207.000,5212.0837,N,00005.9592,E,2,07,1.22,8.2,M,47.0,M,0000,0000*6E
$GPGSA,A,3,24,15,21,30,05,28,13,
,,,,,2.19,1.22,1.82*0D
$GPGSV,3,1,11,13,80,298,41,28,49,107,40,30,43,066,40,15,43,290,43*7D
$GPGSV,3,2,
11,05,41,190,43,36,23,142,37,21,14,301,34,07,11,063,15*75
$GPGSV,3,3,11,24,10,243,30,08,09,028,21,27
,02,001,*46
$GPRMC,122207.000,A,5212.0837,N,00005.9592,E,0.02,352.55,270119,,,D*6F
$GPVTG,352.55,T,,M,0
.02,N,0.03,K,D*3D
$PMTKLOG,0,1,a,31,15,0,0,1,0,0*11
$PMTK001,183,3*3A
$PMTK869,2,1*36

$GPGGA,122208.000,5212.0837,N,00005.9592,E,2,07,1.22,8.2,M,47.0,M,0000,
0000*61
$GPGSA,A,3,24,15,21,30,05,28,13,,,,,,2.19,1.22,1.82*0D
$GPRMC,122208.000,A,5212.0837,N,00005.9592,E
,0.01,52.13,270119,,,D*52
$GPVTG,52.13,T,,M,0.01,N,0.01,K,D*0D
$PMTKLOG,0,1,a,31,15,0,0,1,0,0*11
$
PMTK001,183,3*3A
$PMTK869,2,1*36

$GPGGA,122209.000,5212.0837,N,00005.9592,E,2,07,1.22,8.2,M,47.0,M,0000,0000*60
$GPGSA,A,3,24,15,21,
30,05,28,13,,,,,,2.19,1.22,1.82*0D
$GPRMC,122209.000,A,5212.0837,N,00005.9592,E,0.01,292.25,270119,,,D*6
8
$GPVTG,292.25,T,,M,0.01,N,0.01,K,D*36
$PMTKLOG,0,1,a,31,15,0,0,1,0,0*11
$PMTK001,183,3*3A
$PMTK869,
2,1*36

$GPGGA,122210.000,5212.08
37,N,00005.9592,E,2,07,1.23,8.2,M,47.0,M,0000,0000*69
$GPGSA,A,3,24,15,21,30,05,28,13,,,,,,2.19,
1.23,1.82*0C
$GPRMC,122210.000,A,5212.0837,N,00005.9592,E,0.00,351.10,270119,,,D*69
$GPVTG,351.10,T
,,M,0.00,N,0.01,K,D*3F
$PMTKLOG,0,1,a,31,15,0,0,1,0,0*11
$PMTK001,183,3*3A
$PMTK869,2,1*36

$GPGGA,122211.000,5212.0837,N,00
005.9592,E,2,07,1.22,8.2,M,47.0,M,0000,0000*69
$GPGSA,A,3,24,15,21,30,05,28,13,,,,,,2.19,1.22,1.82*0D
$
GPRMC,122211.000,A,5212.0837,N,00005.9592,E,0.01,6.16,270119,,,D*6E
$GPVTG,6.16,T,,M,0.01,N,0.02,K,D
*3A
$PMTKLOG,0,1,a,31,15,0,0,1,0,0*11
$PMTK001,183,3*3A
$PMTK869,2,1*36

$GPGGA,122212.000,5212.0837,N,00005.9592,E,2,07,1.22,8.2,M,47.0,M,0000,0000*6A
$GPGS
A,A,3,24,15,21,30,05,28,13,,,,,,2.19,1.22,1.82*0D
$GPGSV,3,1,11,13,80,298,39,28,49,107,38,30,43,066,38,1
5,43,290,41*70
$GPGSV,3,2,11,05,41,190,41,36,23,142,35,21,14,301,32,07,11,063,15*73
$GPGSV,3,3,11,24,10
,243,29,08,09,028,23,27,02,001,*4C
$GPRMC,122212.000,A,5212.0837,N,00005.9592,E,0.01,8.94,270119,,,D*69

$GPVTG,8.94,T,,M,0.01,N,0.02,K,D*3E
$PMTKLOG,0,1,a,31,15,0,0,1,0,0*11
$PMTK001,183,3*3A
$PMTK869,
2,1*36

$GPGGA,122213.000,5212.0837,N,00005
.9592,E,2,07,1.22,8.2,M,47.0,M,0000,0000*6B
$GPGSA,A,3,24,15,21,30,05,28,13,,,,,,2.19,1.22,1.82*0D

$GPRMC,122213.000,A,5212.0837,N,00005.9592,E,0.00,152.79,270119,,,D*64
$GPVTG,152.79,T,,M,0.00,N,0.01,K,D*31

$PMTKLOG,0,1,a,31,15,0,0,1,0,0*11
$PMTK001,183,3*3A
$PMTK869,2,1*36

$GPGGA,122214.000,5212.0837,N,00005.9592,E,2,07,1.22,8.2,M,47.0,M,0000,0000*6C
$GPGSA,A,3,2
4,15,21,30,05,28,13,,,,,,2.19,1.22,1.82*0D
$GPRMC,122214.000,A,5212.0837,N,00005.9592,E,0.00,0.00,27
0119,,,D*6B
$GPVTG,0.00,T,,M,0.00,N,0.00,K,D*38
$PMTKLOG,0,1,a,31,15,0,0,1,0,0*11
$PMTK001,183,3*3A
$
PMTK869,2,1*36

$GPGGA,122215.000,5212.0837,N,00005.9592,E,2,07,1.23,8.2,M,47.0,M,0000,0000*6C
$GPGSA,A,3,24,15
,21,30,05,28,13,,,,,,2.20,1.23,1.82*06
$GPRMC,122215.000,A,5212.0837,N,00005.9592,E,0.00,57.51,270119,,
,D*5C
$GPVTG,57.51,T,,M,0.00,N,0.00,K,D*0E
$PMTKLOG,0,1,a,31,15,0,0,1,0,0*11
$PMTK001,183,3*3A
$PMTK8
69,2,1*36

$GPGGA,122216.000,5212.0
837,N,00005.9592,E,2,07,1.22,8.2,M,47.0,M,0000,0000*6E
$GPGSA,A,3,24,15,21,30,05,28,13,,,,,,2.19,1.2
2,1.82*0D
$GPRMC,122216.000,A,5212.0837,N,00005.9592,E,0.00,272.29,270119,,,D*65
$GPVTG,272.29,T,,M,0.0
0,N,0.00,K,D*34
$PMTKLOG,0,1,a,31,15,0,0,1,0,0*11
$PMTK001,183,3*3A
$PMTK869,2,1*36

$GPGGA,122217.000,5212.
0837,N,00005.9592,E,2,07,1.22,8.2,M,47.0,M,0000,0000*6F
$GPGSA,A,3,24,15,21,30,05,28,13,,,,,,2.19,1.22,1
.82*0D
$GPGSV,3,1,11,13,80,298,41,28,49,107,40,30,43,066,40,15,43,290,43*7D
$GPGSV,3,2,11,05,41,190,
43,36,23,142,37,21,14,301,34,07,11,063,16*76
$GPGSV,3,3,11,24,10,243,30,08,09,028,23,27,02,001,*44
$GPR
MC,122217.000,A,5212.0837,N,00005.9592,E,0.00,215.91,270119,,,D*66
$GPVTG,215.91,T,,M,0.00,N,0.01,K,
D*37
$PMTKLOG,0,1,a,31,15,0,0,1,0,0*11
$PMTK001,183,3*3A
$PMTK869,2,1*36

$GPGGA,122218.000,5212.0837,N,00005.9592,E,2,07,1.22,8.2,M,47.0,M,0000,0000*60
$GPGSA,A,3,24,15,21,30,05,28,13,,,,,,2.19,1.22,1.82*0D
$GPRMC,122218.000,A,5212.0837
,N,00005.9592,E,0.00,335.58,270119,,,D*6F
$GPVTG,335.58,T,,M,0.00,N,0.00,K,D*30
$PMTKLOG,0,1,a,
31,15,0,0,1,0,0*11
$PMTK001,183,3*3A
$PMTK869,2,1*36

$GPGGA,122219.000,5212.0837,N,0000
5.9592,E,2,07,1.22,8.2,M,47.0,M,0000,0000*61
$GPGSA,A,3,24,15,21,30,05,28,13,,,,,,2.19,1.22,1.82*0D
$GP
RMC,122219.000,A,5212.0837,N,00005.9592,E,0.02,11.22,270119,,,D*54
$GPVTG,11.22,T,,M,0.02,N,0.04,K,D*0E

$PMTKLOG,0,1,a,31,15,0,0,1,0,0*11
$PMTK001,183,3*3A
$PMTK869,2,1*36

$GPGGA,122220.000,52
12.0837,N,00005.9592,E,2,07,1.22,8.2,M,47.0,M,0000,0000*6B
$GPGSA,A,3,24,15,21,30,05,28,13,,,,,,2.19,1.2
2,1.82*0D
$GPRMC,122220.000,A,5212.0837,N,00005.9592,E,0.00,19.44,270119,,,D*54
$GPVTG,19.44,T,,M,0.00,
N,0.01,K,D*01
$PMTKLOG,0,1,a,31,15,0,0,1,0,0*11
$PMTK001,183,3*3A
$PMTK869,2,1*36

$GPGG
A,122221.000,5212.0837,N,00005.9592,E,2,07,1.22,8.2,M,47.0,M,0000,0000*6A
$GPGSA,A,3,24,15,21,30
,05,28,13,,,,,,2.20,1.22,1.82*07
$GPRMC,122221.000,A,5212.0837,N,00005.9592,E,0.00,272.92,270119,,,D*61

$GPVTG,272.92,T,,M,0.00,N,0.00,K,D*34
$PMTKLOG,0,1,a,31,15,0,0,1,0,0*11
$PMTK001,183,3*3A
$PMTK869,2,
1*36

$GPGGA,122222.000,5212.0837,N,
00005.9592,E,2,07,1.22,8.2,M,47.0,M,0000,0000*69
$GPGSA,A,3,24,15,21,30,05,28,13,,,,,,2.19,1.22,1.82*0D

$GPGSV,3,1,11,13,80,298,42,28,49,107,40,30,43,066,40,15,43,290,43*7E
$GPGSV,3,2,11,05,41,190,44,36,23,1
42,38,21,14,301,35,07,11,063,19*70
$GPGSV,3,3,11,24,10,243,32,08,09,028,24,27,02,001,*41
$GPRMC,122222.
000,A,5212.0837,N,00005.9592,E,0.00,56.06,270119,,,D*5B
$GPVTG,56.06,T,,M,0.00,N,0.00,K,D*0D
$PMTKLOG,0,1,a
,31,15,0,0,1,0,0*11
$PMTK001,183,3*3A
$PMTK869,2,1*36

$GPGGA,122223.000,5212.0837,N,00005.9592,E,2,07,1.22,8.2,M,47.0,M,0000,0000*68
$GPGSA,A,3,24,15,21,30,05,28,13,,,,,,2.19,1.22,1.82*0D
$GPRMC,122223.000,A,5212.0837,N,00
005.9592,E,0.00,20.13,270119,,,D*5F
$GPVTG,20.13,T,,M,0.00,N,0.01,K,D*09
$PMTKLOG,0,1,a,31,15,0,0,1,0,0
*11
$PMTK001,183,3*3A
$PMTK869,2,1*36

$GPGGA,122224.000,5212.0837,N,00005.9592,E,2,07,1.22,8.2,M,47.0,M,0000,0000*6F
$GPGSA,A,3,24,15,21,30
,05,28,13,,,,,,2.19,1.22,1.82*0D
$GPRMC,122224.000,A,5212.0837,N,00005.9592,E,0.01,124.86,270119,,,D*
60
$GPVTG,124.86,T,,M,0.01,N,0.02,K,D*32
$PMTKLOG,0,1,a,31,15,0,0,1,0,0*11
$PMTK001,183,3*3A
$PMTK869
,2,1*36

$GPGGA,122225.000,5212.0837,N,00005.9592,E,2,
07,1.22,8.2,M,47.0,M,0000,0000*6E
$GPGSA,A,3,24,15,21,30,05,28,13,,,,,,2.19,1.22,1.82*0D
$GPRMC
,122225.000,A,5212.0837,N,00005.9592,E,0.01,144.86,270119,,,D*67
$GPVTG,144.86,T,,M,0.01,N,0.02,K,D*
34
$PMTKLOG,0,1,a,31,15,0,0,1,0,0*11
$PMTK001,183,3*3A
$PMTK869,2,1*36

$GPGGA,122226.000,5212.0837,N
,00005.9592,E,2,07,1.22,8.2,M,47.0,M,0000,0000*6D
$GPGSA,A,3,24,15,21,30,05,28,13,,,,,,2.19,1.22,1.8
2*0D
$GPRMC,122226.000,A,5212.0837,N,00005.9592,E,0.00,114.68,270119,,,D*60
$GPVTG,114.68,T,,M,0.00,N,0.01,
K,D*33
$PMTKLOG,0,1,a,31,15,0,0,1,0,0*11
$PMTK001,183,3*3A
$PMTK869,2,1*36

$GPGGA,1222
27.000,5212.0837,N,00005.9592,E,2,07,1.22,8.2,M,47.0,M,0000,0000*6C
$GPGSA,A,3,24,15,21,30,05,28,13,
,,,,,2.19,1.22,1.82*0D
$GPGSV,3,1,11,13,80,298,42,28,49,107,40,30,43,066,41,15,43,290,43*7F
$GPGSV,3,2,11,0
5,41,190,43,36,23,142,37,21,14,301,35,07,11,063,19*78
$GPGSV,3,3,11,24,10,243,32,08,09,028,25,27,02,
001,*40
$GPRMC,122227.000,A,5212.0837,N,00005.9592,E,0.00,123.92,270119,,,D*60
$GPVTG,123.92,T,,M,0.
00,N,0.00,K,D*33
$PMTKLOG,0,1,a,31,15,0,0,1,0,0*11
$PMTK001,183,3*3A
$PMTK869,2,1*36

$GPGGA,122228.000,5212.0837,N,00005.9592,E,2,07,1.22,8.2,M,47.0,M,0000,0000*63
$GPGSA,A,3,24,15,21,30,05,28,13,,,,,,2.19,1.22,1.82*0D
$GPRMC,122228.000,A,5212.0837,N,0000
5.9592,E,0.00,177.86,270119,,,D*6B
$GPVTG,177.86,T,,M,0.00,N,0.01,K,D*36
$PMTKLOG,0,1,a,31,15,0,0,1,0,0*11
$PM
TK001,183,3*3A
$PMTK869,2,1*36

$GPGGA,122229.000,5212.0837,N,00005.9592,E,2,07,1.22,8.2,M,47.0,M,0000,000
0*62
$GPGSA,A,3,24,15,21,30,05,28,13,,,,,,2.19,1.22,1.82*0D
$GPRMC,122229.000,A,5212.0837,N,
00005.9592,E,0.01,61.02,270119,,,D*51
$GPVTG,61.02,T,,M,0.01,N,0.01,K,D*0D
$PMTKLOG,0,1,a,31,15,0,0,1,0,0*
11
$PMTK001,183,3*3A
$PMTK869,2,1*36

$GPGGA,122230.000,5212.0837,N,00005.9592,E,2,07,1.22,8.2,M,47.0,M,0000,0000*6A
$GPGSA,A,3,24,15,21,
30,05,28,13,,,,,,2.19,1.22,1.82*0D
$GPRMC,122230.000,A,5212.0837,N,00005.9592,E,0.00,258.72,270119,,
,D*67
$GPVTG,258.72,T,,M,0.00,N,0.01,K,D*33
$PMTKLOG,0,1,a,31,15,0,0,1,0,0*11
$PMTK001,183,3*3A
$PMTK869,
2,1*36

$GPGGA,122231.000,521
2.0837,N,00005.9592,E,2,07,1.22,8.2,M,47.0,M,0000,0000*6B
$GPGSA,A,3,24,15,21,30,05,28,13,,,,,,2.19,1.22,
1.82*0D
$GPRMC,122231.000,A,5212.0837,N,00005.9592,E,0.01,154.70,270119,,,D*6A
$GPVTG,154.70,T,,M,0
.01,N,0.02,K,D*3C
$PMTKLOG,0,1,a,31,15,0,0,1,0,0*11
$PMTK001,183,3*3A
$PMTK869,2,1*36

$GPGGA,122232.000,5212.0837,N,00005.9592,
E,2,07,1.22,8.2,M,47.0,M,0000,0000*68
$GPGSA,A,3,24,15,21,30,05,28,13,,,,,,2.19,1.22,1.82*0D
$GPGSV,3,1
,11,13,80,298,41,28,49,107,40,30,43,066,40,15,43,290,43*7D
$GPGSV,3,2,11,05,41,190,43,36,23,142,36,21,14,
301,34,07,11,063,21*73
$GPGSV,3,3,11,24,10,243,31,08,09,028,25,27,02,001,*43
$GPRMC,122232.000,A,5212.
0837,N,00005.9592,E,0.00,182.38,270119,,,D*6F
$GPVTG,182.38,T,,M,0.00,N,0.00,K,D*38
$PMTKLOG,0,1,a,3
1,15,0,0,1,0,0*11
$PMTK001,183,3*3A
$PMTK869,2,1*36

$GPGGA,122233.000,5212.0837,N,00005.9592,E,2,07,1.22,8.2,M,47.0,M,0000,0000*69
$GPGSA,A,3,24,15,21,30,05,28,13,,,,,,2.19,1.22,1.82*0D
$GPRMC,122233.000,A,5212.0837,N,00005.95
92,E,0.00,0.00,270119,,,D*6E
$GPVTG,0.00,T,,M,0.00,N,0.00,K,D*38
$PMTKLOG,0,1,a,31,15,0,0,1,0,0*11

$PMTK001,183,3*3A
$PMTK869,2,1*36

$GPGGA,122234.000,5212.0837,N,00005.9592,E,
2,07,1.22,8.2,M,47.0,M,0000,0000*6E
$GPGSA,A,3,24,15,21,30,05,28,13,,,,,,2.19,1.22,1.82*0D
$GPR
MC,122234.000,A,5212.0837,N,00005.9592,E,0.00,303.79,270119,,,D*67
$GPVTG,303.79,T,,M,0.00,N,0.00,K,D*36

$PMTKLOG,0,1,a,31,15,0,0,1,0,0*11
$PMTK001,183,3*3A
$PMTK869,2,1*36

$GPGGA,122235.000,5212.0837,N,00005.9592,E,2,07,1.22,8.2,M,47.0,M,0000,0000*6F
$GPGSA,A,3,24,15,21,
30,05,28,13,,,,,,2.19,1.22,1.82*0D
$GPRMC,122235.000,A,5212.0837,N,00005.9592,E,0.00,84.94,270119,,,D*59

$GPVTG,84.94,T,,M,0.00,N,0.01,K,D*08
$PMTKLOG,0,1,a,31,15,0,0,1,0,0*11
$PMTK001,183,3*3A
$PMTK869,2,
1*36

$GPGGA,122236.000,5212.0837,N,00005.9592,E,2,07,1.22,8.2,M,47.0,M,0000,0000*6C
$GPGSA,A,3,24,
15,21,30,05,28,13,,,,,,2.19,1.22,1.82*0D
$GPRMC,122236.000,A,5212.0837,N,00005.9592,E,0.02,131.2
6,270119,,,D*6E
$GPVTG,131.26,T,,M,0.02,N,0.04,K,D*39
$PMTKLOG,0,1,a,31,15,0,0,1,0,0*11
$PMTK001,183,3
*3A
$PMTK869,2,1*36

$GPGGA,122237.000,5212.0837,N
,00005.9592,E,2,07,1.22,8.2,M,47.0,M,0000,0000*6D
$GPGSA,A,3,24,15,21,30,05,28,13,,,,,,2.19,1.22,1.82*0D

$GPGSV,3,1,11,13,80,299,40,28,49,107,39,30,43,066,39,15,43,290,41*7F
$GPGSV,3,2,11,05,41,190,42,36
,23,142,36,21,14,301,33,07,11,063,21*75
$GPGSV,3,3,11,24,10,243,29,08,09,028,23,27,02,001,*4C
$GPRMC,12
2237.000,A,5212.0837,N,00005.9592,E,0.02,85.65,270119,,,D*56
$GPVTG,85.65,T,,M,0.02,N,0.03,K,D*07
$PMTK
LOG,0,1,a,31,15,0,0,1,0,0*11
$PMTK001,183,3*3A
$PMTK869,2,1*36

$GPGGA,122238.000,5212.0837,N,00005.9592,E,2,07,1.22,8.2,M,47.0,M,0000,0000*62
$GPGSA,A,3,24,15,21,30,05,28,13,,,,,,2.19,1.22,1.82*0D
$GPRMC,122238.000,A,5212.0837,N,00005.9592,E,0.02,1
07.89,270119,,,D*60
$GPVTG,107.89,T,,M,0.02,N,0.03,K,D*3E
$PMTKLOG,0,1,a,31,15,0,0,1,0,0*11
$PMTK001,183,3
*3A
$PMTK869,2,1*36

$GPGGA,122239.000,5212.0837,N,00005.9592,E,2,07,1.22,8.2,M,47.0,M,0000,0000*63
$GPGSA,A,3,24
,15,21,30,05,28,13,,,,,,2.19,1.22,1.82*0D
$GPRMC,122239.000,A,5212.0837,N,00005.9592,E,0.02,108.54,2
70119,,,D*6E
$GPVTG,108.54,T,,M,0.02,N,0.04,K,D*36
$PMTKLOG,0,1,a,31,15,0,0,1,0,0*11
$PMTK001,183,3*3A
$P
MTK869,2,1*36

$GPGGA,122240.000,5212.0837,N,00005.9592,E,2,07,1.22,8.2,M,47.0,M,0
000,0000*6D
$GPGSA,A,3,24,15,21,30,05,28,13,,,,,,2.19,1.22,1.82*0D
$GPRMC,122240.000,A,5212.0837,N,0000
5.9592,E,0.01,286.42,270119,,,D*61
$GPVTG,286.42,T,,M,0.01,N,0.01,K,D*32
$PMTKLOG,0,1,a,31,15,0,0,1,0,0
*11
$PMTK001,183,3*3A
$PMTK869,2,1*36

$GPGGA,122241.000,5212.0837,N,00005.95
92,E,2,07,1.22,8.2,M,47.0,M,0000,0000*6C
$GPGSA,A,3,24,15,21,30,05,28,13,,,,,,2.19,1.22,1.82*0D
$GP
RMC,122241.000,A,5212.0837,N,00005.9592,E,0.01,290.11,270119,,,D*61
$GPVTG,290.11,T,,M,0.01,N,0.02,K
,D*30
$PMTKLOG,0,1,a,31,15,0,0,1,0,0*11
$PMTK001,183,3*3A
$PMTK869,2,1*36

$GPGGA,122242.000,5212.0837,N,00005.9592,E,2,07,1.22,8.2,M,47.0,M,0000,0000*6F

$GPGSA,A,3,24,15,21,30,05,28,13,,,,,,2.19,1.22,1.82*0D
$GPGSV,3,1,11,13,80,299,40,28,49,107,39,30,
43,066,38,15,43,290,41*7E
$GPGSV,3,2,11,05,41,190,42,36,23,142,36,21,14,300,32,07,11,063,22*76
$GPGSV,3,
3,11,24,10,243,29,08,09,028,24,27,02,001,*4B
$GPRMC,122242.000,A,5212.0837,N,00005.9592,E,0.01,294.27,27
0119,,,D*63
$GPVTG,294.27,T,,M,0.01,N,0.02,K,D*31
$PMTKLOG,0,1,a,31,15,0,0,1,0,0*11
$PMTK001,183,3
*3A
$PMTK869,2,1*36

$GPGGA,122243.000,5212.08
37,N,00005.9592,E,2,07,1.22,8.2,M,47.0,M,0000,0000*6E
$GPGSA,A,3,24,15,21,30,05,28,13,,,,,,2.19,1.22,1.8
2*0D
$GPRMC,122243.000,A,5212.0837,N,00005.9592,E,0.02,342.76,270119,,,D*6F
$GPVTG,342.76,T,,M,0.02,
N,0.04,K,D*3A
$PMTKLOG,0,1,a,31,15,0,0,1,0,0*11
$PMTK001,183,3*3A
$PMTK869,2,1*36

$GPGGA,122244.000,5212
.0837,N,00005.9592,E,2,07,1.22,8.2,M,47.0,M,0000,0000*69
$GPGSA,A,3,24,15,21,30,05,28,13,,,,,,2.19,1.22,
1.82*0D
$GPRMC,122244.000,A,5212.0837,N,00005.9592,E,0.01,12.86,270119,,,D*52
$GPVTG,12.86,T,,M,0.0
1,N,0.01,K,D*05
$PMTKLOG,0,1,a,31,15,0,0,1,0,0*11
$PMTK001,183,3*3A
$PMTK869,2,1*36

$GPGGA,122245.000,5212.0837,N,00005.9
592,E,2,07,1.22,8.2,M,47.0,M,0000,0000*68
$GPGSA,A,3,24,15,21,30,05,28,13,,,,,,2.19,1.22,1.82*0D
$GPRMC
,122245.000,A,5212.0837,N,00005.9592,E,0.00,23.52,270119,,,D*59
$GPVTG,23.52,T,,M,0.00,N,0.01,K,D*0F
$P
MTKLOG,0,1,a,31,15,0,0,1,0,0*11
$PMTK001,183,3*3A
$PMTK869,2,1*36

$GPGGA,122246.000,5212.0837,N,00005.9592,E,2,07,1.22,8.2,M,47.0,M,0000,0000*6B
$GPGSA,A,3,
24,15,21,30,05,28,13,,,,,,2.19,1.22,1.82*0D
$GPRMC,122246.000,A,5212.0837,N,00005.9592,E,0.00,56.70,2701
19,,,D*58
$GPVTG,56.70,T,,M,0.00,N,0.01,K,D*0D
$PMTKLOG,0,1,a,31,15,0,0,1,0,0*11
$PMTK001,183,3*3A
$PMTK8
69,2,1*36

$GPGGA,122247.000,5212.083
7,N,00005.9592,E,2,07,1.22,8.3,M,47.0,M,0000,0000*6B
$GPGSA,A,3,24,15,21,30,05,28,13,,,,,,2.19,1.22,1.82
*0D
$GPGSV,3,1,11,13,80,299,41,28,49,107,39,30,43,066,39,15,43,290,42*7D
$GPGSV,3,2,11,05,41,190,43,36,
23,142,37,21,14,300,34,07,11,063,23*71
$GPGSV,3,3,11,24,10,244,30,08,09,028,24,27,02,001,*44
$GPRMC,122
247.000,A,5212.0837,N,00005.9592,E,0.01,184.60,270119,,,D*67
$GPVTG,184.60,T,,M,0.01,N,0.01,K,D*33

$PMTKLOG,0,1,a,31,15,0,0,1,0,0*11
$PMTK001,183,3*3A
$PMTK869,2,1*36

$GPGGA,122248.000,5212.0837,N,00005.9592,E,2,07,1.22,8.3,M,47.0,M,0000,0000*64
$GPGSA,A,3,24,15,21,30,05,28,13,,,,,,2.19,1.22,1.82*0D
$GPRMC,122248.000,A,5212.0837,N,00005.9592,E,0.00,0.00,270119,,,D*62
$GPVTG,0.00,T,,M,0.0
0,N,0.00,K,D*38
$PMTKLOG,0,1,a,31,15,0,0,1,0,0*11
$PMTK001,183,3*3A
$PMTK869,2,1*36

$GPGGA,122249.0
00,5212.0837,N,00005.9592,E,2,07,1.22,8.3,M,47.0,M,0000,0000*65
$GPGSA,A,3,24,15,21,30,05,28,13,,,,,,2.1
9,1.22,1.82*0D
$GPRMC,122249.000,A,5212.0837,N,00005.9592,E,0.00,162.12,270119,,,D*65
$GPVTG,162.12
,T,,M,0.00,N,0.00,K,D*3E
$PMTKLOG,0,1,a,31,15,0,0,1,0,0*11
$PMTK001,183,3*3A
$PMTK869,2,1*36

$GPGGA,122250.000,5212.0837,N,00005.9592,E,2,07,1.22,8.3,M,
47.0,M,0000,0000*6D
$GPGSA,A,3,24,15,21,30,05,28,13,,,,,,2.19,1.22,1.82*0D
$GPRMC,122250.000,A,5212.083
7,N,00005.9592,E,0.00,269.53,270119,,,D*60
$GPVTG,269.53,T,,M,0.00,N,0.00,K,D*33
$PMTKLOG,0,1,a,31,15,0
,0,1,0,0*11
$PMTK001,183,3*3A
$PMTK869,2,1*36

$GPGGA,122251
.000,5212.0837,N,00005.9592,E,2,07,1.22,8.3,M,47.0,M,0000,0000*6C
$GPGSA,A,3,24,15,21,30,05,28,13,,,,,,2.19
,1.22,1.82*0D
$GPRMC,122251.000,A,5212.0837,N,00005.9592,E,0.00,57.23,270119,,,D*59
$GPVTG,57.23
,T,,M,0.00,N,0.00,K,D*0B
$PMTKLOG,0,1,a,31,15,0,0,1,0,0*11
$PMTK001,183,3*3A
$PMTK869,2,1*36

$GPGGA,122252.000,5212.0837,N,00005.9592,E,2
,07,1.22,8.3,M,47.0,M,0000,0000*6F
$GPGSA,A,3,24,15,21,30,05,28,13,,,,,,2.19,1.22,1.82*0D
$GPGSV,3,1,11,13,80,299,42,28,50,107,40,30,43,066,41,15,43,290,43*76

$GPGSV,3,2,11,05,41,190,44,36,23,142,37,21,1
4,300,35,07,11,063,23*77
$GPGSV,3,3,11,24,10,244,30,08,09,028,24,27,02,001,*44
$GPRMC,122252.000,A,
5212.0837,N,00005.9592,E,0.01,52.85,270119,,,D*52
$GPVTG,52.85,T,,M,0.01,N,0.02,K,D*01
$PMTKLOG,0,1,a,3
1,15,0,0,1,0,0*11
$PMTK001,183,3*3A
$PMTK869,2,1*36

$GPGGA,122253.000,5212.0837,N,00005.9592,E,2,07,1.22,8.3,M,47.0,M,0000,0000*6E
$GPGSA,A,3,24,15,21,30,05,28,13,,,,,,2.19,1.22,1.82*0D
$GPRMC,122253.000,A,5212.0837,N,00005.9592,E,0.01,63.73,270119,,,D*58

$GPVTG,63.73,T,,M,0.01,N,0.02,K,D*0A
$PMTKLOG,0,1,a,31,15,0,0,1,0,0*11
$PMTK001,183,3*3A
$PMTK869,2,1
*36

$GPGGA,1
22254.000,5212.0837,N,00005.9592,E,2,07,1.22,8.3,M,47.0,M,0000,0000*69
$GPGSA,A,3,24,15,21,30,05,28,
13,,,,,,2.19,1.22,1.82*0D
$GPRMC,122254.000,A,5212.0837,N,00005.9592,E,0.02,65.98,270119,,,D*5F
$GPVTG,65.9
8,T,,M,0.02,N,0.03,K,D*0B
$PMTKLOG,0,1,a,31,15,0,0,1,0,0*11
$PMTK001,183,3*3A
$PMTK869,2,1*36

$GPGGA,122255.000,5212.0837,N,00005.95
92,E,2,07,1.22,8.3,M,47.0,M,0000,0000*68
$GPGSA,A,3,24,15,21,30,05,28,13,,,,,,2.19,1.22,1.82*0D
$GP
RMC,122255.000,A,5212.0837,N,00005.9592,E,0.00,0.14,270119,,,D*6B
$GPVTG,0.14,T,,M,0.00,N,0.00,K,D*3D
$
PMTKLOG,0,1,a,31,15,0,0,1,0,0*11
$PMTK001,183,3*3A
$PMTK869,2,1*36

$GPGGA
,122256.000,5212.0837,N,00005.9592,E,2,07,1.22,8.3,M,47.0,M,0000,0000*6B
$GPGSA,A,3,24,15,21,30,05,28,13
,,,,,,2.19,1.22,1.82*0D
$GPRMC,122256.000,A,5212.0837,N,00005.9592,E,0.00,306.26,270119,,,D*6C
$GPV
TG,306.26,T,,M,0.00,N,0.01,K,D*38
$PMTKLOG,0,1,a,31,15,0,0,1,0,0*11
$PMTK001,183,3*3A
$PMTK869,2,1*36


$GPGGA,122257.000,5212.0837,N,00005.95
92,E,2,07,1.22,8.3,M,47.0,M,0000,0000*6A
$GPGSA,A,3,24,15,21,30,05,28,13,,,,,,2.19,1.22,1.82*0D

$GPGSV,3,1,11,13,80,299,41,28,50,107,40,30,43,066,41,15,43,290,43*75
$GPGSV,3,2,11,05,41,190,43,36,23,1
42,36,21,14,300,34,07,11,063,21*72
$GPGSV,3,3,11,24,10,244,30,08,09,028,23,27,02,001,*43
$GPRMC,122257.
000,A,5212.0837,N,00005.9592,E,0.01,305.33,270119,,,D*6B
$GPVTG,305.33,T,,M,0.01,N,0.01,K,D*3E
$PMTKLOG
,0,1,a,31,15,0,0,1,0,0*11
$PMTK001,183,3*3A
$PMTK869,2,1*36

$GPGGA,122258.000,5212.0838,N,00005.9592,E,2,07,1.22,8.3,M,47.0,M,0000,0000*6A
$GPGSA,A,3,24,15,21,30,05,28,13,,,,,,2.19,1.22,1.82*0D
$GPRMC,122258.000,A,5212.0838,N,00005.9592,E,0.00,293.23,270119,,,D*65
$GPVTG,293.23,T,,M,0.00,
N,0.01,K,D*30
$PMTKLOG,0,1,a,31,15,0,0,1,0,0*11
$PMTK001,183,3*3A
$PMTK869,2,1*36

$GPGGA,122259.000,5212.0838,N,00005.9592,E,2,07,
1.22,8.3,M,47.0,M,0000,0000*6B
$GPGSA,A,3,24,15,21,30,05,28,13,,,,,,2.19,1.22,1.82*0D
$GPRMC,122259.000
,A,5212.0838,N,00005.9592,E,0.00,310.03,270119,,,D*6C
$GPVTG,310.03,T,,M,0.00,N,0.01,K,D*38
$PMTKLOG,0,
1,a,31,15,0,0,1,0,0*11
$PMTK001,183,3*3A
$PMTK869,2,1*36

$GPGGA,122300.000,5212.0838,N,00005.9592,E,2,07,1.22,8.3,M,47.0,M,0000,0000*66
$GPGSA,A,3,24,15,21,30,05
,28,13,,,,,,2.19,1.22,1.82*0D
$GPRMC,122300.000,A,5212.0838,N,00005.9592,E,0.00,38.66,270119,,,D*5B
$GP
VTG,38.66,T,,M,0.00,N,0.00,K,D*03
$PMTKLOG,0,1,a,31,15,0,0,1,0,0*11
$PMTK001,183,3*3A
$PMTK869,2,1
*36

$GPGGA,122301.000,5212.083
8,N,00005.9592,E,2,07,1.22,8.3,M,47.0,M,0000,0000*67
$GPGSA,A,3,24,15,21,30,05,28,13,,,,,,2.19,1.22,1
.82*0D
$GPRMC,122301.000,A,5212.0838,N,00005.9592,E,0.01,30.29,270119,,,D*58
$GPVTG,30.29,T,,M,0.01,N,0
.02,K,D*03
$PMTKLOG,0,1,a,31,15,0,0,1,0,0*11
$PMTK001,183,3*3A
$PMTK869,2,1*36

$GPGGA,122302.000,5212.0838,N,00005.9592,E,2,07,1.22,8.3
,M,47.0,M,0000,0000*64
$GPGSA,A,3,24,15,21,30,05,28,13,,,,,,2.19,1.22,1.82*0D
$GPGSV,3,1,11,13,80,2
99,39,28,50,107,38,30,43,066,39,15,43,290,41*78
$GPGSV,3,2,11,05,40,190,41,36,23,142,36,21,14,300,33
,07,11,063,21*76
$GPGSV,3,3,11,24,10,244,30,08,09,028,22,27,02,001,*42
$GPRMC,122302.000,A,5212.0838,N,0
0005.9592,E,0.01,69.67,270119,,,D*5D
$GPVTG,69.67,T,,M,0.01,N,0.01,K,D*06
$PMTKLOG,0,1,a,31,15,0,0,1,0,
0*11
$PMTK001,183,3*3A
$PMTK869,2,1*36

$GPGGA,122303.000,5212.0838,N,00005.9592,E,2,07,1.22,8.3,M,47.0,M,0000,0000*65
$GPGSA,A,3,24,15,21,30,05,28,13,,,,,,2.19,1.22,1.82*0D
$GPRMC,122303.000,A,5212.0838,N,000
05.9592,E,0.01,81.44,270119,,,D*5B
$GPVTG,81.44,T,,M,0.01,N,0.02,K,D*02
$PMTKLOG,0,1,a,31,15,0,0,1,0,0*11

$PMTK001,183,3*3A
$PMTK869,2,1*36

$GPGGA,122304.000,5212.0838,N,00005.9592,E,2,07,1.22,8.3,
M,47.0,M,0000,0000*62
$GPGSA,A,3,24,15,21,30,05,28,13,,,,,,2.19,1.22,1.82*0D
$GPRMC,122304.000,A,5212.0
838,N,00005.9592,E,0.00,252.95,270119,,,D*6D
$GPVTG,252.95,T,,M,0.00,N,0.00,K,D*31
$PMTKLOG,0,1,a,3
1,15,0,0,1,0,0*11
$PMTK001,183,3*3A
$PMTK869,2,1*36

$GPGGA,122305.000,5212.0838,N,00005.9593,E,2,07,1.22,8.4,M,4
7.0,M,0000,0000*65
$GPGSA,A,3,24,15,21,30,05,28,13,,,,,,2.19,1.22,1.82*0D
$GPRMC,122305.000,A,5212.
0838,N,00005.9593,E,0.00,142.55,270119,,,D*63
$GPVTG,142.55,T,,M,0.00,N,0.01,K,D*3E
$PMTKLOG,0,1,a,3
1,15,0,0,1,0,0*11
$PMTK001,183,3*3A
$PMTK869,2,1*36

$GPGGA,122306.000,5212.0838,N,00005.9593,E,2,07,1.22,8.5,M,47
.0,M,0000,0000*67
$GPGSA,A,3,24,15,21,30,05,28,13,,,,,,2.19,1.22,1.82*0D
$GPRMC,122306.000,A,52
12.0838,N,00005.9593,E,0.01,113.70,270119,,,D*62
$GPVTG,113.70,T,,M,0.01,N,0.02,K,D*3F
$PMTKLOG,0,1,a,3
1,15,0,0,1,0,0*11
$PMTK001,183,3*3A
$PMTK869,2,1*36

$GPGGA,122307.000,5212.0838,N,00005.9593,E,2,07,1.22,8.6,M,47.0,M,0000,0000*65
$GPGSA,A,3,24
,15,21,30,05,28,13,,,,,,2.19,1.22,1.82*0D
$GPGSV,3,1,11,13,80,299,41,28,50,107,40,30,43,066,40,15,43,290,43*74
$GPGSV,3,2,11,05,40,190,43,36,23,14
2,37,21,14,300,34,07,11,063,21*72
$GPGSV,3,3,11,24,10,
244,31,08,09,028,22,27,02,001,*43
$GPRMC,122307.000,A,5212.0838,N,00005.9593,E,0.02,64.75,270119,,,D*54

$GPVTG,64.75,T,,M,0.02,N,0.03,K,D*09
$PMTKLOG,0,1,a,31,15,0,0,1,0,0*11
$PMTK001,183,3*3A
$PMTK869
,2,1*36

$GPGGA,122308.000,5212.0838,N,00005.9593,E,2,07,1.22,8.6,M,4
7.0,M,0000,0000*6A
$GPGSA,A,3,24,15,21,30,05,28,13,,,,,,2.19,1.22,1.82*0D
$GPRMC,122308.000,A,5212.0838
,N,00005.9593,E,0.01,105.16,270119,,,D*6B
$GPVTG,105.16,T,,M,0.01,N,0.01,K,D*3B
$PMTKLOG,0,1,a,31,15,0,
0,1,0,0*11
$PMTK001,183,3*3A
$PMTK869,2,1*36

$GPGGA,122309.000,5212.0838,N,00005.9593,E,2,07,1.22,8.
6,M,47.0,M,0000,0000*6B
$GPGSA,A,3,24,15,21,30,05,28,13,,,,,,2.19,1.22,1.82*0D
$GPRMC,122309.000,A,5212
.0838,N,00005.9593,E,0.00,293.58,270119,,,D*6D
$GPVTG,293.58,T,,M,0.00,N,0.01,K,D*3C
$PMTKLOG,0,1,a
,31,15,0,0,1,0,0*11
$PMTK001,183,3*3A
$PMTK869,2,1*36

$GPGGA,122310.000,5212.0838,N,00005.9593,E,2,07,1.22,8.6,M,47.0
,M,0000,0000*63
$GPGSA,A,3,24,15,21,30,05,28,13,,,,,,2.19,1.22,1.82*0D
$GPRMC,122310.000,A,5212.0838,N,
00005.9593,E,0.00,322.30,270119,,,D*60
$GPVTG,322.30,T,,M,0.00,N,0.00,K,D*38
$PMTKLOG,0,1,a,31,
15,0,0,1,0,0*11
$PMTK001,183,3*3A
$PMTK869,2,1*36

$GPGGA,122311.000,5212.0838,N,00005.9593,E,
2,07,1.22,8.6,M,47.0,M,0000,0000*62
$GPGSA,A,3,24,15,21,30,05,28,13,,,,,,2.19,1.22,1.82*0D
$GPRMC,12231
1.000,A,5212.0838,N,00005.9593,E,0.01,306.98,270119,,,D*64
$GPVTG,306.98,T,,M,0.01,N,0.01,K,D*3C
$PMTKL
OG,0,1,a,31,15,0,0,1,0,0*11
$PMTK001,183,3*3A
$PMTK869,2,1*36

$GPGGA,122312.000,5212.0838,N,00005.9593,E,2,07,1.22,8.6,M,47.0,M,0000,0000*61
$GPGSA,A,3
,24,15,21,30,05,28,13,,,,,,2.19,1.22,1.82*0D
$GPGSV,3,1,11,13,80,299,41,28,50,107,40,30,43,066,40,15
,43,290,42*75
$GPGSV,3,2,11,05,40,190,43,36,23,142,37,21,14,300,34,07,11,063,21*72
$GPGSV,3,3,11,24,10,
244,30,08,09,028,23,27,02,001,*43
$GPRMC,122312.000,A,5212.0838,N,00005.9593,E,0.01,72.40,270119,,,D*52

$GPVTG,72.40,T,,M,0.01,N,0.01,K,D*09
$PMTKLOG,0,1,a,31,15,0,0,1,0,0*11
$PMTK001,183,3*3A
$PMTK869,2,1
*36

$GPGGA,122313.000,5212.0838,N,00005.9593,E,2,07,1.
22,8.6,M,47.0,M,0000,0000*60
$GPGSA,A,3,24,15,21,30,05,28,13,,,,,,2.19,1.22,1.82*0D
$GPRMC,122313.000,A
,5212.0838,N,00005.9593,E,0.02,5.43,270119,,,D*63
$GPVTG,5.43,T,,M,0.02,N,0.03,K,D*3B
$PMTKLOG,0,1,a,31
,15,0,0,1,0,0*11
$PMTK001,183,3*3A
$PMTK869,2,1*36

$GPGGA,122314.000,5212.0838,N,00005.9593,E,2,07,1.22,8.6
,M,47.0,M,0000,0000*67
$GPGSA,A,3,24,15,21,30,05,28,13,,,,,,2.19,1.22,1.82*0D
$GPRMC,122314.000,A,5212.
0838,N,00005.9593,E,0.00,46.53,270119,,,D*50
$GPVTG,46.53,T,,M,0.00,N,0.01,K,D*0D
$PMTKLOG,0,1,a,31
,15,0,0,1,0,0*11
$PMTK001,183,3*3A
$PMTK869,2,1*36

$GPGGA,122315.000,5212.0838,N,00005.9593,E,2,07,1.22,8.6,M,47.0,M,0000,0000*66
$
GPGSA,A,3,24,15,21,30,05,28,13,,,,,,2.19,1.22,1.82*0D
$GPRMC,122315.000,A,5212.0838,N,00005.9593
,E,0.00,98.91,270119,,,D*5C
$GPVTG,98.91,T,,M,0.00,N,0.01,K,D*00
$PMTKLOG,0,1,a,31,15,0,0,1,0,0*11
$PM
TK001,183,3*3A
$PMTK869,2,1*36

$GPGGA,122316.000,5212.0838,N,00005.9593,E,2,07,1.22,8.6,M,47.0,M,0000,0000*65
$GPGSA,A,3,24,15,2
1,30,05,28,13,,,,,,2.19,1.22,1.82*0D
$GPRMC,122316.000,A,5212.0838,N,00005.9593,E,0.00,303.06,270119,,,D*
60
$GPVTG,303.06,T,,M,0.00,N,0.00,K,D*3E
$PMTKLOG,0,1,a,31,15,0,0,1,0,0*11
$PMTK001,183,3*3A
$PMT
K869,2,1*36

$GPGGA,122317.00
0,5212.0838,N,00005.9593,E,2,07,1.22,8.6,M,47.0,M,0000,0000*64
$GPGSA,A,3,24,15,21,30,05,28,13,,
,,,,2.19,1.22,1.82*0D
$GPGSV,3,1,11,13,80,299,40,28,50,107,40,30,43,066,40,15,43,290,43*75
$GPGSV,3,2,1
1,05,40,190,43,36,23,142,37,21,14,300,34,07,11,063,19*79
$GPGSV,3,3,11,24,10,244,31,08,09,028,22,27,
02,001,*43
$GPRMC,122317.000,A,5212.0838,N,00005.9593,E,0.01,182.81,270119,,,D*64
$GPVTG,182.81,T,,M,0.01,N
,0.02,K,D*39
$PMTKLOG,0,1,a,31,15,0,0,1,0,0*11
$PMTK001,183,3*3A
$PMTK869,2,1*36

$GPGGA,122318.000,5212.0838,N,00005.9593,E,2,07,1.22,8.6,M,47.0,M,0000,0000*6B
$GPGSA,A,3,24,15,21,30,05,28,13,,,,,,2.19,1.22,1.82*0D

$GPRMC,122318.000,A,5212.0838,N,00005.9593,E,0.01,189.56,270119,,,D*6A
$GPVTG,189.56,T,,M,0.01,N,0.02,K,D*38
$P
MTKLOG,0,1,a,31,15,0,0,1,0,0*11
$PMTK001,183,3*3A
$PMTK869,2,1*36

$GPGGA,122319.000,5212.0838,N,00005.959
3,E,2,07,1.22,8.6,M,47.0,M,0000,0000*6A
$GPGSA,A,3,24,15,21,30,05,28,13,,,,,,2.19,1.22,1.82*0D
$GPRM
C,122319.000,A,5212.0838,N,00005.9593,E,0.01,308.94,270119,,,D*6E
$GPVTG,308.94,T,,M,0.01,N,0.01,K,D*3E

$PMTKLOG,0,1,a,31,15,0,0,1,0,0*11
$PMTK001,183,3*3A
$PMTK869,2,1*36

$GPGGA,122320.000,5212.0838,N,00005.9593,E,2,07,1.22,8.6,M,47.0,
M,0000,0000*60
$GPGSA,A,3,24,15,21,30,05,28,13,,,,,,2.19,1.22,1.82*0D
$GPRMC,122320.000,A,5212.0838
,N,00005.9593,E,0.01,172.37,270119,,,D*62
$GPVTG,172.37,T,,M,0.01,N,0.01,K,D*38
$PMTKLOG,0,1,a,31,15,0,
0,1,0,0*11
$PMTK001,183,3*3A
$PMTK869,2,1*36

$GPGG
A,122321.000,5212.0838,N,00005.9593,E,2,07,1.22,8.6,M,47.0,M,0000,0000*61
$GPGSA,A,3,24,15,21,30,05,28,1
3,,,,,,2.19,1.22,1.82*0D
$GPRMC,122321.000,A,5212.0838,N,00005.9593,E,0.00,359.96,270119,,,D*62
$GPVTG,359.
96,T,,M,0.00,N,0.01,K,D*39
$PMTKLOG,0,1,a,31,15,0,0,1,0,0*11
$PMTK001,183,3*3A
$PMTK869,2,1*36

$GPGGA,122322.000,5212.0838,N,00005.9594,E,2
,07,1.22,8.6,M,47.0,M,0000,0000*65
$GPGSA,A,3,24,15,21,30,05,28,13,,,,,,2.19,1.22,1.82*0D
$GPGSV,3,
1,11,13,80,299,42,28,50,107,41,30,43,066,40,15,43,290,43*76
$GPGSV,3,2,11,05,40,190,44,36,23,142,37,21,1
4,300,35,07,11,063,17*71
$GPGSV,3,3,11,24,10,244,33,08,09,028,23,27,02,001,*40
$GPRMC,122322.000,A,
5212.0838,N,00005.9594,E,0.00,51.23,270119,,,D*53
$GPVTG,51.23,T,,M,0.00,N,0.00,K,D*0D
$PMTKLOG,0,1,a,31,15
,0,0,1,0,0*11
$PMTK001,183,3*3A
$PMTK869,2,1*36

$GPGGA,122323.000,5212.0838,N,00005.9594,E,2,07,1.22,8.6,M,47.0,M,0000,0000*64
$GPGSA,A,3,24,15,21,30,05,28,13,,,,,,2.19,1.22,1.82*0D
$GPRMC,122323.000,A,5212.0838,N,00005.9594,E,0.00,68.91,270119,,,D*51
$G
PVTG,68.91,T,,M,0.00,N,0.00,K,D*0E
$PMTKLOG,0,1,a,31,15,0,0,1,0,0*11
$PMTK001,183,3*3A
$PMTK869,2,1*36


$GPGGA,1223
24.000,5212.0838,N,00005.9594,E,2,07,1.22,8.6,M,47.0,M,0000,0000*63
$GPGSA,A,3,24,15,21,30,05,28,13,,,,,
,2.19,1.22,1.82*0D
$GPRMC,122324.000,A,5212.0838,N,00005.9594,E,0.00,0.00,270119,,,D*60
$GPVTG,0.00
,T,,M,0.00,N,0.00,K,D*38
$PMTKLOG,0,1,a,31,15,0,0,1,0,0*11
$PMTK001,183,3*3A
$PMTK869,2,1*36

$GPGGA,122325.000,5212.0838,N,00005.959
4,E,2,07,1.22,8.6,M,47.0,M,0000,0000*62
$GPGSA,A,3,24,15,21,30,05,28,13,,,,,,2.19,1.22,1.82*0D
$GPRMC,12232
5.000,A,5212.0838,N,00005.9594,E,0.01,169.71,270119,,,D*68
$GPVTG,169.71,T,,M,0.01,N,0.01,K,D*30
$PM
TKLOG,0,1,a,31,15,0,0,1,0,0*11
$PMTK001,183,3*3A
$PMTK869,2,1*36

$GPGGA,122326.000,5212.0838,N,00005.9594,E,2,07,1.22,8.6,M,47.0
,M,0000,0000*61
$GPGSA,A,3,24,15,21,30,05,28,13,,,,,,2.19,1.22,1.82*0D
$GPRMC,122326.000,A,5212.083
8,N,00005.9594,E,0.00,163.37,270119,,,D*62
$GPVTG,163.37,T,,M,0.00,N,0.00,K,D*38
$PMTKLOG,0,1,a,31,15,0,0,1
,0,0*11
$PMTK001,183,3*3A
$PMTK869,2,1*36

$GPGGA,122327.000,5212.0838,N,00005.9594,E,2,07,1.22,8.6
,M,47.0,M,0000,0000*60
$GPGSA,A,3,24,15,21,30,05,28,13,,,,,,2.19,1.22,1.82*0D
$GPGSV,3,1,11,13,80,299,4
1,28,50,106,41,30,43,066,40,15,43,290,43*74
$GPGSV,3,2,11,05,40,190,44,36,23,142,37,21,14,300,35,07,11,0
63,18*7E
$GPGSV,3,3,11,24,10,244,31,08,09,028,22,27,02,001,*43
$GPRMC,122327.000,A,5212.0838,N,
00005.9594,E,0.00,67.08,270119,,,D*5A
$GPVTG,67.08,T,,M,0.00,N,0.01,K,D*00
$PMTKLOG,0,1,a,31,15,0,0,1,0,0*1
1
$PMTK001,183,3*3A
$PMTK869,2,1*36

$GPGGA,122328.000,5212.0838,N,00005.9594,E,2,07,1.22,8.6,M,47.0,M,0000,0000*6F
$GPGSA,A,3,24,15,21,30,05,28,13,,,,,,2.19,1.22,1.82*0D
$GPRMC,122328.0
00,A,5212.0838,N,00005.9594,E,0.01,298.63,270119,,,D*6B
$GPVTG,298.63,T,,M,0.01,N,0.01,K,D*3E
$PMTKLOG,
0,1,a,31,15,0,0,1,0,0*11
$PMTK001,183,3*3A
$PMTK869,2,1*36

$GPGGA,122329.000,5212.0838,N,00005.9594,E,2,07,1.22,8.6,M,4
7.0,M,0000,0000*6E
$GPGSA,A,3,24,15,21,30,05,28,13,,,,,,2.19,1.22,1.82*0D
$GPRMC,122329.000,A,5212.
0838,N,00005.9594,E,0.01,300.98,270119,,,D*6E
$GPVTG,300.98,T,,M,0.01,N,0.02,K,D*39
$PMTKLOG,0,1,a,31,1
5,0,0,1,0,0*11
$PMTK001,183,3*3A
$PMTK869,2,1*36

$GPGGA,122330.000,5212.0838,N,00005.9594,E,2,0
7,1.22,8.6,M,47.0,M,0000,0000*66
$GPGSA,A,3,24,15,21,30,05,28,13,,,,,,2.19,1.22,1.82*0D
$GPRMC,122330.0
00,A,5212.0838,N,00005.9594,E,0.00,11.26,270119,,,D*51
$GPVTG,11.26,T,,M,0.00,N,0.01,K,D*0D
$PMTKLOG,0,
1,a,31,15,0,0,1,0,0*11
$PMTK001,183,3*3A
$PMTK869,2,1*36

$GPGGA,122331.000,5212.0838,N,00005.9594,E,2,07
,1.22,8.6,M,47.0,M,0000,0000*67
$GPGSA,A,3,24,15,21,30,05,28,13,,,,,,2.19,1.22,1.82*0D
$GPRMC,122331.00
0,A,5212.0838,N,00005.9594,E,0.01,279.01,270119,,,D*68
$GPVTG,279.01,T,,M,0.01,N,0.01,K,D*35
$PMTKL
OG,0,1,a,31,15,0,0,1,0,0*11
$PMTK001,183,3*3A
$PMTK869,2,1*36

$GPGGA,122332.000,5212.0838,N,00005.9594,
E,2,07,1.22,8.6,M,47.0,M,0000,0000*64
$GPGSA,A,3,24,15,21,30,05,28,13,,,,,,2.19,1.22,1.82*0D
$GPGSV
,3,1,11,13,80,299,41,28,50,106,40,15,43,290,42,30,42,066,40*75
$GPGSV,3,2,11,05,40,190,43,36,23,142,36,2
1,14,300,35,07,11,063,18*78
$GPGSV,3,3,11,24,10,244,31,08,09,028,21,27,02,001,*40
$GPRMC,122332.000
,A,5212.0838,N,00005.9594,E,0.00,239.62,270119,,,D*6B
$GPVTG,239.62,T,,M,0.00,N,0.01,K,D*35
$PMTKLOG,0,1,a,31,1
5,0,0,1,0,0*11
$PMTK001,183,3*3A
$PMTK869,2,1*36

$GPGGA,122333.000,5212.0838,N,00005.9594,E,2,07,1.22,8.6,M,47.0,M,0000,0000*65
$GPGSA,A,3,24,15,21,30,05,2
8,13,,,,,,2.19,1.22,1.82*0D
$GPRMC,122333.000,A,5212.0838,N,00005.9594,E,0.00,0.00,270119,,,D*66
$GPVTG
,0.00,T,,M,0.00,N,0.00,K,D*38
$PMTKLOG,0,1,a,31,15,0,0,1,0,0*11
$PMTK001,183,3*3A
$PMTK869,2,1*36


$GPGGA,122334.000,5212.0838,N,00005.9594,E
,2,07,1.22,8.6,M,47.0,M,0000,0000*62
$GPGSA,A,3,24,15,21,30,05,28,13,,,,,,2.19,1.22,1.82*0D
$GPRMC,1223
34.000,A,5212.0838,N,00005.9594,E,0.00,27.47,270119,,,D*57
$GPVTG,27.47,T,,M,0.00,N,0.00,K,D*0E
$PMT
KLOG,0,1,a,31,15,0,0,1,0,0*11
$PMTK001,183,3*3A
$PMTK869,2,1*36

$GPGGA,122335.000,5212.0838,N,00005.9594,E
,2,07,1.22,8.6,M,47.0,M,0000,0000*63
$GPGSA,A,3,24,15,21,30,05,28,13,,,,,,2.19,1.22,1.82*0D
$GPRMC,1223
