$PMTKLOG,0,1,a,31,15,0,0,1,0,0*11
$PMTK001,183,3*3A
$PMTK869,2,0*37
$GPGGA,123542.000,5212.0841,N,00005.9596,E,2,07,1.20,10.6,M,47.0,M,0000,0000*53
$GPGSA,A,3,24,15,21,30,05,28,13,,,,,,2.13,1.20,1.76*0E
$GPRMC,123542.000,A,5212.0841,N,00005.9596,E,0.00,305.11,270119,,,D*6D
$GPVTG,305.11,T,,M,0.00,N,0.00,K,D*3E

$GPGGA,123542.200,5212.0841,N,00005.9596,E,2,07,1.20,10.6,M,47.0,M,0000,0000*51
$GPGSA,A,3,24,15,21,30,05,28,13,,,,,,2.13,1.20,1.76*0E
$GPRMC,123542.200,A,5212.0841,N,00005.9596,E,0.00,115.74,270119,,,D*6F
$GPVTG,115.74,T,,M,0.00,N,0.00,K,D*3E

$GPGGA,123542.400,5212.0841,N,00005.9596,E,2,07,1.20,10.6,M,47.0,M,0000,0000*57
$GPGSA,A,3,24,15,21,30,05,28,13,,,,,,2.13,1.20,1.76*0E
$GPGSV,3,1,11,13,86,312,40,28,51,098,40,15,49,290,43,30,37,066,36*7F
$GPGSV,3,2,11,05,35,188,43,36,23,142,36,24,15,246,35,21,13,296,31*71
$GPGSV,3,3,11,20,10,324,,08,09,023,,07,06,065,*4D
$GPRMC,123542.400,A,5212.0841,N,00005.9596,E,0.00,0.00,270119,,,D*6F
$GPVTG,0.00,T,,M,0.00,N,0.00,K,D*38

$GPGGA,123542.600,5212.0841,N,00005.9596,E,2,07,1.20,10.6,M,47.0,M,0000,0000*55
$GPGSA,A,3,24,15,21,30,05,28,13,,,,,,2.13,1.20,1.76*0E
$GPRMC,123542.600,A,5212.0841,N,00005.9596,E,0.01,108.01,270119,,,D*64
$GPVTG,108.01,T,,M,0.01,N,0.01,K,D*30

$GPGGA,123542.800,5212.0841,N,00005.9596,E,2,07,1.20,10.6,M,47.0,M,0000,0000*5B
$GPGSA,A,3,24,15,21,30,05,28,13,,,,,,2.13,1.20,1.76*0E
$GPRMC,123542.800,A,5212.0841,N,00005.9596,E,0.01,291.33,270119,,,D*68
$GPVTG,291.33,T,,M,0.01,N,0.01,K,D*32
$PMTKLOG,0,1,a,31,15,0,0,1,0,0*11
$PMTK001,183,3*3A
$PMTK869,2,0*37

$GPGGA,123543.000,5212.0841,N,00005.9596,E,2,07,1.20,10.6,M,47.0,M,0000,0000*52
$GPGSA,A,3,24,15,21,30,05,28,13,,,,,,2.13,1.20,1.76*0E
$GPRMC,123543.000,A,5212.0841,N,00005.9596,E,0.00,305.33,270119,,,D*6C
$GPVTG,305.33,T,,M,0.00,N,0.01,K,D*3F

$GPGGA,123543.200,5212.0841,N,00005.9596,E,2,07,1.20,10.6,M,47.0,M,0000,0000*50
$GPGSA,A,3,24,15,21,30,05,28,13,,,,,,2.13,1.20,1.76*0E
$GPRMC,123543.200,A,5212.0841,N,00005.9596,E,0.00,72.57,270119,,,D*5F
$GPVTG,72.57,T,,M,0.00,N,0.01,K,D*0E

$GPGGA,123543.400,5212.0841,N,00005.9596,E,2,07,1.20,10.6,M,47.0,M,0000,0000*56
$GPGSA,A,3,24,15,21,30,05,28,13,,,,,,2.13,1.20,1.76*0E
$GPGSV,3,1,11,13,86,313,40,28,51,098,40,15,49,290,44,30,37,066,32*7D
$GPGSV,3,2,11,05,35,188,43,36,23,142,34,24,15,246,34,21,13,296,31*72
$GPGSV,3,3,11,20,10,324,,08,09,023,,07,06,065,*4D
$GPRMC,123543.400,A,5212.0841,N,00005.9596,E,0.00,0.00,270119,,,D*6E
$GPVTG,0.00,T,,M,0.00,N,0.00,K,D*38

$GPGGA,123543.600,5212.0841,N,00005.9596,E,2,07,1.20,10.6,M,47.0,M,0000,0000*54
$GPGSA,A,3,2
4,15,21,30,05,28,13,,,,,,2.13,1.20,1.76*0E
$GPRMC,123543.600,A,5212.0841,N,00005.9596,E,0.01,137.87,270119,,,D*67
$GPVTG,137.87,T,,M,0.01,N,0.01,K,D*32

$GPGGA,123543.800,5212.0841,N,00005.9596,E,2,07,1.19,10.6,M,47.0,M,0000,0000*50
$GPGSA,A,3,24,15,21,30,05,28,13,,,,,,2.13,1.19,1.76*04
$GPRMC,123543.800,A,5212.0841,N,00005.9596,E,0.01,94.20,270119,,,D*5C
$GPVTG,94.20,T,,M,0.01,N,0.01,K,
D*07
$PMTKLOG,0,1,a,31,15,0,0,1,0,0*11
$PMTK001,183,3*3A
$PMTK869,2,0*37

$GPGGA,123544.000,5212.0841,N,00005.9596,E,2,07,1.20,10.6,M,47.0,M,0000,0000*55
$GPGSA,A,3,24,15,21,30,05,28,13,,,,,,2.13,1.20,1.76*0E
$GPRMC,123544.000,A,5212.0841,N,00005.9596,E,0.00,61.09,270119,,,D*53
$GPVTG,61.09,T,,M,0.00,N,0.01,K,D*07

$GPGGA,123544.200,5212.0841,N,00005.9596,E,2,07,1.20,10.6,M,47.0,M,0000,0000*57
$GPGSA,A,3,24,15,21,30,05,28,13,,,,,,2.13,1.20,1.76*0E
$GPRMC,123544.200,A,5212.0841,N,00005.9596,E,0.00,192.85,270119,,,D*68
$GPVTG,192.85,T,,M,0.00,N,0.00,K,D*3F

$GPGGA,123544.400,5212.0841,N,00005.9596,E,2,07,1.20,10.6,M,47.0,M,0000,0000*51
$GPGSA,A,3,24,15,21,30,05,28,13,,,,,,2.13,1.20,1.76*0E
$GPGSV,3,1,11,13,86,313,41,28,51,098,40,15,49,290,44,30,37,066,39*77
$GPGSV,3,2,11,05,35,188,43,36,23,142,35,24,15,246,35,21,13,295,32*72
$GPGSV,3,3,11,20,10,324,,08,09,023,,07,06,065,*4D
$GPRMC,123544.400,A,5212.0841,N,00005.9596,E,0.01,218.15,270119,,,D*67
$GPVTG,218.15,T,,M,0.01,N,0.01,K,D*37

$GPGGA,123544.600,5212.0841,N,00005.9596,E,2,07,1.20,10.6,M,47.0,M,0000,0000*53
$GPGSA,A,3,24,15,21,30,05,28,13,,,,,,2.
13,1.20,1.76*0E
$GPRMC,123544.600,A,5212.0841,N,00005.9596,E,0.00,255.08,270119,,,D*61
$GPVTG,255.08,T,,M,0.00,N,0.01,K,D*33

$GPGGA,123544.800,5212.0841,N,00005.9596,E,2,07,1.20,10.6,M,47.0,M,0000,0000*5D
$GPGSA,A,3,24,15,21,30,05,28,13,,,,,,2.13,1.20,1.76*0E
$GPRMC,123544.800,A,5212.0841,N,00005.9596,E,0.01,65.85,270119,,,D*5A
$GPVTG,65.85,T,,M,0.01,N,0.01,K,D*06

$PMTKLOG,0,1,a,31,15,0,0,1,0,0*11
$PMTK001,183,3*3A
$PMTK869,2,0*37

$GPGGA,123545.000,5212.0841,N,00005.9596,E,2,07,1.20,10.6,M,47.0,M,0000,0000*54
$GPGSA,A,3,24,15,21,30,05,28,13,,,,,,2.13,1.20,1.76*0E
$GPRMC,123545.000,A,5212.0841,N,00005.9596,E,0.01,76.19,270119,,,D*54
$GPVTG,76.19,T,,M,0.01,N,0.01,K,D*01

$GPGGA,123545.200,5212.0841,N,00005.9596,E,2,07,1.20,10.6,M,47.0,M,0000,0000*56
$GPGSA,A,3,24,15,21,30,05,28,13,,,,,,2.13,1.20,1.76*0E
$GPRMC,123545.200,A,5212.0841,N,00005.9596,E,0.01,46.71,270119,,,D*5B
$GPVTG,46.71,T,,M,0.01,N,0.01,K,D*0C

$GPGGA,123545.400,5212.0841,N,00005.9596,E,2,07,1.20,10.6,M,47.0,M,0000,0000*50
$GPGSA,A,3,24,15,21,30,05,28,13,,,,,,2.13,1.20,1.76*0E
$GPGSV,3,1,11,13,86,313,41,28,51,098,38,15,49,290,44,30,37,066,39*78
$GPGSV,3,2,11,05,35,188,42,36,23,142,36,24,15,246,36,21,13,295,31*70
$GPGSV,3,3,11,20,10,324,,08,09,023,,07,06,065,*4D
$GPRMC,123545.400,A,5212.0841,N,00005.9596,E,0.01,20.55,270119,,,D*5B
$GPVTG,20.55,T,,M,0.01,N,0.02,K,D*09

$GPGGA,123545.600,5212.0841,N,0000
5.9596,E,2,07,1.19,10.6,M,47.0,M,0000,0000*58
$GPGSA,A,3,24,15,21,30,05,28,13,,,,,,2.13,1.19,1.76*04
$GPRMC,123545.600,A,5212.0841,N,00005.9596,E,0.01,5.81,270119,,,D*67
$GPVTG,5.81,T,,M,0.01,N,0.02,K,D*37

$GPGGA,123545.800,5212.0841,N,00005.9596,E,2,07,1.20,10.6,M,47.0,M,0000,0000*5C
$GPGSA,A,3,24,15,21,30,05,28,13,,,,,,2.13,1.20,1.76*0E
$GPRMC,123545.800,A,5212.0841,N,00005.9596,E,0.01,314.20,270119,,,D*61
$GPVTG,314.20,T,,M,0.01,N,0.01,K,D*3C

$PMTKLOG,0,1,a,31,15,0,0,1,0,0*11
$PMTK001,183,3*3A
$PMTK869,2,0*37

$GPGGA,123546.000,5212.0841,N,00005.9596,E,2,07,1.20,10.6,M,47.0,M,0000,0000*57
$GPGSA,A,3,24,15,21,30,05,28,13,,,,,,2.13,1.20,1.76*0E
$GPRMC,123546.000,A,5212.0841,N,00005.9596,E,0.00,210.24,270119,,,D*6A
$GPVTG,210.24,T,,M,0.00,N,0.01,K,D*3C

$GPGGA,123546.200,5212.0841,N,00005.9596,E,2,07,1.20,10.6,M,47.0,M,0000,0000*55
$GPGSA,A,3,24,15,21,30,05,28,13,,,,,,2.13,1.20,1.76*0E
$GPRMC,123546.200,A,5212.0841,N,00005.9596,E,0.00,144.45,270119,,,D*6D
$GPVTG,144.45,T,,M,0.00,N,0.00,K,D*38

$GPGGA,123546.400,5212.0841,N,00005.9596,E,2,07,1.20,10.6,M,47.0,M,0000,0000*53
$GPGSA,A,3,24,15,21,30,05,28,13,,,,,,2.13,1.20,1.76*0E
$GPGSV,3,1,11,13,86,313,40,28,51,098,37,15,49,290,43,30,37,066,37*7F
$GPGSV,3,2,11,05,35,188,41,36,23,142,36,24,15,246,35,21,13,295,30*71
$GPGSV,3,3,11,20,10,324,,08,09,023,,07,06,065,*4D
$GPRMC,123546.400,A,5212.0841,N,00005.9596,E,0.00,153.19,270119,,,D*64
$GPVTG,153.19,T,,M,0.00,N,0.00,K,D*37

$GPGGA,123546.600,5212.0841,N,00005.9596,E,2,07,1.20,10.6,M,47.0,M,0000,0000*51
$GPGSA,A,3,24,15,21,30,05,28,13,,,,
,,2.13,1.20,1.76*0E
$GPRMC,123546.600,A,5212.0841,N,00005.9596,E,0.01,269.86,270119,,,D*6B
$GPVTG,269.86,T,,M,0.01,N,0.01,K,D*3B

$GPGGA,123546.800,5212.0841,N,00005.9596,E,2,07,1.20,10.6,M,47.0,M,0000,0000*5F
$GPGSA,A,3,24,15,21,30,05,28,13,,,,,,2.13,1.20,1.76*0E
$GPRMC,123546.800,A,5212.0841,N,00005.9596,E,0.00,308.72,270119,,,D*69
$GPVT
G,308.72,T,,M,0.00,N,0.00,K,D*36
$PMTKLOG,0,1,a,31,15,0,0,1,0,0*11
$PMTK001,183,3*3A
$PMTK869,2,0*37

$GPGGA,123547.000,5212.0841,N,00005.9596,E,2,07,1.20,10.6,M,47.0,M,0000,0000*56
$GPGSA,A,3,24,15,21,30,05,28,13,,,,,,2.13,1.20,1.76*0E
$GPRMC,123547.000,A,5212.0841,N,00005.9596,E,0.00,0.00,270119,,,D*6E
$GPVTG,0.00,T,,M,0.00,N,0.00,K,D*38

$GPGGA,123547.200,5212.0841,N,00005.9596,E,2,07,1.19,10.6,M,47.0,M,0000,0000*5E
$GPGSA,A,3,24,15,21,30,05,28,13,,,,,,2.13,1.19,1.76*04
$GPRMC,123547.200,A,5212.0841,N,00005.9596,E,0.00,0.00,270119,,,D*6C
$GPVTG,0.00,T,,M,0.00,N,0.00,K,D*38

$GPGGA,123547.400,5212.0841,N,00005.9596,E,2,07,1.20,10.6,M,47.0,M,0000,0000*52
$GPGSA,A,3,24,15,21,30,05,28,13,,,,,,2.13,1.20,1.76*0E
$GPGSV,3,1,11,13,86,313,40,28,51,098,38,15,49,290,44,30,37,066,38*78
$GPGSV,3,2,11,05,35,188,42,36,23,142,36,24,15,246,36,21,13,295,31*70
$GPGSV,3,3,11,20,10,324,,08,09,023,,07,06,065,*4D
$GPRMC,123547.400,A,5212.0841,N,00005.9596,E,0.00,126.62,270119,,,D*6B
$GPVTG,126.62,T,,M,0.00,N,0.00,K,D*39

$GPGGA,123547.600,5212.0841,N,00005.9596,E,2,07,1.20,10.6,M,47.0,M,0000,0000*50
$GPGSA,A,3,24,15,21,30,05,28,13,,,,,,2.13,1.20,1.76*0E
$GPRMC,123547.600,A,5212.0841,N,00005.9596,E,0.00,0.00,270119,
,,D*68
$GPVTG,0.00,T,,M,0.00,N,0.00,K,D*38

$GPGGA,123547.800,5212.0841,N,00005.9596,E,2,07,1.20,10.6,M,47.0,M,0000,0000*5E
$GPGSA,A,3,24,15,21,30,05,28,13,,,,,,2.13,1.20,1.76*0E
$GPRMC,123547.800,A,5212.0841,N,00005.9596,E,0.00,338.96,270119,,,D*61
$GPVTG,338.96,T,,M,0.00,N,0.00,K,D*3F
$PMTKLOG,0,1,a,31,15,0,0,1,0,0*11
$PMTK001,183,3*3A
$PMTK869,2,0*37

$GPGGA,123548.000,5212.0841,N,00005.9596,E,2,07,1.20,10.6,M,47.0,M,0000,0000*59
$GPGSA,A,3,24,15,21,30,05,28,13,,,,,,2.13,1.20,1.76*0E
$GPRMC,123548.000,A,5212.0841,N,00005.9596,E,0.00,204.69,270119,,,D*68
$GPVTG,204.69,T,,M,0.00,N,0.00,K,D*31

$GPGGA,123548.200,5212.0841,N,00005.9596,E,2,07,1.20,10.6,M,47.0,M,0000,0000*5B
$GPGSA,A,3,24,15,21,30,05,28,13,,,,,,2.13,1.20,1.76*0E
$GPRMC,123548.200,A,5212.0841,N,00005.9596,E,0.00,0.00,270119,,,D*63
$GPVTG,0.00,T,,M,0.00,N,0.00,K,D*38

$GPGGA,123548.400,5212.0841,N,00005.9596,E,2,07,1.19,10.6,M,47.0,M,0000,0000*57
$GPGSA,A,3,24,15,21,30,05,28,13,,,,,,2.13,1.19,1.76*04
$GPGSV,3,1,11,13,86,313,40,28,51,098,37,15,49,290,42,30,37,066,36*7F
$GPGSV,3,2,11,05,35,188,42,36,23,142,35,24,15,246,35,21,13,295,30*71
$GPGSV,3,3,11,20,10,324,,08,09,023,,07,06,065,*4D
$GPRMC,123548.400,A,5212.0841,N,00005.9596,E,0.00,0.00,270119,,,D*65
$GPVTG,0.00,T,,M,0.00,N,0.00,K,D*38

$GPGGA,123548.600,5212.0841,N,00005.9596,E,2,07,1.20,10.6,M,47.0,M,0000,0000*5F
$GPGSA,A,3,24,15,21,30
,05,28,13,,,,,,2.13,1.20,1.76*0E
$GPRMC,123548.600,A,5212.0841,N,00005.9596,E,0.01,100.15,270119,,,D*63
$GPVTG,100.15,T,,M,0.01,N,0.01,K,D*3D

$GPGGA,123548.800,5212.0841,N,00005.9596,E,2,07,1.20,10.6,M,47.0,M,0000,0000*51
$GPGSA,A,3,24,15,21,30,05,28,13,,,,,,2.13,1.20,1.76*0E
$GPRMC,123548.800,A,5212.0841,N,00005.9596,E,0.01,259.22,270119,,,D*66
$GPVTG,259.22,T,,M,0.01,N,0.02,K,D*35

$PMTKLOG,0,1,a,31,15,0,0,1,0,0*11
$PMTK001,183,3*3A
$PMTK869,2,0*37

$GPGGA,123549.000,5212.0841,N,00005.9596,E,2,07,1.20,10.6,M,47.0,M,0000,0000*58
$GPGSA,A,3,24,15,21,30,05,28,13,,,,,,2.13,1.20,1.76*0E
$GPRMC,123549.000,A,5212.0841,N,00005.9596,E,0.00,223.61,270119,,,D*64
$GPVTG,223.61,T,,M,0.00,N,0.00,K,D*3C

$GPGGA,123549.200,5212.0841,N,00005.9596,E,2,07,1.20,10.6,M,47.0,M,0000,0000*5A
$GPGSA,A,3,24,15,21,30,05,28,13,,,,,,2.13,1.20,1.76*0E
$GPRMC,123549.200,A,5212.0841,N,00005.9596,E,0.00,290.50,270119,,,D*6C
$GPVTG,290.50,T,,M,0.00,N,0.01,K,D*37

$GPGGA,123549.400,5212.0841,N,00005.9596,E,2,07,1.20,10.6,M,47.0,M,0000,0000*5C
$GPGSA,A,3,24,15,21,30,05,28,13,,,,,,2.13,1.20,1.76*0E
$GPGSV,3,1,11,13,86,313,40,28,51,098,38,15,49,290,43,30,37,066,38*7F
$GPGSV,3,2,11,05,35,188,42,36,23,142,36,24,15,246,35,21,13,295,30*72
$GPGSV,3,3,11,20,10,324,,08,09,023,,07,06,065,*4D
$GPRMC,123549.400,A,5212.0841,N,00005.9596,E,0.01,147.70,270119,,,D*60
$GPVTG,147.70,T,,M,0.01,N,0.01,K,D*3D

$GPGGA,123549.600,5212.0841,N,00005.9596,E,2,07,1.20,10.6,M,47.0,M,0000,
0000*5E
$GPGSA,A,3,24,15,21,30,05,28,13,,,,,,2.13,1.20,1.76*0E
$GPRMC,123549.600,A,5212.0841,N,00005.9596,E,0.00,295.07,270119,,,D*6F
$GPVTG,295.07,T,,M,0.00,N,0.00,K,D*31

$GPGGA,123549.800,5212.0841,N,00005.9596,E,2,07,1.20,10.6,M,47.0,M,0000,0000*50
$GPGSA,A,3,24,15,21,30,05,28,13,,,,,,2.13,1.20,1.76*0E
$GPRMC,123549.800,A,5212.0841,N,00005.9596,E,0.00,343.79,270119,,,D*62
$GPVTG,343.79,T,,M,0.00,N,0.00,K,
D*32
$PMTKLOG,0,1,a,31,15,0,0,1,0,0*11
$PMTK001,183,3*3A
$PMTK869,2,0*37

$GPGGA,123550.000,5212.0841,N,00005.9596,E,2,07,1.20,10.6,M,47.0,M,0000,0000*50
$GPGSA,A,3,24,15,21,30,05,28,13,,,,,,2.13,1.20,1.76*0E
$GPRMC,123550.000,A,5212.0841,N,00005.9596,E,0.00,52.23,270119,,,D*5E
$GPVTG,52.23,T,,M,0.00,N,0.00,K,D*0E

$GPGGA,123550.200,5212.0841,N,00005.9596,E,2,07,1.19,10.6,M,47.0,M,0000,0000*58
$GPGSA,A,3,24,15,21,30,05,28,13,,,,,,2.13,1.19,1.76*04
$GPRMC,123550.200,A,5212.0841,N,00005.9596,E,0.00,126.28,270119,,,D*65
$GPVTG,126.28,T,,M,0.00,N,0.01,K,D*36

$GPGGA,123550.400,5212.0841,N,00005.9596,E,2,07,1.19,10.6,M,47.0,M,0000,0000*5E
$GPGSA,A,3,24,15,21,30,05,28,13,,,,,,2.13,1.19,1.76*04
$GPGSV,3,1,11,13,86,313,40,28,51,098,38,15,49,290,43,30,37,066,40*70
$GPGSV,3,2,11,05,35,188,42,36,23,142,36,24,15,246,35,21,13,295,29*7A
$GPGSV,3,3,11,20,10,324,,08,09,023,,07,06,065,*4D
$GPRMC,123550.400,A,5212.0841,N,00005.9596,E,0.00,305.30,270119,,,D*69
$GPVTG,305.30,T,,M,0.00,N,0.01,K,D*3C

$GPGGA,123550.600,5212.0841,N,00005.9596,E
,2,07,1.20,10.6,M,47.0,M,0000,0000*56
$GPGSA,A,3,24,15,21,30,05,28,13,,,,,,2.13,1.20,1.76*0E
$GPRMC,123550.600,A,5212.0841,N,00005.9596,E,0.00,267.05,270119,,,D*68
$GPVTG,267.05,T,,M,0.00,N,0.01,K,D*3F

$GPGGA,123550.800,5212.0841,N,00005.9596,E,2,07,1.20,10.6,M,47.0,M,0000,0000*58
$GPGSA,A,3,24,15,21,30,05,28,13,,,,,,2.13,1.20,1.76*0E
$GPRMC,123550.800,A,5212.0841,N,00005.9596,E,0.00,81.84,270119,,,D*55
$GPVTG,81.84,T,,
M,0.00,N,0.01,K,D*0C
$PMTKLOG,0,1,a,31,15,0,0,1,0,0*11
$PMTK001,183,3*3A
$PMTK869,2,0*37

$GPGGA,123551.000,5212.0841,N,00005.9596,E,2,07,1.20,10.6,M,47.0,M,0000,0000*51
$GPGSA,A,3,24,15,21,30,05,28,13,,,,,,2.13,1.20,1.76*0E
$GPRMC,123551.000,A,5212.0841,N,00005.9596,E,0.00,322.93,270119,,,D*60
$GPVTG,322.93,T,,M,0.00,N,0.01,K,D*30

$GPGGA,123551.200,5212.0841,N,00005.9596,E,2,07,1.20,10.6,M,47.0,M,0000,0000*53
$GPGSA,A,3,24,15,21,30,05,28,13,,,,,,2.13,1.20,1.76*0E
$GPRMC,123551.200,A,5212.0841,N,00005.9596,E,0.00,106.17,270119,,,D*6A
$GPVTG,106.17,T,,M,0.00,N,0.00,K,D*39

$GPGGA,123551.400,5212.0841,N,00005.9596,E,2,07,1.19,10.6,M,47.0,M,0000,0000*5F
$GPGSA,A,3,24,15,21,30,05,28,13,,,,,,2.13,1.19,1.76*04
$GPGSV,3,1,11,13,86,313,40,28,51,098,38,15,49,290,43,30,37,066,40*70
$GPGSV,3,2,11,05,35,188,42,36,23,142,34,24,15,246,35,21,13,295,29*78
$GPGSV,3,3,11,20,10,324,,08,09,023,,07,06,065,*4D
$GPRMC,123551.400,A,5212.0841,N,00005.9596,E,0.01,285.12,270119,,,D*60
$GPVTG,285.12,T,,M,0.01,N,0.01,K,D*34

$GPGGA,123551.600,5212.08
41,N,00005.9596,E,2,07,1.19,10.6,M,47.0,M,0000,0000*5D
$GPGSA,A,3,24,15,21,30,05,28,13,,,,,,2.13,1.19,1.76*04
$GPRMC,123551.600,A,5212.0841,N,00005.9596,E,0.00,102.83,270119,,,D*67
$GPVTG,102.83,T,,M,0.00,N,0.01,K,D*31

$GPGGA,123551.800,5212.0841,N,00005.9596,E,2,07,1.20,10.6,M,47.0,M,0000,0000*59
$GPGSA,A,3,24,15,21,30,05,28,13,,,,,,2.13,1.20,1.76*0E
$GPRMC,123551.800,A,5212.0841,N,00005.9596,E,0.00,87.72,270119,,,D*5B
$GPVTG,87.72,T,
,M,0.00,N,0.00,K,D*02
$PMTKLOG,0,1,a,31,15,0,0,1,0,0*11
$PMTK001,183,3*3A
$PMTK869,2,0*37

$GPGGA,123552.000,5212.0841,N,00005.9596,E,2,07,1.19,10.6,M,47.0,M,0000,0000*58
$GPGSA,A,3,24,15,21,30,05,28,13,,,,,,2.13,1.19,1.76*04
$GPRMC,123552.000,A,5212.0841,N,00005.9596,E,0.00,50.48,270119,,,D*53
$GPVTG,50.48,T,,M,0.00,N,0.01,K,D*00

$GPGGA,123552.200,5212.0841,N,00005.9596,E,2,07,1.20,10.6,M,47.0,M,0000,0000*50
$GPGSA,A,3,24,15,21,30,05,28,13,,,,,,2.13,1.20,1.76*0E
$GPRMC,123552
.200,A,5212.0841,N,00005.9596,E,0.00,0.00,270119,,,D*68
$GPVTG,0.00,T,,M,0.00,N,0.00,K,D*38

$GPGGA,123552.400,5212.0841,N,00005.9596,E,2,07,1.20,10.6,M,47.0,M,0000,0000*56
$GPGSA,A,3,24,15,21,30,05,28,13,,,,,,2.13,1.20,1.76*0E
$GPGSV,3,1,11,13,86,313,39,28,51,098,38,15,49,290,43,30,37,066,39*70
$GPGSV,3,2,11,05,35,188,41,36,23,142,34,24,15,246,34,21,13,295,31*73
$GPGSV,3,3,11,20,10,324,,08,09
,023,,07,06,065,*4D
$GPRMC,123552.400,A,5212.0841,N,00005.9596,E,0.00,228.64,270119,,,D*64
$GPVTG,228.64,T,,M,0.00,N,0.01,K,D*33

$GPGGA,123552.600,5212.0841,N,00005.9596,E,2,07,1.20,10.6,M,47.0,M,0000,0000*54
$GPGSA,A,3,24,15,21,30,05,28,13,,,,,,2.13,1.20,1.76*0E
$GPRMC,123552.600,A,5212.0841,N,00005.9596,E,0.00,110.74,270119,,,D*6F
$GPVTG,110.74,T,,M,0.00,N,0.01,K,D*3A

$GPGGA,123552.800,5212.0841,N,00005.9596,E,2,07,1.20,10.6,M,47.0,M,0000,0000*5A
$GPGSA,A,3,24,15,21,30,05,28,13,,,,,,2.13,1.20,1.76*0E
$GPRMC,123552.800,A,5212.0841,N,00005.9596,E,0.01,271.86,270119,,,D*69
$GPVTG,271.86,T,,M,0.01,N,0.02,K,D*31
$PMTKLOG,0,1,a,31,15,0,0,1,0,0*11
$PMTK001,183,3*3A
$PMTK869,2,0*37

$GPGGA,123553.000,5212.0841,N,00005.9596,E,2,07,1.19,10.6,M,47.0,M,0000,0000*59
$GPGSA,A,3,24,15,21,30,05,28,13,,,,,,2.13,1.19,1.76*04
$GPRMC,123553.000,A,5212.0841,N,00005.9596,E,0.00,0.00,270119,,,D*6B
$GPVTG,0.00,T,,M,0.00,N,0.00,K,D*38

$GPGGA,123553.200,5212.0841,N,00005.9596,E,2,07,1.20,10.6,M,47.0,M,0000,0000*51
$GPGSA,A,3,24,15,21,30,05,28,13,,,,,,2.13,1.20,1.76*0E
$GPRMC,123553.200,A,5212.0841,N,00005.9596,E,0.01,116.84,270119,,,D*62
$GPVTG,116.84,T,,M,0.01,N,0.01,K,D*32

$GPGGA,123553.400,5212.0841,N,00005.9596,E,2,07,1.20,10.6,M,47.0,M,0000,0000*57
$GPGSA,A,3,24,15,21,30,05,28,13,,,,,,2.13,1.20,1.76*0E
$GPGSV,3,1,11,13,86,313,39,28,51,098,36,15,49,290,42,30,37,066,38*7E
$GPGSV,3,2,11,05,35,188,40,36,23,142,35,24,15,246,33,21,13,295,31*74
$GPGSV,3,3,11,20,10,324,,08,09,023,,07,06,065,*4D
$GPRMC,123553.400,A,5212.0841,N,00005.9596,E,0.00,304.17,270119,,,D*6E
$GPVTG,304.17,T,,M,0.00,N,0.00,K,D*39

$GPGGA,123553.600,5212.0841,N,00005.9596,E,2,07,1.20,10.6,M,47.0,M,0000,0000*55
$GPGSA,A,3,24,15,21,30,05,28,13,,,,,,2.13,1.20,1.76*0E
$GPRMC,123553.600,A,5212.0841,N,00005.9596,E,0.00,0.00,270119,,,D*6D

$GPVTG,0.00,T,,M,0.00,N,0.00,K,D*38

$GPGGA,123553.800,5212.0841,N,00005.9596,E,2,07,1.20,10.6,M,47.0,M,0000,0000*5B
$GPGSA,A,3,24,15,21,30,05,28,13,,,,,,2.13,1.20,1.76*0E
$GPRMC,123553.800,A,5212.0841,N,00005.9596,E,0.00,0.00,270119,,,D*63
$GPVTG,0.00,T,,M,0.00,N,0.00,K,D*38

$PMTKLOG,0,1,a,31,15,0,0,1,0,0*11
$PMTK001,183,3*3A
$PMTK869,2,0*37

$GPGGA,123554.000,5212.0841,N,00005.9596,E,2,07,1.20,10.6,M,47.0,M,0000,0000*54
$GPGSA,A,3,24,15,21,30,05,28,13,,,,,,2.13,1.20,1.76*0E
$GPRMC,123554.000,A,5212.0841,N,00005.9596,E,0.00,0.00,270119,,,D*6C
$GPVTG,0.00,T,,M,0.00,N,0.00,K,D*38

$GPGGA,123554.200,5212.0841,N,00005.9596,E,2,07,1.20,10.6,M,47.0,M,0000,0000*56
$GPGSA,A,3,24,15,21,30,05,28,13,,,,,,2.13,1.20,1.76*0E
$GPRMC,123554.200,A,5212.0841,N,00005.9596,E,0.01,282.08,270119,,,D*6F
$GPVTG,282.08,T,,M,0.01,N,0.01,K,D*38

$GPGGA,123554.400,5212.0841,N,00005.9596,E,2,07,1.19,10.6,M,47.0,M,0000,0000*5A
$GPGSA,A,3,24,15,21,30,05,28,13,,,,,,2.13,1.19,1.76*04
$GPGSV,3,1,11,13,86,313,40,28,51,098,38,15,49,290,43,30,37,066,40*70
$GPGSV,3,2,11,05,35,188,42,36,23,142,35,24,15,246,34,21,13,295,30*70
$GPGSV,3,3,11,20,10,324,,08,09,023,,07,06,065,*4D
$GPRMC,123554.400,A,5212.0841,N,00005.9596,E,0.01,124.08,270119,,,D*66
$GPVTG,124.08,T,,M,0.01,N,0.01,K,D*37

$GPGGA,123554.600,5212.0841,N,00005.9596,E,2,07,1.20,10.6,M,47.0,M,0000,0000*52
$GPGSA,A,3,24,15,21,30,05,28,13,,,,,,2.13,1.20,1.76*0E
$GPRMC,123554.600,A,5212.0841,N,00005.9596,E,0.00,115.09,270119,,,D*66
$GPVTG,115.09,T,,M,0.00,N,0.01,K,D*
35

$GPGGA,123554.800,5212.0841,N,00005.9596,E,2,07,1.19,10.6,M,47.0,M,0000,0000*56
$GPGSA,A,3,24,15,21,30,05,28,13,,,,,,2.13,1.19,1.76*04
$GPRMC,123554.800,A,5212.0841,N,00005.9596,E,0.01,236.24,270119,,,D*64
$GPVTG,236.24,T,,M,0.01,N,0.01,K,D*39

$PMTKLOG,0,1,a,31,15,0,0,1,0,0*11
$PMTK001,183,3*3A
$PMTK869,2,0*37

$GPGGA,123555.000,5212.0841,N,00005.9596,E,2,07,1.20,10.7,M,47.0,M,0000,0000*54
$GPGSA,A,3,24,15,21,30,05,28,13,,,,,,2.13,1.20,1.76*0E
$GPRMC,123555.000,A,5212.0841,N,00005.9596,E,0.00,88.94,270119,,,D*50
$GPVTG,88.94,T,,M,0.00,N,0.01,K,D*04

$GPGGA,123555.200,5212.0841,N,00005.9596,E,2,07,1.20,10.7,M,47.0,M,0000,0000*56
$GPGSA,A,3,24,15,21,30,05,28,13,,,,,,2.13,1.20,1.76*0E
$GPRMC,123555.200,A,5212.0841,N,00005.9596,E,0.00,213.12,270119,,,D*6C
$GPVTG,213.12,T,,M,0.00,N,0.01,K,D*3A

$GPGGA,123555.400,5212.0841,N,00005.9596,E,2,07,1.20,10.7,M,47.0,M,0000,0000*5
0
$GPGSA,A,3,24,15,21,30,05,28,13,,,,,,2.13,1.20,1.76*0E
$GPGSV,3,1,11,13,86,313,40,28,51,098,38,15,49,290,44,30,37,066,39*79
$GPGSV,3,2,11,05,34,188,42,36,23,142,34,24,15,246,34,21,13,295,30*70
$GPGSV,3,3,11,20,10,324,,08,09,023,,07,06,065,*4D
$GPRMC,123555.400,A,5212.0841,N,00005.9596,E,0.00,0.00,270119,,,D*69
$GPVTG,0.00,T,,M,0.00,N,0.00,K,D*38

$GPGGA,123555.600,5212.0841,N,00005.9596,E,2,07,1.19,10.8,M,47.0,M,0000,0000*57
$GPGSA,A,3,24,15,21,30,05,28,13,,,,,,2.13,1.19,1.76*04
$GPRMC,123555.600,A,5212.0841,N,00005.9596,E,0.01,209.22,270119,,,D*61
$GPVTG,209.22,T,,M,0.01,N,0.01,K,D*33

$GPGGA,123555.800,5212.0841,N,00005.9596,E,2,07,1.20,10.8,M,47.0,M,0000,0000*53
$GPGSA,A,3,24,15,21,30,05,28,13,,,,,,2.13,1.20,1.76*0E
$GPRMC,123555.800,A,5212.0841,N,00005.9596,E,0.00,21.78,270119,,,D*59
$GPVTG,21.78,T,,M,0.00,N,0.01,K,D*05

$PMTKLOG,0,1,a,31,15,0,0,1,0,0*11
$PMTK001,183,3*3A
$PMTK869,2,0*37

$GPGGA,123556.000,5212.0841,N,00005.9596,E,2,07,1.19,10.8,M,47.0,M,0000,0000*52
$GPGSA,A,3,24,15,21,30,05,28,13,,,,,,2.13,1.19,1.76*04
$GPRMC,123556.000,A,5212.0841,N,00005.9596,E,0.00,196.75,270119,,,D*62
$GPVTG,196.75,T,,M,0.00,N,0.00,K,D*34

$GPGGA,123556.200,5212.0841,N,00005.9596,E,2,07,1.19,10.8,M,47.0,M,0000,0000*50
$GPGSA,A,3,24,15,21,30,05,28,13,,,,,,2.13,1.19,1.76*04
$GPRMC,123556.200,A,5212.0841,N,00005.9596,E,0.00,192.98,270119,,,D*67
$GPVTG,192.98,T,,M,0.00,N,0.01,K,D*32

$GPGGA,123556.400,5212.0841,N,00005.9597,E,2,07
,1.19,10.9,M,47.0,M,0000,0000*56
$GPGSA,A,3,24,15,21,30,05,28,13,,,,,,2.13,1.19,1.76*04
$GPGSV,3,1,11,13,86,313,39,28,51,098,37,15,49,290,43,30,37,066,37*71
$GPGSV,3,2,11,05,34,188,41,36,23,142,34,24,15,246,33,21,13,295,30*74
$GPGSV,3,3,11,20,10,324,,08,08,023,,07,06,065,*4C
$GPRMC,123556.400,A,5212.0841,N,00005.9597,E,0.01,5.28,270119,,,D*65
$GPVTG,5.28,T,,M,0.01,N,0.01,K,D*37

$GPGGA,123556.600,5212.0841,N,00005.9597,E,2,07,1.20,10.8,M,47.0,M,0000,0000*5F
$GPGSA,A,3,24,15,21,30,05,28,13,,,,,,2.13,1.20,1.76*0E
$GPRMC,123556.600,A,5212.0841,N,00005.9597,E,0.00,201.20,270119,,,D*68
$GPVTG,201.20,T,,M,0.00,N,0.01,K,D*38

$GPGGA,123556.800,5212.0841,N,00005.9597,E,2,07,1.20,10.9,M,47.0,M,0000,0000*50
$GPGSA,A,3,24,15,21,30,05,28,13,,,,,,2.13,1.20,1.76*0E
$GPRMC,123556.800,A,5212.0841,N,00005.9597,E,0.00,0.00,270119,,,D*67
$GPVTG,0.00,T,,M,0.00,N,0.00,K,D*38

$PMTKLOG,0,1,a,31,15,0,0,1,0,0*11
$PMTK001,183,3*3A
$PMTK869,2,0*37
$
GPGGA,123557.000,5212.0841,N,00005.9597,E,2,07,1.19,10.9,M,47.0,M,0000,0000*53
$GPGSA,A,3,24,15,21,30,05,28,13,,,,,,2.13,1.19,1.76*04
$GPRMC,123557.000,A,5212.0841,N,00005.9597,E,0.00,0.00,270119,,,D*6E
$GPVTG,0.00,T,,M,0.00,N,0.00,K,D*38

$GPGGA,123557.200,5212.0841,N,00005.9597,E,2,07,1.20,10.9,M,47.0,M,0000,0000*5B
$GPGSA,A,3,24,15,21,30,05,28,13,,,,,,2.13,1.20,1.76*0E
$GPRMC
,123557.200,A,5212.0841,N,00005.9597,E,0.00,291.64,270119,,,D*64
$GPVTG,291.64,T,,M,0.00,N,0.01,K,D*31

$GPGGA,123557.400,5212.0841,N,00005.9597,E,2,07,1.20,10.9,M,47.0,M,0000,0000*5D
$GPGSA,A,3,24,15,21,30,05,28,13,,,,,,2.13,1.20,1.76*0E
$GPGSV,3,1,11,13,86,313,40,28,51,098,38,15,49,290,44,30,37,066,38*78
$GPGSV,3,2,11,05,34,188,43,36,23,142,36,24,15,246,34,21,13,295,31*72
$GPGSV,3,3,11,20,10,324,,08,
08,023,,07,06,065,*4C
$GPRMC,123557.400,A,5212.0841,N,00005.9597,E,0.00,286.94,270119,,,D*6B
$GPVTG,286.94,T,,M,0.00,N,0.00,K,D*39

$GPGGA,123557.600,5212.0841,N,00005.9596,E,2,07,1.19,10.9,M,47.0,M,0000,0000*54
$GPGSA,A,3,24,15,21,30,05,28,13,,,,,,2.13,1.19,1.76*04
$GPRMC,123557.600,A,5212.0841,N,00005.9596,E,0.00,0.00,270119,,,D*69
$GPVTG,0.00,T,,M,0.00,N,0.00,K,D*38

$GPGGA,123557.800,5212.0841,N,00005.9596,E,2,07,1.20,10.9,M,47.0,M,0000,0000*50
$GPGSA,A,3,24,15,21,30,05,28,13,,,,,,2.13,1.20,1.76*0E
$GPRMC,123557.800,A,5212.0841,N,00005.9596,E,0.00,152.71,270119,,,D*67
$GPVTG,152.71,T,,M,0.00,N,0.00,K,D*38
$PMTKLOG,0,1,a,31,15,0,0,1,0,0*11
$PMTK001,183,3*3A
$PMTK869,2,0*37

$GPGGA,123558.000,5212.0841,N,00005.9596,E,2,07,1.19,10.9,M,47.0,M,0000,0000*5D
$GPGSA,A,3,24,15,21,30,05,28,13,,,,,,2.13,1.19,1.76*04
$GPRMC,123558.000,A,5212.0841,N,00005.9596,E,0.00,0.00,270119,,,D*60
$GPVTG,0.00,T,,M,0.00,N,0.00,K,D*38

$GPGGA,123558.200,5212.0841,N,00005.9597,E,2,07,1.20,10.9,M,47.0,M,0000,0000*54
$GPGSA,A,3,24,15,21,30,05,28,13,,,,,,2.13,1.20,1.76*0E
$GPRMC,123558.200,A,5212.0841,N,00005.9597,E,0.00,57.87,270119,,,D*5E
$GPVTG,57.87,T,,M,0.00,N,0.01,K,D*04

$GPGGA,123558.400,5212.0841,N,00005.9597,E,2,07,1.20,10.8,M,47.0,M,0000,0000*53
$GPGSA,A,3,24,15,21,30,05,28,13,,,,,,2.13,1.20,1.76*0E
$GPGSV,3,1,11,13,86,313,41,28,51,098,39,15,49,290,45,30,3
7,066,39*78
$GPGSV,3,2,11,05,34,188,42,36,23,142,35,24,15,246,34,21,13,295,32*73
$GPGSV,3,3,11,20,10,324,,08,08,023,,07,06,065,*4C
$GPRMC,123558.400,A,5212.0841,N,00005.9597,E,0.00,242.73,270119,,,D*65
$GPVTG,242.73,T,,M,0.00,N,0.01,K,D*39

$GPGGA,123558.600,5212.0841,N,00005.9597,E,2,07,1.20,10.8,M,47.0,M,0000,0000*51
$GPGSA,A,3,24,15,21,30,05,28,13,,,,,,2.13,1.20,1.76*0E
$GPRMC,123558.600,A,5212.0841,N,00005.9597,E,0.01,34.96,270119,,,D*5E
$GPVTG,34.96,T,,M,0.01,N,0.02,K,D*03

$GPGGA,123558.800,5212.0841,N,00005.9597,E,2,07,1.20,10.8,M,47.0,M,0000,0000*5F
$GPGSA,A,3,24,15,21,30,05,28,13,,,,,,2.13,1.20,1.76*0E
$GPRMC,123558.800,A,5212.0841,N,00005.9597,E,0.00,154.53,270119,,,D*6F
$GPVTG,154.53,T,,M,0.00,N,0.01,K,D*3F
$PMTKLOG,0,1,a,31,15,0,0,1,0,0*11
$PMTK001,183,3*3A
$PMTK869,2,0*37

$GPGGA,123559.000,5212.0841,N,00005.9597,E,2,07,1.20,10.8,M,47.0,M,0000,0000*56
$GPGSA,A,3,24,15,21,30,05,28,13,,,,,,2.13,1.20,1.76*0E
$GPRMC,123559.000,A,5212.0841,N,00005.9597,E,0.01,238.08,270119,,,D*60
$GPVTG,238.08,T,,M,0.01,N,0.01,K,D*39

$GPGGA,123559.200,5212.0841,N,00005.9597,E,2,07,1.20,10.8,M,47.0,M,0000,0000*54
$GPGSA,A,3,24,15,21,30,05,28,13,,,,,,2.13,1.20,1.76*0E
$GPRMC,123559.200,A,5212.0841,N,00005.9597,E,0.01,76.26,270119,,,D*56
$GPVTG,76.26,T,,M,0.01,N,0.02,K,D*0E

$GPGGA,123559.400,5212.0841,N,00005.9597,E,2,07,1.20,10.8,M,47.0,M,0000,0000*52
$GPGSA,A,3,24,15,21,30,05,28,13,,,,,,2.13,1.20,1.76*0E
$GPGSV,3,1,11,13,86,313,40,28,51,098,38,15,49,290,44,30,37,066,38*78
$GPGSV,3,2,11,05,34,188,41,36,23,142,34,24,15,246,33,21,13,295,31*75
$GPGSV,3,3,11,20,10,324,,08,08,023,,07,06,065,*4C
$GPRMC,123559.400,A,5212.0841,N,00005.9597,E,0.01,258.31,270119,,,D*68
$GPVTG,258.31,T,,M,0.01,N,0.01,K,D*35

$GPGGA,123559.600,5212.0841,N,00005.9597,E,2,07,1.20,10.8,M,47.0,M,0000,0000*50
$GPGSA,A,3,24,15,21,30,05,28,13,,,,,,2.13,1.20,1.76*0E
$GPRMC,123559.600,A,5212.0841,N,00005.9597,E,0.00,349.37,2
70119,,,D*6C
$GPVTG,349.37,T,,M,0.00,N,0.00,K,D*32

$GPGGA,123559.800,5212.0841,N,00005.9597,E,2,07,1.19,10.8,M,47.0,M,0000,0000*54
$GPGSA,A,3,24,15,21,30,05,28,13,,,,,,2.13,1.19,1.76*04
$GPRMC,123559.800,A,5212.0841,N,00005.9597,E,0.01,36.42,270119,,,D*5A
$GPVTG,36.42,T,,M,0.01,N,0.01,K,D*0B

$PMTKLOG,0,1,a,31,15,0,0,1,0,0*11
$PMTK001,183,3*3A
$PMTK869,2,0*37

$GPGGA,123600.000,5212.0841,N,00005.9597,E,2,07,1.19,10.8,M,47.0,M,0000,0000*53
$GPGSA,A,3,24,15,21,30,05,28,13,,,,,,2.13,1.19,1.76*04
$GPRMC,123600.000,A,5212.0841,N,00005.9597,E,0.00,190.85,270119,,,D*6A
$GPVTG,190.85,T,,M,0.00,N,0.01,K,D*3C

$GPGGA,123600.200,5212.0841,N,00005.9597,E,2,07,1.19,10.8,M,47.0,M,0000,0000*51
$GPGSA,A,3,24,15,21,30,05,28,13,,,,,,2.13,1.19,1.76*04
$GPRMC,123600.200,A,5212.0841,N,00005.9597,E,0.00,55.46,270119,,,D*5F
$GPVTG,55.46,T,,M,0.00,N,0.01,K,D*0B

$GPGG
A,123600.400,5212.0841,N,00005.9597,E,2,07,1.20,10.8,M,47.0,M,0000,0000*5D
$GPGSA,A,3,24,15,21,30,05,28,13,,,,,,2.13,1.20,1.76*0E
$GPGSV,3,1,11,13,86,313,40,28,51,097,37,15,49,290,44,30,37,066,38*78
$GPGSV,3,2,11,05,34,188,41,36,23,142,35,24,15,246,33,21,13,295,30*75
$GPGSV,3,3,11,20,10,324,,08,08,023,,07,06,065,*4C
$GPRMC,123600.400,A,5212.0841,N,00005.9597,E,0.00,0.00,270119,,,D*6B
$GPVTG,0.00,T,,M,0.00,N,0.00,K,D*38

$GPGGA,123600.600,5212.0841,N,00005.9597,E,2,07,1.19,10.8,M,47.0,M,0000,0000*55
$GPGSA,A,3,24,15,21,30,05,28,13,,,,,,2.13,1.19,1.76*04
$GPRMC,123600.600,A,5212.0841,N,00005.9597,E,0.00,243.88,270119,,,D*6C

$GPVTG,243.88,T,,M,0.00,N,0.01,K,D*3C

$GPGGA,123600.800,5212.0841,N,00005.9597,E,2,07,1.20,10.8,M,47.0,M,0000,0000*51
$GPGSA,A,3,24,15,21,30,05,28,13,,,,,,2.13,1.20,1.76*0E
$GPRMC,123600.800,A,5212.0841,N,00005.9597,E,0.01,168.24,270119,,,D*6F
$GPVTG,168.24,T,,M,0.01,N,0.01,K,D*31

$PMTKLOG,0,1,a,31,15,0,0,1,0,0*11
$PMTK001,183,3*3A
$PMTK869,2,0*37

$GPGGA,123601.000,5212.0841,N,00005.9597,E,2,07,1.19,10.8,M,47.0,M,0000,0000*52
$GPGSA,A,3,24,15,21,30,05,28,13,,,,,,2.13,1.19,1.76*04
$GPRMC,123601.000,A,5212.0841,N,00005.9597,E,0.00,334.71,270119,,,D*6C
$GPVTG,334.71,T,,M,0.00,N,0.01,K,D*3B

$GPGGA,123601.200,5212.0841,N,00005.9597,E,2,07,1.19,10.8,M,47.0,M,0000,0000*50
$GPGSA,A,3,24,15,21,30,05,28,13,,,,,,2.13,1.19,1.76*04
$GPRMC,123601.200,A,5212.0841,N,00005.9597,E,0.00,77.63,270119,,,D*59
$GPVTG,77.63,T,,M,0.00,N,0.01,K,D*0C

$GPGGA,123601
.400,5212.0841,N,00005.9597,E,2,07,1.19,10.8,M,47.0,M,0000,0000*56
$GPGSA,A,3,24,15,21,30,05,28,13,,,,,,2.13,1.19,1.76*04
$GPGSV,3,1,11,13,86,313,39,28,51,097,37,15,49,290,44,30,37,066,38*76
$GPGSV,3,2,11,05,34,188,41,36,23,142,35,24,15,246,33,21,13,295,30*75
$GPGSV,3,3,11,20,10,324,,08,08,023,,07,06,065,*4C
$GPRMC,123601.400,A,5212.0841,N,00005.9597,E,0.00,84.31,270119,,,D*54
$GPVTG,84.31,T,,M,0.00,N,0.01,K,D*07

$GPGGA,123601.600,5212.0841,N,00005.9597,E,2,07,1.19,10.8,M,47.0,M,0000,0000*54
$GPGSA,A,3,24,15,21,30,05,28,13,,,,,,2.13,1.19,1.76*04
$GPRMC,123601.600,A,5212.0841,N,00005.9597,E,0.01,287.
63,270119,,,D*61
$GPVTG,287.63,T,,M,0.01,N,0.01,K,D*30

$GPGGA,123601.800,5212.0841,N,00005.9597,E,2,07,1.19,10.8,M,47.0,M,0000,0000*5A
$GPGSA,A,3,24,15,21,30,05,28,13,,,,,,2.13,1.19,1.76*04
$GPRMC,123601.800,A,5212.0841,N,00005.9597,E,0.00,119.40,270119,,,D*6B
$GPVTG,119.40,T,,M,0.00,N,0.00,K,D*35

$PMTKLOG,0,1,a,31,15,0,0,1,0,0*11
$PMTK001,183,3*3A
$PMTK869,2,0*37

$GPGGA,123602.000,5212.0841,N,00005.9597,E,2,07,1.19,10.8,M,47.0,M,0000,0000*51
$GPGSA,A,3,24,15,21,30,05,28,13,,,,,,2.13,1.19,1.76*04
$GPRMC,123602.000,A,5212.0841,N,00005.9597,E,0.00,0.00,270119,,,D*6D
$GPVTG,0.00,T,,M,0.00,N,0.00,K,D*38

$GPGGA,123602.200,5212.0841,N,00005.9597,E,2,07,1.20,10.8,M,47.0,M,0000,0000*59
$GPGSA,A,3,24,15,21,30,05,28,13,,,,,,2.1
3,1.20,1.76*0E
$GPRMC,123602.200,A,5212.0841,N,00005.9597,E,0.00,202.56,270119,,,D*6C
$GPVTG,202.56,T,,M,0.00,N,0.01,K,D*3A

$GPGGA,123602.400,5212.0841,N,00005.9597,E,2,07,1.19,10.8,M,47.0,M,0000,0000*55
$GPGSA,A,3,24,15,21,30,05,28,13,,,,,,2.13,1.19,1.76*04
$GPGSV,3,1,11,13,86,313,40,28,51,097,38,15,49,290,45,30,37,066,38*76
$GPGSV,3,2,11,05,34,188,42,36,23,142,35,24,15,246,34,21,13,295,32*73
$GPGSV,3,3,11,20,10,324,,08,08,023,,07,06,065,*4C
$GPRMC,123
602.400,A,5212.0841,N,00005.9597,E,0.00,162.76,270119,,,D*6D
$GPVTG,162.76,T,,M,0.00,N,0.01,K,D*3D

$GPGGA,123602.600,5212.0841,N,00005.9597,E,2,07,1.19,10.8,M,47.0,M,0000,0000*57
$GPGSA,A,3,24,15,21,30,05,28,13,,,,,,2.13,1.19,1.76*04
$GPRMC,123602.600,A,5212.0841,N,00005.9597,E,0.00,77.83,270119,,,D*50
$GPVTG,77.83,T,,M,0.00,N,0.00,K,D*03

$GPGGA,123602.800,5212.0841,N,00005.9597,E,2,07,1.19,10.8,M,47.0,M,0000,0000*59
$GPGSA,A,3,24,15,21,30,05,28,13,,,,,,2.13,1.19,1.76*04
$GPRMC,123602.800,A,5212.0841,N,00005.9597,E,0.00,285.67,270119,,,D*6B
$GPVTG,285.67,T,,M,0.00,N,0.01,K,D*37
$PMTKLOG,0,1,a,31,15,0,0,1,0,0*11
$PMTK001,183,3*3A
$PMTK869,2,0*37

$GPGGA,123603.000,5212.0841,N,00005.9597,E,2,07,1.19,10.8,M,47.0,M,0000,0000*50
$GPGSA,A,3,24,15,21,30,05,28,13,,,,,,2.13,1.19,1.76*04
$GPRMC,123603.000,A,5212.0841,N,00005.9597,E,0.01,78.84,270119,,,D*5E
$GPVTG,78.84,T,,M,0.01,N,0.01,K,D*0B

$GPGGA,123603.200,5212.0841,N,00005.9597,E,2,07,1.19,10.8,M,47.0,M,0000,0000*52
$GPGSA,A,3,24,15,21,30,05,28,13,,,,,,2.13,1.19,1.76*04
$GPRMC,123603.200,A,5212.0841,N,00005.9597,E,0.01,267.23,270119,,,D*6D
$GPVTG,267.23,T,,M,0.01,N,0.01,K,D*3A

$GPGGA,123603.400,5212.0841,N,00005.9597,E,2,07,1.19,10.8,M,47.0,M,0000,0000*54
$GPGSA,A,3,24,15,21,30,05,28,13,,,,,,2.13,1.19,1.76*04
$GPGSV,3,1,11,13,86,313,39,28,51,097,36,15,49,290,43,30,37,066,37*7F
$GPGSV,3,2,11,05,34,188,40,36,23,142,34,24,15,246,32,21,13,295,30*74
$GPGSV,3,3,11,20,10,324,,08,08,023,,07,06,065,*4C
$GPRMC,123603.400,A,5212.0841,N,00005.9597,E,0.00,9.74,270119,,,D*62
$GPVTG,9.74,T,,M,0.00,N,0.01,K,D*33

$GPGGA,123603.600,5212.0841,N,00005.9597,E,2,07,1.19,10.8,M,47.0,M,0000,0000*56
$GPGSA,A,3,24,15,21,30,05,28,13,,,,,,2.13,1.19,1.76*04
$GPRMC,123603.600,A,5212.0841,N,00005.9597,E,0.01,186.29,270119,
,,D*6F
$GPVTG,186.29,T,,M,0.01,N,0.02,K,D*3F

$GPGGA,123603.800,5212.0841,N,00005.9597,E,2,07,1.19,10.8,M,47.0,M,0000,0000*58
$GPGSA,A,3,24,15,21,30,05,28,13,,,,,,2.13,1.19,1.76*04
$GPRMC,123603.800,A,5212.0841,N,00005.9597,E,0.00,65.19,270119,,,D*5F
$GPVTG,65.19,T,,M,0.00,N,0.00,K,D*03

$PMTKLOG,0,1,a,31,15,0,0,1,0,0*11
$PMTK001,183,3*3A
$PMTK869,2,0*37

$GPGGA,123604.000,5212.0841,N,00005.9597,E,2,07,1.19,10.8,M,47.0,M,0000,0000*57
$GPGSA,A,3,24,15,21,30,05,28,13,,,,,,2.13,1.19,1.76*04
$GPRMC,123604.000,A,5212.0841,N,00005.9597,E,0.01,338.86,270119,,,D*6C
$GPVTG,338.86,T,,M,0.01,N,0.02,K,D*3D

$GPGGA,123604.200,5212.0841,N,00005.9597,E,2,07,1.19,10.8,M,47.0,M,0000,0000*55
$GPGSA,A,3,24,15,21,30,05,28,13,,,,,,2.13,1.19,1.76*04
$GPRMC,123604.200,A,5212.0841,N,00005.9597,E,0.00,137.32,270119,,,D*6D
$GPVTG,137.32,T,,M,0.00,N,0.01,K,D*3D

$GPGGA,123604.400,5212.0841,N,00005.9597,E,2,07,1.19,10.8,M,47.0,M,0000,0000*53
$GPGSA,A,3,24,15,21,30,05,28,13,,,,,,2.13,1.19,1.76*04
$GPGSV,3,1,11,13,86,313,40,28,51,097,38,15,49,290,45,30,37,066,38*76
$GPGSV,3,2,11,05,34,188,42,36,23,142,35,24,15,246,35,21,13,295,31*71
$GPGSV,3,3,11,20,10,324,,08,08,023,,07,06,065,*4C
$GPRMC,123604.400,A,5212.0841,N,00005.9597,E,0.00,271.64,270119,,,D*69
$GPVTG,271.64,T,,M,0.00,N,0.00,K,D*3E

$GPGGA,123604.600,5212.0841,N,00005.9597,E,2,07,1.19,10.8,M,47.0,M,0000,0000*51
$GPGSA,A,3,24,15,21,30,05,28,13,,,,,,2.13,1.19,1.76*04
$GPRMC,123604.600,A,5212.0841,N,00005.9597,E,0.00,317.05,270119,,,D*6D
$GPVTG
,317.05,T,,M,0.00,N,0.01,K,D*39

$GPGGA,123604.800,5212.0841,N,00005.9597,E,2,07,1.20,10.8,M,47.0,M,0000,0000*55
$GPGSA,A,3,24,15,21,30,05,28,13,,,,,,2.13,1.20,1.76*0E
$GPRMC,123604.800,A,5212.0841,N,00005.9597,E,0.00,29.36,270119,,,D*5D
$GPVTG,29.36,T,,M,0.00,N,0.01,K,D*07

$PMTKLOG,0,1,a,31,15,0,0,1,0,0*11
$PMTK001,183,3*3A
$PMTK869,2,0*37

$GPGGA,123605.000,5212.0841,N,00005.9597,E,2,07,1.19,10.8,M,47.0,M,0000,0000*56
$GPGSA,A,3,24,15,21,30,05,28,13,,,,,,2.13,1.19,1.76*04
$GPRMC,123605.000,A,5212.0841,N,00005.9597,E,0.01,26.68,270119,,,D*51
$GPVTG,26.68,T,,M,0.01,N,0.01,K,D*02

$GPGGA,123605.200,5212.0841,N,00005.9597,E,2,07,1.19,10.8,M,47.0,M,0000,0000*54
$GPGSA,A,3,24,15,21,30,05,28,13,,,,,,2.13,1.19,1.76*04
$GPRMC,123605.200,A,5212.0841,N,00005.9597,E,0.01,256.73,270119,,,D*6C
$GPVTG,256.73,T,,M,0.01,N,0.02,K,D*3E

$GPGG
A,123605.400,5212.0841,N,00005.9597,E,2,07,1.20,10.8,M,47.0,M,0000,0000*58
$GPGSA,A,3,24,15,21,30,05,28,13,,,,,,2.13,1.20,1.76*0E
$GPGSV,3,1,11,13,86,313,40,28,51,097,38,15,49,290,44,30,37,066,38*77
$GPGSV,3,2,11,05,34,188,41,36,23,142,36,24,15,246,34,21,13,295,31*70
$GPGSV,3,3,11,20,10,324,,08,08,023,,07,06,065,*4C
$GPRMC,123605.400,A,5212.0841,N,00005.9597,E,0.00,65.94,270119,,,D*50
$GPVTG,65.94,T,,M,0.00,N,0.01,K,D*07

$GPGGA,123605.600,5212.0841,N,00005.9597,E,2,07,1.20,10.8,M,47.0,M,0000,0000*5A
$GPGSA,A,3,24,15,21,30,05,28,13,,,,,,2.13,1.20,1.76*0E
$GPRMC,123605.600,A,5212.0841,N,00005.9597,E,0.01,15.92,270119,,,D*52
$GPVTG,15.92,T,,M,0.01,N,0.01,K,D*07

$GPGGA,123605.800,5212.0841,N,00005.9597,E,2,07,1.20,10.8,M,47.0,M,0000,0000*54
$GPGSA,A,3,24,15,21,30,05,28,13,,,,,,2.13,1.20,1.76*0E
$GPRMC,123605.800,A,5212.0841,N,00005.9597,E,0.00,316.99,270119,,,D*66
$GPVTG,316.99,T,,M,0.00,N,0.01,K,D*3D

$PMTKLOG,0,1,a,31,15,0,0,1,0,0*11
$PMTK001,183,3*3A
$PMTK869,2,0*37

$GPGGA,123606.000,5212.0841,N,00005.9597,E,2,07,1.19,10.8,M,47.0,M,0000,0000*55
$GPGSA,A,3,24,15,21,30,05,28,13,,,,,,2.13,1.19,1.76*04
$GPRMC,123606.000,A,5212.0841,N,00005.9597,E,0.00,14.39,270119,,,D*56
$GPVTG,14.39,T,,M,0.00,N,0.00,K,D*07

$GPGGA,123606.200,5212.0841,N,00005.9597,E,2,07,1.19,10.8,M,47.0,M,0000,0000*57
$GPGSA,A,3,24,15,21,30,05,28,13,,,,,,2.12,1.19,1.76*05
$GPRMC,123606.200,A,5212.0841,N,00005.9597,E,0.00,325.06,270119,,,D*69
$GPVTG,325.06,T,,M,0.00,N,0.01,K,D*3B

$GPGGA,123606.400,521
2.0841,N,00005.9597,E,2,07,1.19,10.8,M,47.0,M,0000,0000*51
$GPGSA,A,3,24,15,21,30,05,28,13,,,,,,2.13,1.19,1.76*04
$GPGSV,3,1,11,13,86,313,40,28,51,097,37,15,49,290,43,30,37,066,37*70
$GPGSV,3,2,11,05,34,188,40,36,23,142,35,24,15,246,33,21,13,295,31*75
$GPGSV,3,3,11,20,10,324,,08,08,023,,07,06,065,*4C
$GPRMC,123606.400,A,5212.0841,N,00005.9597,E,0.00,72.48,270119,,,D*54
$GPVTG,72.48,T,,M,0.00,N,0.00,K,D*01

$GPGGA,123606.600,5212.0841,N,00005.9597,E,2,07,1.19,10.8,M,47.0,M,0000,0000*53
$GPGSA,A,3,24,15,21,30,05,28,13,,,,,,2.13,1.19,1.76*04
$GPRMC,123606.600,A,5212.0841,N,00005.9597,E,0.00,350.52,270119,
,,D*6E
$GPVTG,350.52,T,,M,0.00,N,0.01,K,D*38

$GPGGA,123606.800,5212.0841,N,00005.9597,E,2,07,1.19,10.8,M,47.0,M,0000,0000*5D
$GPGSA,A,3,24,15,21,30,05,28,13,,,,,,2.13,1.19,1.76*04
$GPRMC,123606.800,A,5212.0841,N,00005.9597,E,0.00,358.96,270119,,,D*60
$GPVTG,358.96,T,,M,0.00,N,0.00,K,D*39

$PMTKLOG,0,1,a,31,15,0,0,1,0,0*11
$PMTK001,183,3*3A
$PMTK869,2,0*37
$GPGGA,123607.000,5212.0841,N,00005.9597,E,2,07,1.1
9,10.8,M,47.0,M,0000,0000*54
$GPGSA,A,3,24,15,21,30,05,28,13,,,,,,2.13,1.19,1.76*04
$GPRMC,123607.000,A,5212.0841,N,00005.9597,E,0.00,330.81,270119,,,D*61
$GPVTG,330.81,T,,M,0.00,N,0.00,K,D*31

$GPGGA,123607.200,5212.0841,N,00005.9597,E,2,07,1.19,10.8,M,47.0,M,0000,0000*56
$GPGSA,A,3,24,15,21,30,05,28,13,,,,,,2.13,1.19,1.76*04
$GPRMC,123607.200,A,5212.0841,N,00005.9597,E,0.00,0.00,270119,,,D*6A
$GPVTG,0.00,T,,M,0.00,N,0.00,K,D*38

$GPGGA,123607.400,5212.0841,N,00005.9597,E,2,07,1.19,10.8,M,47.0,M,0000,0000*50
$GPGSA,A,3,24,15,21,30,05,28,13,,,,,,2.13,1.19,1.76*04
$GPGSV,3,1,11,13,86,313,40,28,51,097,37,15,49,290,43,30,37,066,37*70
$GPGSV,3,2,11,05,34,188,41,36,23,142,35,24,15,246,33,21,13,295,31*74
$GPGSV,3,3,11,20,10,324,,08,08,023,,07,06,065,*4C
$GPRMC,123607.400,A,5212.0841,N,00005.9597,E,0.00,0.00,270119,,,D*6C
$GPVTG,0.00,T,,M,0.00,N,0.00,K,D*38

$GPGGA,123607.600,5212.0841,N,00005.9597,E,2,07,1.19,10.8,M,47.0,M,0000,0000*52
$GPGSA,A,3,24,15,21,30,05,28,13,,,,,,2.13,1.19,1.76*04
$GPRMC,123607.600,A,5212.0841,N,00005.9597,E,0.00,350.23,270119,,,D*69
$GPVTG,350.23,T,,M,0.00,N,0.00,K,D*3F

$GPGGA,123607.800,5212.0841,N,00005.9597,E,2,07,1.19,10.8,M,47.0,M,0000,0000*5C
$GPGSA,A,3,24,15,21,30,05,28,13,,,,,,2.13,1.19,1.76*04
$GPRMC,123607.800,A,5212.0841,N,00005.9597,E,0.00,0.00,270119,,,D*60
$GPVTG,0.00,T,,M,0.00,N,0.00,K,D*38
$PMTKLOG,0,1,a,31,15,0,0,1,0,0*11
$PMTK001,183,3*3A
$PMTK869,2,0*37

$GPGGA,123608.000,5212.0841,N,00005.9597,E,2,07,1.20,10.8,M,47.0,M,0000,0000*51
$GPGSA,A,3,24,15,21,30,05,28,13,,,,,,2.13,1.20,1.76*0E
$GPRMC,123608.000,A,5212.0841,N,00005.9597,E,0.00,285.50,270119,,,D*6D
$GPVTG,285.50,T,,M,0.00,N,0.01,K,D*33

$GPGGA,123608.200,5212.0841,N,00005.9597,E,2,07,1.19,10.8,M,47.0,M,0000,0000*59
$GPGSA,A,3,24,15,21,30,05,28,13,,,,,,2.13,1.19,1.76*04
$GPRMC,123608.200,A,5212.0841,N,00005.9597,E,0.00,80.37,270119,,,D*59
$GPVTG,80.37,T,,M,0.00,N,0.00,K,D*04

$GPGGA,123608.40
0,5212.0841,N,00005.9597,E,2,07,1.19,10.8,M,47.0,M,0000,0000*5F
$GPGSA,A,3,24,15,21,30,05,28,13,,,,,,2.13,1.19,1.76*04
$GPGSV,3,1,11,13,86,313,41,28,51,097,40,15,49,290,46,30,37,066,40*74
$GPGSV,3,2,11,05,34,188,43,36,23,142,37,24,15,246,36,21,13,295,34*74
$GPGSV,3,3,11,20,10,324,,08,08,023,,07,06,065,*4C
$GPRMC,123608.400,A,5212.0841,N,00005.9597,E,0.00,107.02,270119,,,D*67
$GPVTG,107.02,T,,M,0.00,N,0.00,K,D*3C

$GPGGA,123608.600,5212.0841,N,00005.9597,E,2,07,1.19,10.8,M,47.0,M,0000,0000*5D
$GPGSA,A,3,24,15,21,30,05,28,13,,,,,,2.13,1.19,1.76*04
$GPRMC,123608.600,A,5212.0841,N,00005.9597,E,0.00,209.73,270119,,,D*6E
$GPVTG,209.73,T,,M,0.00
,N,0.01,K,D*36

$GPGGA,123608.800,5212.0841,N,00005.9597,E,2,07,1.19,10.8,M,47.0,M,0000,0000*53
$GPGSA,A,3,24,15,21,30,05,28,13,,,,,,2.12,1.19,1.76*05
$GPRMC,123608.800,A,5212.0841,N,00005.9597,E,0.00,28.82,270119,,,D*5F
$GPVTG,28.82,T,,M,0.00,N,0.01,K,D*09

$PMTKLOG,0,1,a,31,15,0,0,1,0,0*11
$PMTK001,183,3*3A
$PMTK869,2,0*37

$GPGGA,123609.000,5212.0841,N,00005.9597,E,2,07,1.19,10.8,M,47.0,M,0000,0000*5A
$GPGSA,A,3,24,15,21,30,05,28,13,,,,,,2.13,1.19,1.76*04
$GPRMC,123609.000,A,5212.0841,N,00005.9597,E,0.00,0.00,270119,,,D*66
$GPVTG,0.00,T,,M,0.00,N,0.00,K,D*38

$GPGGA,123609.200,5212.0841,N,00005.9597,E,2,07,1.19,10.8,M,47.0,M,0000,0000*58
$GPGSA,A,3,24,15,21,30,05,28,13,,,,,,2.12,1.19,1.76*05
$GPRMC,123609.200,A,5212.0841,N,00005.9597,E,0.00,32.15,270119,,,D*51
$GPVTG,32.15,T,,M,0.00,N,0.00,K,D*0D

$GPGGA,123609.400,5212.0841,N,00005.9597,E,2,07,1.19,10.8,M,47.0,M,0000,0000*5E
$GPGSA,A,3,24,15,21,30,05,28,13,,,,,,2.13,1.19,1.76*04
$GPGSV,3,1,11,13,86,313,41,28,51,097,39,15,49,290,45,30,37,066,39*77
$GPGSV,3,2,11,05,34,188,42,36,23,142,36,24,15,246,35,21,13,295,32*71
$GPGSV,3,3,11,20,10,324,,08,08,023,,07,06,065,*4C
$GPRMC,123609.400,A,5212.0841,N,00005.9597,E,0.00,0.00,270119,,,D*62
$GPVTG,0.00,T,,M,0.00,N,0.00,K,D*38

$GPGGA,123609.600,5212.0841,N,00005.9597,E,2,07,1.19,10.8,M,47.0,M,0000,0000*5C
$GPGSA,A,3,24,15,21,30,05,28,13,,,,,,2.12,1.19,1.76*05
$GPRMC,123609.600,A,5212.0841,N,00005.9597,E,0.00,283.32,270119,,,D*68
$GPVTG,283.32,T,,M,0.00,N,0.00,K,D*30


$GPGGA,123609.800,5212.0841,N,00005.9597,E,2,07,1.19,10.8,M,47.0,M,0000,0000*52
$GPGSA,A,3,24,15,21,30,05,28,13,,,,,,2.13,1.19,1.76*04
$GPRMC,123609.800,A,5212.0841,N,00005.9597,E,0.00,10.93,270119,,,D*55
$GPVTG,10.93,T,,M,0.00,N,0.00,K,D*03

$PMTKLOG,0,1,a,31,15,0,0,1,0,0*11
$PMTK001,183,3*3A
$PMTK869,2,0*37

$GPGGA,123610.000,5212.0841,N,00005.9597,E,2,07,1.20,10.8,M,47.0,M,0000,0000*58
$GPGSA,A,3,24,15,21,30,05,28,13,,,,,,2.13,1.20,1.76*0E
$GPRMC,123610.000,A,5212.0841,N,00005.9597,E,0.00,72.14,270119,,,D*5E
$GPVTG,72.14,T,,M,0.00,N,0.01,K,D*09

$GPGGA,123610.200,5212.0841,N,00005.9597,E,2,07,1.19,10.8,M,47.0,M,0000,0000*50
$GPGSA,A,3,24,15,21,30,05,28,13,,,,,,2.12,1.19,1.76*05
$GPRMC,123610.200,A,5212.0841,N,00005.9597,E,0.01,22.75,270119,,,D*5F
$GPVTG,22.75,T,,M,0.01,N,0.01,K,D*0A

$GPGGA,123610.400,5212.0841,N,00005.9597,E,2,07,1.20,10.9,M,47.0,M,0000,0000*5D
$GPGSA,A,3,24,15,21,30,05,28,13,,,,,,2.13,1.20,1.76*0E
$GPG
SV,3,1,11,13,86,313,41,28,51,097,39,15,49,290,45,30,37,066,39*77
$GPGSV,3,2,11,05,34,188,42,36,23,142,36,24,15,246,34,21,13,295,32*70
$GPGSV,3,3,11,20,10,324,,08,08,023,,07,06,065,*4C
$GPRMC,123610.400,A,5212.0841,N,00005.9597,E,0.00,0.00,270119,,,D*6A
$GPVTG,0.00,T,,M,0.00,N,0.00,K,D*38

$GPGGA,123610.600,5212.0841,N,00005.9597,E,2,07,1.19,10.9,M,47.0,M,0000,0000*55
$GPGSA,A,3,24,15,21,30,05,28,13,,,,,,2.12,1.19,1.76*05
$GPRMC,123610.600,A,5212.0841,N,00005.9597,E,0.01,247.92,270119,,,D*63
$GPVTG,247.92,T,,M,0.01,N,0.02,K,D*31

$GPGGA,123610.800,5212.0841,N,00005.9597,E,2,07,1.19,10.9,M,47.0,M,0000,0000*5B
$GPGSA,A,3,24,15,21,30,05,28,13,,,,,,2.12,1.19,1.76*05
$GPRMC,123610.800,A,5212.0841,N,00005.9597,E,0.00,245.53,270119,,,D*63
$GPVTG,245.53,T,,M,0.00,N,0.01,K,D*3C
$PMTKLOG,0,1,a,31,15,0,0,1,0,0*11
$PMTK001,183,3*3A
$PMTK869,2,0*37

$GPGGA,123611.000,5212.0841,N,00005.9597,E,2,07,1.19,10.9,M,47.0,M,0000,0000*52
$GPGSA,A,3,24,15,21,30,05,28,13,,,,,,2.12,1.19,1.76*05
$GPRMC,123611.000,A,5212.0841,N,00005.9597,E,0.01,65.06,270119,,,D*5B
$GPVTG,65.06,T,,M,0.01,N,0.02,K,D*0E

$GPGGA,123611.200,5212.0841,N,00005.9597,E,2,07,1.19,10.9,M,47.0,M,0000,0000*50
$GPGSA,A,3,24,15,21,30,05,28,13,,,,,,2.12,1.19,1.76*05
$GPRMC,123611.200,A,5212.0841,N,00005.9597,E,0.00,169.88,270119,,,D*63
$GPVTG,169.88,T,,M,0.00,N,0.00,K,D*36

$GPGGA,123611.400,5212.0841,N,00005.9597,E,2,07,1.20,10.9,M,47.0,M,0000,0000*5C
$GPGSA,A,3,24,15,21,30,05,28,13,,,,,,2.13,1.20,1.76*0E
$GPGSV,3,1,11,13,86,314,40,28,51,097,39,15,49,290,45,30,37,066,39*71
$GPGSV,3,2,11,05,34,188,42,36,23,142,36,24,15,246,35,21,13,295,33*70
$GPGSV,3,3,11,20,10,324,,08,08,023,,07,06,065,*4C
$GPRMC,123611.400,A,5212.0841,N,00005.9597,E,0.00,4.26,270119,,,D*6B
$GPVTG,4.26,T,,M,0.00,N,0.00,K,D*38

$GPGGA,123611.600,5212.0841,N,00005.9597,E,2,07,1.19,10.9,M,47.0,M,0000,0000*54
$GPGSA,A,3,24,15,21,30,05,28,13,,,,,,2.12,1.19,1.76*05
$GPRMC,123611.600,A,5212.0841,N,00005.9597,E,0.00,0.00,270119,,,D*69
$GPVTG,0.00,T,,M,0.00,N,0.00,K,D*38

$GPGGA,123611.800,5212.0841,N,00005.9597,E,2,07,1.19,10.9,M,47.0,M,0000,0000*5A
$GPGSA,A,3,24,15,21,30,05,28,13,,,,,,2.13,1.19,1.76*04
$GPRMC,123611.800,A,5212.0841,N,00005.9597,E,0.00,75.78,270119,,,D*5A
$GPVTG,75.78,T,,M,0.00,N,0.01,K,D*04

$PMTKLOG,0,1,a,31,15,0,0,1,0,0*11
$PMTK001,183,3*3A
$PMTK869,2,0*37

$GPGGA,123612.000,5212.0841,N,00005.9597,E,2,07,1.19,10.9,M,47.0,M,0000,0000*51
$GPGSA,A,3,24,15,21,30,05,28,13,,,,,,2.12,1.19,1.76*05
$GPRMC,123612.000,A,5212.0841,N,00005.9597,E,0.00,275.02,270119,,,D*6E
$GPVTG,275.02,T,,M,0.00,N,0.01,K,D*3B

$GPGGA,123612.200,5212.0841,N,00005.9597,E,2,07,1.19,10.9,M,47.0,M,0000,0000*53
$GPGSA,A,3,24,15,21,30,05,28,13,,,,,
,2.12,1.19,1.76*05
$GPRMC,123612.200,A,5212.0841,N,00005.9597,E,0.00,307.04,270119,,,D*6E
$GPVTG,307.04,T,,M,0.00,N,0.01,K,D*39

$GPGGA,123612.400,5212.0841,N,00005.9597,E,2,07,1.19,10.9,M,47.0,M,0000,0000*55
$GPGSA,A,3,24,15,21,30,05,28,13,,,,,,2.12,1.19,1.76*05
$GPGSV,3,1,11,13,86,314,39,28,51,097,36,15,49,290,43,30,37,066,36*79
$GPGSV,3,2,11,05,34,188,40,36,23,142,34,24,15,246,34,21,13,295,31*73
$GPGSV,3,3,11,20,10,324,,08,08,023,,07,06,065,*4C
$GPRMC,123612.400
,A,5212.0841,N,00005.9597,E,0.00,242.80,270119,,,D*64
$GPVTG,242.80,T,,M,0.00,N,0.01,K,D*35

$GPGGA,123612.600,5212.0841,N,00005.9597,E,2,07,1.19,10.9,M,47.0,M,0000,0000*57
$GPGSA,A,3,24,15,21,30,05,28,13,,,,,,2.13,1.19,1.76*04
$GPRMC,123612.600,A,5212.0841,N,00005.9597,E,0.01,350.35,270119,,,D*6B
$GPVTG,350.35,T,,M,0.01,N,0.03,K,D*3A

$GPGGA,123612.800,5212.0841,N,00005.9597,E,2,07,1.19,10.9,M,47.0,M,0000,0000*59
$GPGSA,A,3,24,15,21,30,05,28,13,,,,,,2.12,1.19,1.76*05
$GPRMC,123612.800,A,5212.0841,N,00005.9597,E,0.01,175.81,270119,,,D*6F
$GPVTG,175.81,T,,M,0.01,N,0.01,K,D*32
$PMTKLOG,0,1,a,31,15,0,0,1,0,0*11
$PMTK001,183,3*3A
$PMTK869,2,0*37

$GPGGA,123613.000,5212.0841,N,00005.9597,E,2,07,1.19,10.9,M,47.0,M,0000,0000*50
$GPGSA,A,3,24,15,21,30,05,28,13,,,,,,2.12,1.19,1.76*05
$GPRMC,123613.000,A,5212.0841,N,00005.9597,E,0.00,203.10,270119,,,D*6D
$GPVTG,203.10,T,,M,0.00,N,0.01,K,D*39

$GPGGA,123613.200,5212.0841,N,00005.9597,E,2,07,1.19,10.9,M,47.0,M,0000,0000*52
$GPGSA,A,3,24,15,21,30,05,28,13,,,,,,2.12,1.19,1.76*05
$GPRMC,123613.200,A,5212.0841,N,00005.9597,E,0.00,331.62,270119,,,D*6A
$GPVTG,331.62,T,,M,0.00,N,0.01,K,D*3C

$GPGGA,123613.400,5212.0841,N,00005.9597,E,2,07,1.19,10.9,M,47.0,M,0000,0000*54
$GPGSA,A,3,24,15,21,30,05,28,13,,,,,,2.12,1.19,1.76*05
$GPGSV,3,1,11,13,86,314,40,28,51,097,38,15,49,290,45,30,37,06
6,38*71
$GPGSV,3,2,11,05,34,188,41,36,23,142,36,24,15,246,35,21,13,295,33*73
$GPGSV,3,3,11,20,10,324,,08,08,023,,07,06,065,*4C
$GPRMC,123613.400,A,5212.0841,N,00005.9597,E,0.00,165.41,270119,,,D*6E
$GPVTG,165.41,T,,M,0.00,N,0.01,K,D*3E

$GPGGA,123613.600,5212.0841,N,00005.9597,E,2,07,1.19,10.9,M,47.0,M,0000,0000*56
$GPGSA,A,3,24,15,21,30,05,28,13,,,,,,2.12,1.19,1.76*05
$GPRMC,123613.600,A,5212.0841,N,00005.9597,E,0.00,4.74,270119,,,D*6C
$GPVTG,4.74,T,,M,0.00,N,0.01,K,D*3E

$GPGGA,123613.800,5212.0841,N,00005.9597,E,2,07,1.19,10.9,M,47.0,M,0000,0000*58
$GPGSA,A,3,24,15,21,30,05,28,13,,,,,,2.12,1.19,1.76*05
$GPRMC,123613.800,A,5212.0841,N,00005.9597,E,0.00,119.25,270119,,,D*6B
$GPVTG,119.25,T,,M,0.00,N,0.00,K,D*36

$PMTKLOG,0,1,a,31,15,0,0,1,0,0*11
$PMTK001,183,3*3A
$PMTK869,2,0*37

$GPGGA,123614.000,5212.0841,N,00005.9597,E,2,07,1.19,10.9,M,47.0,M,0000,0000*57
$GPGSA,A,3,24,15,21,30,05,28,13,,,,,,2.12,1.19,1.76*05
$GPRMC,123614.000,A,5212.0841,N,00005.9597,E,0.01,92.43,270119,,,D*57
$GPVTG,92.43,T,,M,0.01,N,0.01,K,D*04

$GPGGA,123614.200,5212.0841,N,00005.9597,E,2,07,1.19,10.9,M,47.0,M,0000,0000*55
$GPGSA,A,3,24,15,21,30,05,28,13,,,,,,2.12,1.19,1.76*05
$GPRMC,123614.200,A,5212
.0841,N,00005.9597,E,0.01,264.77,270119,,,D*69
$GPVTG,264.77,T,,M,0.01,N,0.01,K,D*38

$GPGGA,123614.400,5212.0841,N,00005.9597,E,2,07,1.19,10.9,M,47.0,M,0000,0000*53
$GPGSA,A,3,24,15,21,30,05,28,13,,,,,,2.12,1.19,1.76*05
$GPGSV,3,1,11,13,86,314,40,28,51,097,38,15,49,290,44,30,37,066,38*70
$GPGSV,3,2,11,05,34,188,41,36,23,142,35,24,15,246,35,21,13,295,32*71
$GPGSV,3,3,11,20,10,324,,08,08,023,,07,06,065,*4C
$GPRMC,123614.400,A,5212.0841,N,
00005.9597,E,0.01,64.49,270119,,,D*50
$GPVTG,64.49,T,,M,0.01,N,0.01,K,D*07

$GPGGA,123614.600,5212.0841,N,00005.9597,E,2,07,1.19,10.9,M,47.0,M,0000,0000*51
$GPGSA,A,3,24,15,21,30,05,28,13,,,,,,2.12,1.19,1.76*05
$GPRMC,123614.600,A,5212.0841,N,00005.9597,E,0.00,249.78,270119,,,D*6C
$GPVTG,249.78,T,,M,0.00,N,0.00,K,D*38

$GPGGA,123614.800,5212.0841,N,00005.9597,E,2,07,1.19,10.9,M,47.0,M,0000,0000*5F
$GPGSA,A,3,24,15,21,30,05,28,13,,,,,,2.12,1.19,1.76*05
$GPRMC,123614.800,A,5212.0841,N,00005.9597,E,0.01,66.38,270119,,,D*58
$GPVTG,66.38,T,,M,0.01,N,0.01,K,D*03
$PMTKLOG,0,1,a,31,15,0,0,1,0,0*11
$PMTK001,183,3*3A
$PMTK869,2,0*37

$GPGGA,123615.000,5212.0841,N,00005.9597,E,2,07,1.19,10.9,M,47.0,M,0000,0000*56
$GPGSA,A,3,24,15,21,30,05,28,13,,,,,,2.12,1.19,1.76*05
$GPRMC,123615.000,A,5212.0841,N,00005.9597,E,0.00,100.61,270119,,,D*6D
$GPVTG,100.61,T,,M,0.00,N,0.00,K,D*3E

$GPGGA,123615.200,5212.0841,N,00005.9597,E,2,07,1.19,10.9,M,47.0,M,0000,0000*54
$GPGSA,A,3,24,15,21,30,05,28,13,,,,,,2.12,1.19,1.76*05
$GPRMC,123615.200,A,5212.0841,N,00005.9597,E,0.00,98.17,270119,,,D*5E
$GPVTG,98.17,T,,M,0.00,N,0.01,K,D*0E

$GPGGA,123615.400,5212.0841,N,00005.9597,E,2,07,1.19,10.9,M,47.0,M,0000,0000*52
$GPGSA,A,3,24,15,21,30,05,28,13,,,,,,2.12,1.19,1.76*05
$GPGSV,3,1,11,13,86,314,39,28,51,097,37,15,49,290,43,30,37,066,38*76
$GPGSV,3,2,11,05,34,188,40,36,23,142,34,24,15
,246,34,21,13,295,30*72
$GPGSV,3,3,11,20,10,324,,08,08,023,,07,06,065,*4C
$GPRMC,123615.400,A,5212.0841,N,00005.9597,E,0.00,0.00,270119,,,D*6F
$GPVTG,0.00,T,,M,0.00,N,0.00,K,D*38

$GPGGA,123615.600,5212.0841,N,00005.9597,E,2,07,1.19,10.9,M,47.0,M,0000,0000*50
$GPGSA,A,3,24,15,21,30,05,28,13,,,,,,2.12,1.19,1.76*05
$GPRMC,123615.600,A,5212.0841,N,00005.9597,E,0.00,0.00,270119,,,D*6D
$GPVTG,0.00,T,,M,0.00,N,0.00,K,D*38

$GPGGA,123615.800,5212.0841,N,00005.9597,E,2,07,1.19,10.9,M,47.0,M,0000,0000*5E
$GPGSA,A,3,24,15,21,30,05,28,13,,,,,,2.12,1.19,1.76*05
$GPRMC,123615.800,A,5212.0841,N,00005.9597,E,0.00,0.00,270119,,,D*63
$GPVTG,0.00,T,,M,0.00,N,0.00,K,D*38

$PMTKLOG,0,1,a,31,15,0,0,1,0,0*11
$PMTK001,183,3*3A
$PMTK869,2,0*37

$GPGGA,123616.000,5212.0841,N,00005.9597,E,2,07,1.19,10.9,M,47.0,M,0000,0000*55
$GPGSA,A,3,24,15,21,30,05,28,13,,,,,,2.12,1.19,1.76*05
$GPRMC,123616.000,A,5212.0841,N,00005.9597,E,0.00,68.22,270119,,,D*56
$GPVTG,68.22,T,,M,0.00,N,0.01,K,D*07

$GPGGA,123616.200,5212.0841,N,00005.9597,E,2,07,1.19,10.9,M,47.0,M,0000,0000*57
$GPGSA,A,3,24,15,21,30,05,28,13,,,,,,2.12,1.19,1.76*05
$GPRMC,123616.200,A,5212.0841,N,00005.9597,E,0.00,61.05,270119,,,D*58
$GPVTG,61.05,T,,M,0.00,N,0.01,K,D*0B

$GPGGA,123616.400,5212.0841,N,00005.9597,E,2,07,1.19,10.9,M,47.0,M,0000,0000*51
$GPGSA,A,3,24,15,21,30,05,28,13,,,,,,2.12,1.19,1.76*05
$GPGSV,3,1,11,13,86,314,40,28,51,097,38,15,49,290,44,30,37,066,38*70
$GPGSV,3,2,11,05,34,188,41,36,23,142,35,24,15,246,34,21,13,295,31*73
$GPGSV,3,3,11,20,10,324,,08,08,023,,07,06,065,*4C
$GPRMC,1
23616.400,A,5212.0841,N,00005.9597,E,0.00,356.61,270119,,,D*6B
$GPVTG,356.61,T,,M,0.00,N,0.00,K,D*3F

$GPGGA,123616.600,5212.0841,N,00005.9597,E,2,07,1.19,10.9,M,47.0,M,0000,0000*53
$GPGSA,A,3,24,15,21,30,05,28,13,,,,,,2.12,1.19,1.76*05
$GPRMC,123616.600,A,5212.0841,N,00005.9597,E,0.00,105.83,270119,,,D*61
$GPVTG,105.83,T,,M,0.00,N,0.01,K,D*36

$GPGGA,123616.800,5212.0841,N,00005.9597,E,2,07,1.19,10.9,M,47.0,M,0000,0000*5D
$GPGSA,A,3,24,15,21,30,05,28,13,,,,,,2.12,1.19,1.76*05
$GPRMC,123616.800,A,5212.0841,N,00005.9597,E,0.00,4.64,270119,,,D*66
$GPVTG,4.64,T,,M,0.00,N,0.01,K,D*3F

$GPGGA,123617.000,5212.0841,N,00005.9597,E,2,07,1.19,10.9,M,47.0,M,0000,0000*54
$GPGSA,A,3,24,15,21,30,05,28,13,,,,,,2.12,1.19,1.76*05
$GPRMC,123617.000,A,5212.0841,N,00005.9597,E,0.00,73.97,270119,,,D*53
$GPVTG,73.97,T,,M,0.00,N,0.01,K,D*03
$PMTKLOG,0,1,a,31,15,0,0,1,0,0*11
$PMTK001,183,3*3A
$PMTK869,2,0*37

$GPGGA,123617.200,5212.0841,N,00005.9597,E,2,07,1.19,10.9,M,47.0,M,0000,0000*56
$GPGSA,A,3,24,15,21,30,05,28,13,,,,,,2.12,1.19,1.76*05
$GPRMC,123617.200,A,5212.0841,N,00005.9597,E,0.00,269.42,270119,,,D*
60
$GPVTG,269.42,T,,M,0.00,N,0.01,K,D*32

$GPGGA,123617.400,5212.0841,N,00005.9597,E,2,07,1.19,10.9,M,47.0,M,0000,0000*50
$GPGSA,A,3,24,15,21,30,05,28,13,,,,,,2.12,1.19,1.76*05
$GPGSV,3,1,11,13,86,314,40,28,51,097,37,15,49,290,44,30,37,066,38*7F
$GPGSV,3,2,11,05,34,188,41,36,23,142,35,24,15,246,34,21,13,295,32*70
$GPGSV,3,3,11,20,10,324,,08,08,023,,07,06,065,*4C
$GPRMC,123617.400,A,5212.0841,N,00005.9597,E,0.00,359.95,
270119,,,D*6E
$GPVTG,359.95,T,,M,0.00,N,0.01,K,D*3A

$GPGGA,123617.600,5212.0841,N,00005.9597,E,2,07,1.19,10.9,M,47.0,M,0000,0000*52
$GPGSA,A,3,24,15,21,30,05,28,13,,,,,,2.12,1.19,1.76*05
$GPRMC,123617.600,A,5212.0841,N,00005.9597,E,0.01,101.94,270119,,,D*63
$GPVTG,101.94,T,,M,0.01,N,0.02,K,D*36

$GPGGA,123617.800,5212.0841,N,00005.9597,E,2,07,1.19,10.9,M,47.0,M,0000,0000*5C
$GPGSA,A,3,24,15,21,30,05,28,13,,,,,,2.12,1.19,1.76*05
$GPRMC,123617.800,A,5212.0841,N,00005.9597,E,0.00,0.00,270119,,,D*61
$GPVTG,0.00,T,,M,0.00,N,0.00,K,D*38
$PMTKLOG,0,1,a,31,15,0,0,1,0,0*11
$PMTK001,183,3*3A
$PMTK869,2,0*37

$GPGGA,123618.000,5212.0841,N,00005.9597,E,2,07,1.19,10.9,M,47.0,M,0000,0000*5B
$GPGSA,A,3,24,15,21,30,05,28,13,,,,,,2.12,1.19,1.76*05
$GPRMC,123618.000,A,5212.0841,N,00005.9597,E,0.00,227.14,270119,,,D*64
$GPVTG,227.14,T,,M,0.00,N,0.01,K,D*3B

$GPGGA,123618.200,5212.0841,N,00005.
9597,E,2,07,1.19,10.9,M,47.0,M,0000,0000*59
$GPGSA,A,3,24,15,21,30,05,28,13,,,,,,2.12,1.19,1.76*05
$GPRMC,123618.200,A,5212.0841,N,00005.9597,E,0.00,318.11,270119,,,D*6E
$GPVTG,318.11,T,,M,0.00,N,0.01,K,D*33

$GPGGA,123618.400,5212.0841,N,00005.9597,E,2,07,1.19,10.9,M,47.0,M,0000,0000*5F
$GPGSA,A,3,24,15,21,30,05,28,13,,,,,,2.12,1.19,1.76*05
$GPGSV,3,1,11,13,86,314,40,28,51,097,38,15,49,290,45,30,37,066,38*71
$GPGSV,3,2,11,05,34,188,42,36,2
3,142,35,24,15,246,35,21,13,295,33*73
$GPGSV,3,3,11,20,10,324,,08,08,023,,07,06,065,*4C
$GPRMC,123618.400,A,5212.0841,N,00005.9597,E,0.00,192.21,270119,,,D*6B
$GPVTG,192.21,T,,M,0.00,N,0.01,K,D*30

$GPGGA,123618.600,5212.0841,N,00005.9597,E,2,07,1.19,10.9,M,47.0,M,0000,0000*5D
$GPGSA,A,3,24,15,21,30,05,28,13,,,,,,2.12,1.19,1.76*05
$GPRMC,123618.600,A,5212.0841,N,00005.9597,E,0.00,98.60,270119,,,D*57
$GPVTG,98.60,T,,M,0.00,N,0.00,K,D*0F

$GPGGA,123618.800,5212.0841,N,00005.9597,E,2,07,1.19,10.9,M,47.0,M,0000,0000*53
$GPGSA,A,3,24,15,21,30,05,28,13,,,,,,2.12,1.19,1.76*05
$GPRMC,123618.800,A,5212.0841,N,00005.9597,E,0.00,268.80,270119,,,D*6A
$GPVTG,268.80,T,,M,0.00,N,0.00,K,D*3C

$PMTKLOG,0,1,a,31,15,0,0,1,0,0*11
$PMTK001,183,3*3A
$PMTK869,2,0*37

$GPGGA,123619.000,5212.0841,N,00005.9597,E,2,07,1.19,10.9,M,47.0,M,0000,0000*5A
$GPGSA,A,3,24,15,21,30,05,28,13,,,,,,2.12,1.19,1.76*05
$GPRMC,123619.000,A,5212.0841,N,00005.9597,E,0.00,14.11,270119,,,D*52
$GPVTG,14.11,T,,M,0.00,N,0.00,K,D*0D

$GPGGA,123619.200,5212.0841,N,00005.9597,E,2,07,1.19,10.9,M,47.0,M,0000,0000*58
$GPGSA,A,3,24,15,21,30,05,28,13,,,,,,2.12,1.19,1.76*05
$GPRMC,123619.200,A,5212.0841,N,00005.9597,E,0.00,0.00,270119,,,D*65
$GPVTG,0.00,T,,M,0.00,N,0.00,K,D*38

$GPGGA,123619.400,5212.0841,N,00005.9597,E,2,07,1.19,10.9,M,47.0,M,0000,0000*5E
$GPGSA,A,3,24,15,21,30,05,28,13,,,,,,2.12,1.19,1.76*05
$GPGSV,3,1,11,13,86,314,
40,28,51,097,38,15,49,290,45,30,37,066,38*71
$GPGSV,3,2,11,05,34,188,41,36,23,142,35,24,15,246,35,21,13,295,32*71
$GPGSV,3,3,11,20,10,324,,08,08,023,,07,06,065,*4C
$GPRMC,123619.400,A,5212.0841,N,00005.9597,E,0.00,0.00,270119,,,D*63
$GPVTG,0.00,T,,M,0.00,N,0.00,K,D*38

$GPGGA,123619.600,5212.0841,N,00005.9597,E,2,07,1.19,10.9,M,47.0,M,0000,0000*5C
$GPGSA,A,3,24,15,21,30,05,28,13,,,,,,2.12,1.19,1.76*05
$GPRMC,123619.600,A,5212.0841,N,00005.9597,E,0.00,49.94,270119,,,D*51
$GPVTG,49.94,T,,M,0.00,N,0.00,K,D*08

$GPGGA,123619.800,5212.0841,N,00005.9597,E,2,07,1.19,10.9,M,47.0,M,0000,0000*52
$GPGSA,A,3,24,15,21,30,05,28,13,,,,,,2.12,1.19,1.76*05
$GPRMC,123619.800,A,5212.0841,N,00005.9597,E,0.00,323.63,270119,,,D*68
$GPVTG,323.63,T,,M,0.00,N,0.00,K,D*3F

$PMTKLOG,0,1,a,31,15,0,0,1,0,0*11
$PMTK001,183,3*3A
$PMTK869,2,0*37

$GPGGA,123620.000,5212.0841,N,00005.9597,E,2,07,1.19,10.9,M,47.0,M,0000,0000*50
$GPGSA,A,3,24,15,21,30,05,28,13,,,,,,2.12,1.19,1.76*05
$GPRMC,123620.000,A,5212.0841,N,00005.9597,E,0.00,146.74,270119,,,D*6D
$GPVTG,146.74,T,,M,0.00,N,0.01,K,D*39

$GPGGA,123620.200,5212.0841,N,00005.9597,E,2,07,1.19,10.9,M,47.0,M,0000,0000*52
$GPGSA,A,3,24,15,21,30,05,28,13,,,,,,2.12,1.19,1.76*05
$GPRMC,123620.200,A,5212.0841,N,00005.9597,E,0.00,260.98,270119,,,D*6A
$GPVTG,260.98,T,,M,0.00,N,0.01,K,D*3C

$GPGGA,123620.400,5212.0841,N,00005.9597,E,2,07,1.19,10.9,M,47.0,M,0000,0000*54
$GPGSA,A,3,24,15,21,30,05,28,13,,,,,,2.12,1.19,1.76*05
$GPGSV,3,1,11,13,86,314
,39,28,51,097,37,15,49,290,43,30,37,066,37*79
$GPGSV,3,2,11,05,34,188,40,36,23,142,35,24,16,246,34,21,13,295,31*71
$GPGSV,3,3,11,20,10,324,,08,08,023,,07,06,065,*4C
$GPRMC,123620.400,A,5212.0841,N,00005.9597,E,0.00,123.00,270119,,,D*69
$GPVTG,123.00,T,,M,0.00,N,0.01,K,D*39

$GPGGA,123620.600,5212.0841,N,00005.9597,E,2,07,1.19,10.9,M,47.0,M,0000,0000*56
$GPGSA,A,3,24,15,21,30,05,28,13,,,,,,2.12,1.19,1.76*05
$GPRMC,123620.600,A,5212.0841,N,00005.9597,E,0.00,280.10,270119,,,D*60
$GPVTG,280.10,T,,M,0.00,N,0.00,K,D*33

$GPGGA,123620.800,5212.0841,N,00005.9597,E,2,07,1.19,10.9,M,47.0,M,0000,0000*58
$GPGSA,A,3,24,15,21,30,05,28,13,,,,,,2.12,1.19,1.76*05
$GPRMC,123620.800,A,5212.0841,N,00005.9597,E,0.00,268.71,270119,,,D*6F
$GPVTG,268.71,T,,M,0.00,N,0.00,K,D*32

$PMTKLOG,0,1,a,31,15,0,0,1,0,0*11
$PMTK001,183,3*3A
$PMTK869,2,0*37

$GPGGA,123621.000,5212.0841,N,00005.9597,E,2,07,1.19,10.9,M,47.0,M,0000,0000*51
$GPGSA,A,3,24,15,21,30,05,28,13,,,,,,2.12,1.19,1.76*05
$GPRMC,123621.000,A,5212.0841,N,00005.9597,E,0.00,105.11,270119,,,D*68
$GPVTG,105.11,T,,M,0.00,N,0.00,K,D*3C

$GPGGA,123621.200,5212.0841,N,00005.9597,E,2,07,1.19,10.9,M,47.0,M,0000,0000*53
$GPGSA,A,3,24,15,21,30,05,28,13,,,,,,2.12,1.19,1.76*05
$GPRMC,123621.200,A,5212.0841,N,00005.9597,E,0.00,105.80,270119,,,D*62
$GPVTG,105.80,T,,M,0.00,N,0.01,K,D*35

$GPGGA,123621.400,5212.0841,N,00005.9597,E,2,07,1.19,10.9,M,47.0,M,0000,0000*55
$GPGSA,A,3,24,15,21,30,05,28,13,,,,,,2.12,1.19,1.76*05
$GPGSV,3,1,11,13,86,314,40,28,51,097,38,15,49,290,44,30,37,066,38*70
$GPGSV,3,2,11,05,34,188,41,36,23,142,34,24,16,246,35,21,13,295,31*70
$GPGSV,3,3,11,20,10,32
4,,08,08,023,,07,06,065,*4C
$GPRMC,123621.400,A,5212.0841,N,00005.9597,E,0.00,289.86,270119,,,D*65
$GPVTG,289.86,T,,M,0.00,N,0.01,K,D*34

$GPGGA,123621.600,5212.0841,N,00005.9597,E,2,07,1.19,10.9,M,47.0,M,0000,0000*57
