$GPGGA,123528.800,5212.0865,N,00005.9601,E,2,07,1.13,4.9,M,47.0,M,0000,0000*66
$GPGSA,A,3,15,05,21,30,13,28,08,,,,,,1.94,1.13,1.57*0F
$GPRMC,123528.800,A,5212.0865,N,00005.9601,E,0.00,258.03,270119,,,D*68
$GPVTG,258.03,T,,M,0.00,N,0.01,K,D*35
$PMTKLOG,0,1,a,31,15,0,0,1,0,0*11
$PMTK001,183,3*3A
$PMTK869,2,0*37

$GPGGA,123529.000,5212.0865,N,00005.9601,E,2,07,1.13,4.9,M,47.0,M,0000,0000*6F
$GPGSA,A,3,15,05,21,30,13,28,08,,,,,,1.94,1.13,1.57*0F
$GPGSV,3,1,11,13,86,312,32,28,51,098,36,15,49,290,37,30,37,066,32*7C
$GPGSV,3,2,11,05,35,189,32,49,30,173,29,24,15,246,,21,13,296,30*77
$GPGSV,3,3,11,20,10,324,17,08,09,023,15,07,06,065,*4F
$GPRMC,123529.000,A,5212.0865,N,00005.9601,E,0.01,258.65,270119,,,D*60
$GPVTG,258.65,T,,M,0.01,N,0.01,K,D*34

$GPGGA,123529.200,5212.0865,N,00005.9601,E,2,07,1.13,4.9,M,47.0,M,0000,0000*6D
$GPGSA,A,3,15,05,21,30,13,28,08,,,,,,1.94,1.13,1.57*0F
$GPRMC,123529.200,A,5212.0865,N,00005.9601,E,0.00,238.31,270119,,,D*64
$GPVTG,238.31,T,,M,0.00,N,0.00,K,D*33

$GPGGA,123529.400,5212.0865,N,00005.9601,E,2,07,1.13,4.9,M,47.0,M,0000,0000*6B
$GPGSA,A,3,15,05,21,30,13,28,08,,,,,,1.94,1.13,1.57*0F
$GPRMC,123529.400,A,5212.0865,N,00005.9601,E,0.00,316.11,270119,,,D*6D
$GPVTG,316.11,T,,M,0.00,N,0.00,K,D*3C

$GPGGA,123529.600,5212.0865,N,00005.9601,E,2,07,1.13,4.9,M,47.0,M,0000,0000*69
$GPGSA,A,3,15,05,21,30,13,28,08,,,,,,1.94,1.13,1.57*0F
$GPRMC,123529.600,A,5212.0865,N,00005.9601,E,0.00,7.66,270119,,,D*6C
$GPVTG,7.66,T,,M,0.0
0,N,0.01,K,D*3E

$GPGGA,123529.800,5212.0865,N,00005.9601,E,2,07,1.13,4.9,M,47.0,M,0000,0000*67
$GPGSA,A,3,15,05,21,30,13,28,08,,,,,,1.94,1.13,1.57*0F
$GPRMC,123529.800,A,5212.0865,N,00005.9601,E,0.00,315.08,270119,,,D*6A
$GPVTG,315.08,T,,M,0.00,N,0.00,K,D*37
$PMTKLOG,0,1,a,31,15,0,0,1,0,0*11
$PMTK001,183,3*3A
$PMTK869,2,0*37

$GPGGA,123530.000,5212.0865,N,00005.9601,E,2,07,1.13,4.9,M,47.0,M,0000,0000*67
$GPGSA,A,3,15,05,21,30,13,28,08,,,,,,1.94,1.13,1.57*0F
$GPGSV,3,1,11,13,86,312,32,28,51,098,36,15,49,290,37,30,37,066,33*7D
$GPGSV,3,2,11,05,35,189,32,49,30,173,29,24,15,246,,21,13,296,29*7F
$GPGSV,3,3,11,20,10,324,17,08,09,023,15,07,06,065,*4F
$GPRMC,123530.000,A,5212.0865,N,00005.9601,E,0.00,261.38,270119,,,D*6B
$GPVTG,261.38,T,,M,0.00,N,0.01,K,D*37

$GPGGA,123530.200,5212.0865,N,00005.9601,E,2,07,1.13,4.9,M,47.0,M,0000,0000*65
$GPGSA,A,3,15,05,21,30,13,28,08,,,,,,1.94,1.13,1.57*0F
$GPRMC,123530.200,A,5212.0865,N,00005.9601,E,0.00,201.32,270119,,,D*65
$GPVTG,201.32,T,,M,0.00,N,0.01,K,D*3B

$GPGGA,123530.400,5212.0865,N,00005.9601,E,2,07,1.13,4.9,M,47.0,M,0000,0000*63
$GPGSA,A,3,15,05,21,30,13,28,08,,,,,,1.94,1.13,1.57*0F
$GPRMC,123530.400,A,5212.0865,N,00005.9601,E,0.00,143.45,270119,,,D*66
$GPVTG,143.45,T,,M,0.00,N,0.01,K,D*3E

$GPGGA,123530.600,5212.0865,N,00005.9601,E,2,07,1.13,4.9,M,47.0,M,0000,0000*61
$GPGSA,A,3,15,05,21,30,13,28,08,,,,,,1.94,1.13,1.57*0F
$GPRMC,123530.600,A,5212.0865,N,00005.9601,E,0.00,307.43,270119,,,D*60
$GPVTG,307.43,T,,M,0.00,N,0.01,K,D*3A

$GPGGA,123530.800,5212.0865,N,00005.9601,E,2,08,1.03,4.9,M,47.0,M,0000,0000*61
$GPGSA,A,3,15,05,24,21,30,13,28,08,,,,,1.75,1.03,1.41*00
$GPRMC,123530.800,A,5212.0865,N,00005.9601,E,0.01,316.16,270119,,,D*6F
$GPVTG,316.16,T,,M,0.01,N,0.01,K,D*3B
$PMTKLOG,0,1,a,31,15,0,0,1,0,0*11
$PMTK001,183,3*3A
$PMTK869,2,0*37

$GPGGA,123531.000,5212.0865,N,00005.9601,E,2,08,1.03,4.9,M,47.0,M,0000,0000*68
$GPGSA,A,3,15,05,24,21,30,13,28,08,,,,,1.75,1.03,1.41*00
$GPGSV,3,1,11,13,86,312,32,28,51,098,36,15,49,290,37,30,37,066,33*7D
$GPGSV,3,2,11,05,35,189,34,49,30,173,29,24,15,246,21,21,13,296,29*7A
$GPGSV,3,3,11,20,10,324,17,08,09,023,15,07,06,065,*4F
$GPRMC,123531.000,A,5212.0865,N,00005.9601,E,0.01,275.82,270119,,,D*6F
$GPVTG,275.82,T,,M,0.01,N,0.02,K,D*31

$GPGGA,123531.200,5212.0865,N,00005.9601,E,2,08,1.03,4.9,M,47.0,M,0000,000
0*6A
$GPGSA,A,3,15,05,24,21,30,13,28,08,,,,,1.75,1.03,1.41*00
$GPRMC,123531.200,A,5212.0865,N,00005.9601,E,0.01,242.74,270119,,,D*60
$GPVTG,242.74,T,,M,0.01,N,0.01,K,D*3F

$GPGGA,123531.400,5212.0865,N,00005.9601,E,2,08,1.03,4.9,M,47.0,M,0000,0000*6C
$GPGSA,A,3,15,05,24,21,30,13,28,08,,,,,1.75,1.03,1.41*00
$GPRMC,123531.400,A,5212.0865,N,00005.9601,E,0.01,234.86,270119,,,D*6A
$GPVTG,234.86,T,,M,0.01,N,0.01,K,D*33

$GPGGA,123531.600,5212.0865,N,00005.9601,E,2,08,1.03,4.9,M,47.0,M,0000,0000*6E
$GPGSA,A,3,15,05,24,21,30,13,28,08,,,,,1.75,1.03,1.41*00
$GPRMC,123531.600,A,5212.0865,N,00005.9601,E,0.01,263.06,270119,,,D*62
$GPVTG,263.06,T,,M,0.01,N,0.01,K,D*39

$GPGGA,123531.800,5212.0865,N,00005.9601,E,2,08,1.03,4.9,M,47.0,M,0000,0000*60
$GPGSA,A,3,15,05,24,21,30,13,28,08,,,,,1.75,1.03,1.41*00
$GPRMC,123531.800,A,5212.0865,N,00005.9601,E,0.00,238.68,270119,,,D*6B
$GPVTG,238.68,T,,M,0.00,N,0.01,K,D*3E
$PMTKLOG,0,1,a,31,15,0,0,1,0,0*11
$PMTK001,183,3*3A
$PMTK869,2,0*37

$GPGGA,123532.000,5212.0865,N,00005.9601,E,2,08,1.03,4.9,M,47.0,M,0000,0000*6B
$GPGSA,A,3,15,05,24,21,30,13,28,08,,,,,1.75,1.03,1.41*00
$GPGSV,3,1,11,13,86,312,32,28,51,098,36,15,49,290,37,30,37,066,33*7D
$GPGSV,3,2,11,05,35,189,34,49,30,173,29,24,15,246,21,21,13,296,29*7A
$GPGSV,3,3,11,20,10,324,16,08,09,023,16,07,06,065,*4D
$GPRMC,123532.000,A,5212.0865,N,00005.9601,E,0.00,0.00,270119,,,D*67
$GPVTG,0.00,T,,M,0.00,N,0.00,K,D*38

$GPGGA,123532.200,5212.0864,N,00005.9601,E,2,08,1.03,4.9,M,47.0,M,0000,0000*68
$GPGSA,A,3,15,05,24,21,30,13,28,08,,,,,1.75,1.03,1.41*00
$GPRMC,123532.200,A,5212.0864,N,00005.9601,E,0.00,0.00,270119,,,D*64
$GPVTG,0.00,T,,M,0.00,N,0.00,K,D*38

$GPGGA,123532.400,5212.0864,N,00005.9601,E,2,08,1.03,4.9,M,47.0,M,0000,0000*6E
$GPGSA,A,3,15,05,24,21,30,13,28,08,,,,,1.75,1.03,1.41*00
$GPRMC,123532.400,A,5212.0864,N,00005.9601,E,0.00,296.23,270119,,,D*6E
$GPVTG,296.23,T,,M,0.00,N,0.00,K,D*34

$GPGGA,123532.600,5212.0864,N,00005.9601,E,2,08,1.03,4.9,M,47.0,M,0000,0000*6C
$GPGSA,A,3,15,05,24,21,30,13,28,08,,,,,1.75,1.03,1.41*00
$GPRMC,123532.600,A,5212.0864,N,00005.9601,E,0.00,283.91,2701
19,,,D*61
$GPVTG,283.91,T,,M,0.00,N,0.00,K,D*39

$GPGGA,123532.800,5212.0864,N,00005.9601,E,2,08,1.03,4.9,M,47.0,M,0000,0000*62
$GPGSA,A,3,15,05,24,21,30,13,28,08,,,,,1.75,1.03,1.41*00
$GPRMC,123532.800,A,5212.0864,N,00005.9601,E,0.00,112.29,270119,,,D*67
$GPVTG,112.29,T,,M,0.00,N,0.00,K,D*31
$PMTKLOG,0,1,a,31,15,0,0,1,0,0*11
$PMTK001,183,3*3A
$PMTK869,2,0*37

$GPGGA,123533.000,5212.0864,N,00005.9601,E,2,08,1.03,4.9,M,47.0,M,0000,0000*6B
$GPGSA,A,3,15,05,24,21,30,13,28,08,,,,,1.75,1.03,1.41*00
$GPGSV,3,1,11,13,86,312,33,28,51,098,36,15,49,290,37,30,37,066,33*7C
$GPGSV,3,2,11,05,35,189,33,49,30,173,29,24,15,246,22,21,13,296,29*7E
$GPGSV,3,3,11,20,10,324,16,08,09,023,16,07,06,065,*4D
$GPRMC,123533.000,A,5212.0864,N,00005.9601,E,0.00,132.47,270119,,,D*64
$GPVTG,132.47,T,,M,0.00,N,0.00,K,D*3B

$GPGGA,123533.200,5212.0864,N,00005.9601,E,2,08,1.03,4.9,M,47.0,M,0000,0000*69
$GPGSA,A,3,15,05,24,21,30,13,28,08,,,,,1.75,1.03,1.41*00
$GPRMC,123533.200,A,5212.0864,N,00005.9601,E,0.00,0.00,270119,,,D*65
$GPVTG,0.00,T,,M,0.00,N,0.00,K,D*38

$GPGGA,123533.400,5212.0864,N,00005.9601,E,2,08,1.03,4.9,M,47.0,M,0000,0000*6F
$GPGSA,A,3,15,05,24,21,30,13,28,08,,,,,1.75,1.03,1.41*00
$GPRMC,123533.400,A,5212.0864,N,00005.9601,E,0.01,186.12,270119,,,D*6E
$GPVTG,186.12,T,,M,0.01,N,0.01,K,D*34

$GPGGA,123533.600,5212.0864,N,00005.9601,E,2,08,1.03,4.9,M,47.0,M,0000,0000*6D
$GPGSA,A,3,15,05,24,21,30,13,28,08,,,,,1.75,1.03,1.41*00

$GPRMC,123533.600,A,5212.0864,N,00005.9601,E,0.01,30.00,270119,,,D*53
$GPVTG,30.00,T,,M,0.01,N,0.01,K,D*0B

$GPGGA,123533.800,5212.0864,N,00005.9601,E,2,08,1.03,4.9,M,47.0,M,0000,0000*63
$GPGSA,A,3,15,05,24,21,30,13,28,08,,,,,1.75,1.03,1.41*00
$GPRMC,123533.800,A,5212.0864,N,00005.9601,E,0.00,290.22,270119,,,D*64
$GPVTG,290.22,T,,M,0.00,N,0.01,K,D*32
$PMTKLOG,0,1,a,31,15,0,0,1,0,0*11
$PMTK001,183,3*3A
$PMTK869,2,0*37

$GPGGA,123534.000,5212.0864,N,00005.9601,E,2,08,1.03,4.9,M,47.0,M,0000,0000*6C
$GPGSA,A,3,15,05,24,21,30,13,28,08,,,,,1.75,1.03,1.41*00
$GPGSV,3,1,11,13,86,312,33,28,51,098,36,15,49,290,37,30,37,066,32*7D
$GPGSV,3,2,11,05,35,189,33,49,30,173,29,24,15,246,22,21,13,296,29*7E
$GPGSV,3,3,11,20,10,324,16,08,09,023,15,07,06,065,*4E
$GPRMC,123534.000,A,5212.0864,N,00005.9601,E,0.00,167.46,270119,,,D*62
$GPVTG,167.46,T,,M,0.00,N,0.01,K,D*3B

$GPGGA,123534.200,5212.0864,N,00005.9601,E,2,07,1.20,4.9,M,47.0,M,0000,0000*60
$GPGSA,A,3,15,05,24,21,30,13,28,,,,,,2.13,1.20,1.76*0E
$GPRMC,123534.200,A,5212.0864,N,00005.9601,E,0.01,49.02,270119,,,D*5C
$GPVTG,49.02,T,,M,0.01,N,0.02,K,D*04

$GPGGA,123534.400,5212.0864,N,00005.9601,E,2,08,1.03,4.9,M,47.0,M,0000,0000*68
$GPGSA,A,3,15,05,24,21,30,13,28,08,,,,,1.75,1.03,1.41*00
$GPRMC,123534.400,A,5212.0864,N,00005.9601,E,0.00,182.57,270119,,,D*6D
$GPVTG,182.57,T,,M,0.00,N,0.00,K,D*31

$GPGGA,123534.600,5212.0864,N,00005.9601,E,2,07,1.20,4.9,M,47.0,M,0000,0000*64
$GPGSA,A,3,15,05,24,21,30,13,28,,,,,,2.13,1.20,1.76*0E
$GPRMC,123534.600,A,5212.0864,N,00005.9601,E,0.01,128.97,270119,,,D*62
$GPVTG,128.97,T,,M,0.01,N,0.01,K,D*3D

$GPGGA,123534.800,5212.0864,N,00005.9601,E,2,07,1.20,4.9,M,47.0,M,0000,0000*6A
$GPGSA,A,3,15,05,24,21,30,13,28,,,,,,2.13,1.20,1.76*0E
$GPRMC,123534.800,A,5212.0864,N,00005.9601,E,0.00,93.83,270119,,,D*59
$GPVTG,93.83,T,,M,0.00,N,0.00,K,D*09
$PMTKLOG,0,1,a,31,15,0,0,1,0,0*11
$PMTK001,183,3*3A
$PMTK869,2,0*37

$GPGGA,123535.000,5212.0864,N,00005.9601,E,2,07,1.20,4.9,M,47.0,M,0000,0000*63
$GPGSA,A,3,15,05,24,21,30,13,28,,,,,,2.13,1.20,1.76*0E
$GPGSV,3,1,11,13,86,312,33,28,51,098,36,15,49,290,37,30,37,066,31*7E
$GPGSV,3,2,11,05,35,189,33,49,30,173,29,24,15,246,19,21,13,296,29*76
$GPGSV,3,3,11,20,10,324,16,08,09,023,14,07,06,065,*4F
$GPRMC,123535.000,A,5212.0864,N,00005.9601,E,0.00,341.37,270119,,,D*63
$GPVTG,341.37,T,,M,0.00,N,0.00,K,D*3A

$GPGGA,123535.200,5212.0864,N,00005.9601,E,2,07,1.20,4.9,M,47.0,M,0000,0000*61
$GPGSA,A,3,15,05,24,21,30,13,28,,,,,,2.13,1.20,1.76*0E
$GPRMC,123535.200,A,5212.0864,N,00005.9601,E,0.00,325.41,270119,,,D*62
$GPVTG,325.41,T,,M,0.00,N,0.01,K,D*38

$GPGGA,123535.400,5212.0864,N,00005.9601,E,2,07,1.20,4.9,M,47.0,M,0000,0000*67
$GPGSA,A,3,15,05,24,21,30,13,28,,,,,,2.13,1.20,1.76*0E
$GPRMC,123535.400,A,5212.0864,N,00005.9601,E,0.00,346.05,270119,,,D*61
$GPVTG,346.05,T,,M
,0.00,N,0.00,K,D*3C

$GPGGA,123535.600,5212.0864,N,00005.9601,E,2,07,1.20,4.9,M,47.0,M,0000,0000*65
$GPGSA,A,3,15,05,24,21,30,13,28,,,,,,2.13,1.20,1.76*0E
$GPRMC,123535.600,A,5212.0864,N,00005.9601,E,0.00,0.00,270119,,,D*67
$GPVTG,0.00,T,,M,0.00,N,0.00,K,D*38

$GPGGA,123535.800,5212.0864,N,00005.9601,E,2,07,1.20,4.9,M,47.0,M,0000,0000*6B
$GPGSA,A,3,15,05,24,21,30,13,28,,,,,,2.13,1.20,1.76*0E
$GPRMC,123535.800,A,5212.0864,N,00005.9601,E,0.00,51.08,270119,,,D*55
$GPVTG,51.08,T,,M,0.00,N,0.00,K,D*04
$PMTKLOG,0,1,a,31,15,0,0,1,0,0*11
$PMTK001,183,3*3A
$PMTK869,2,0*37

$GPGGA,123536.000,5212.0864,N,00005.9601,E,2,07,1.20,4.9,M,47.0,M,0000,0000*60
$GPGSA,A,3,15,05,24,21,30,13,28,,,,,,2.13,1.20,1.76*0E
$GPGSV,3,1,11,13,86
,312,33,28,51,098,36,15,49,290,37,30,37,066,31*7E
$GPGSV,3,2,11,05,35,189,33,49,30,173,29,24,15,246,20,21,13,296,29*7C
$GPGSV,3,3,11,20,10,324,16,08,09,023,14,07,06,065,*4F
$GPRMC,123536.000,A,5212.0864,N,00005.9601,E,0.00,146.33,270119,,,D*61
$GPVTG,146.33,T,,M,0.00,N,0.01,K,D*3A

$GPGGA,123536.200,5212.0864,N,00005.9601,E,2,07,1.20,4.9,M,47.0,M,0000,0000*62
$GPGSA,A,3,15,05,24,21,30,13,28,,,,,,2.13,1.20,1.76*0E
$GPRMC,123536.200,A,5212.0864,N,00005.9601,E,0.00,206.07,270119,,,D*63
$GPVTG,206.07,T,,M,0.00,N,0.00,K,D*3B

$GPGGA,123536.400,5212.0864,N,00005.9601,E,2,07,1.20,4.9,M,47.0,M,0000,0000*64
$GPGSA,A,3,15,05,24,21,30,13,28,,,,,,2.13,1.20,1.76*0E
$GPRMC,123536.400,A,5212.0864,N,00005.9601,E,0.01,297.83,270119,,,D*60
$GPVTG,297.83,T,,M,0.01,N,0.01,K,D*3F

$GPGGA,123536.600,5212.0864,N,00005.9601,E,2,07,1.20,4.9,M,47.0,M,0000,0000*66
$GPGSA,A,3,15,05,24,21,30,13,28,,,,,,2.13,1.20,1.76*0E
$GPRMC,123536.600,A,5212.0864,N,00005.9601,E,0.00,279.71,270119,,,D*6E
$GPVTG,279.71,T,,M,0.00,N,0.01,K,D*33

$GPGGA,123536.800,5212.0864,N,00005.9601,E,2,07,1.20,4.9,M,47.0,M,0000,0000*68
$GPGSA,A,3,15,05,24,21,30,13,28,,,,,,2.13,1.20,1.76*0E
$GPRMC,123536.800,A,5212.0864,N,00005.9601,E,0.00,288.99,270119,,,D*68
$GPVTG,288.99,T,,M,0.00,N,0.01,K,D*3B
$PMTKLOG,0,1,a,31,15,0,0,1,0,0*11
$PMTK001,183,3*3A
$PMTK869,2,0*37

$GPGGA,123537.000,5212.0864,N,00005.9601,E,2,07,1.20,4.9,M,47.0,M,0000,0000*61
$GPGSA,A,3,15,05,24,21,30,13,28,,,,,,2.13,1.20,1.76*0E
$GPGSV,3,1,11,13,86,312,32,28,51,098,36,15,49,290,37,30,37,066,31*7F
$GPGSV,3,2,11,05,35,189,33,49,30,173,29,24,15,246,22,21,13,296,29*7E
$GPGSV,3,3,11,20,10,324,16,08,09,023,14,07,06,065,*4F
$GPRMC,123537.000,A,5212.0864,N,00005.9601,E,0.00,308.10,270119,,,D*69
$GPVTG,308.10,T,,M,0.00,N,0.01,K,D*33

$GPGGA,123537.200,5212.0864,N,00005.9601,E,2,07,1.20,4.9,M,47.0,M,0000,0000*63
$GPGSA,A,3,15,05,24,21,30,13,28,,,,,,2.13,1.20,1.76*0E

$GPRMC,123537.200,A,5212.0864,N,00005.9601,E,0.00,297.56,270119,,,D*6E
$GPVTG,297.56,T,,M,0.00,N,0.00,K,D*37

$GPGGA,123537.400,5212.0864,N,00005.9601,E,2,07,1.20,4.9,M,47.0,M,0000,0000*65
$GPGSA,A,3,15,05,24,21,30,13,28,,,,,,2.13,1.20,1.76*0E
$GPRMC,123537.400,A,5212.0864,N,00005.9601,E,0.00,307.94,270119,,,D*6E
$GPVTG,307.94,T,,M,0.00,N,0.01,K,D*30

$GPGGA,123537.600,5212.0864,N,00005.9601,E,2,07,1.20,4.9,M,47.0,M,0000,0000*67
$GPGSA,A,3,15,05,24,21,30,13,28,,,,,,2.13,1.20,1.76*0E
$GPRMC,123537.600,A,5212.0864,N,00005.9601,E,0.00,314.40,270119,,,D*67
$GPVTG,314.40,T,,M,0.00,N,0.01,K,D*3B

$GPGGA,123537.800,5212.0865,N,00005.9601,E,2,07,1.20,4.9,M,47.0,M,0000,0000*68
$GPGSA,A,3,15,05,24,21,30,13,28,,,,,,2.13,1.20,1.76*0E
$GPRMC,123537.800,A,5212.0865,N,00005.9601,E,0.01,308.54,270119,,,D*61
$GPVTG,308.54,T,,M,0.01,N,0.01,K,D*32
$PMTKLOG,0,1,a,31,15,0,0,1,0,0*11
$PMTK001,183,3*3A
$PMTK869,2,0*37

$GPGGA,123538.000,5212.0865,N,00005.9601,E,2,07,1.20,4.9,M,47.0,M,0000,0000*6F
$GPGSA,A,3,15,05,24,21,30,13,28,,,,,,2.13,1.20,1.76*0E
$GPGSV,3,1,11,13,86,312,31,28,51,098,36,15,49,290,37,30,37,066,30*7D
$GPGSV,3,2,11,05,35,189,31,49,30,173,29,24,15,246,22,21,13,296,30*74
$GPGSV,3,3,11,20,10,324,16,08,09,023,13,07,06,065,*48
$GPRMC,123538.000,A,5212.0865,N,00005.9601,E,0.01,306.09,270119,,,D*60
$GPVTG,306.09,T,,M,0.01,N,0.02,K,D*37

$GPGGA,123538.200,5212.0865,N,00005.9601,E,2,07,1.20,4.9,M,47.0,M,0000,0000*6D
$GPGSA,A,3,15,05,24,21,30,13,28,,,,,,2.13,1.20,1.76*0E
$GPRMC,123538.200,A,5212.0865,N,00005.9601,E,0.00,304.37,270119,,,D*6C
$GPVTG,304.
37,T,,M,0.00,N,0.00,K,D*3B

$GPGGA,123538.400,5212.0865,N,00005.9601,E,2,07,1.20,4.9,M,47.0,M,0000,0000*6B
$GPGSA,A,3,15,05,24,21,30,13,28,,,,,,2.13,1.20,1.76*0E
$GPRMC,123538.400,A,5212.0865,N,00005.9601,E,0.00,291.44,270119,,,D*63
$GPVTG,291.44,T,,M,0.00,N,0.01,K,D*33

$GPGGA,123538.600,5212.0865,N,00005.9601,E,2,07,1.20,4.9,M,47.0,M,0000,0000*69
$GPGSA,A,3,15,05,24,21,30,13,28,,,,,,2.13,1.20,1.76*0E
$GPRMC,123538.600,A,5212.0865,N,00005.9601,E,0.00,106.21,270119,,,D*6F
$GPVTG,106.21,T,,M,0.00,N,0.00,K,D*3C

$GPGGA,123538.800,5212.0865,N,00005.9601,E,2,07,1.20,4.9,M,47.0,M,0000,0000*67
$GPGSA,A,3,15,05,24,21,30,13,28,,,,,,2.13,1.20,1.76*0E
$GPRMC,123538.800,A,5212.0865,N,00005.9601,E,0.00,119.98,270119,,,D*6D
$GPVTG,119.98,T,,M,0.00,N,0.01,K,D*31
$PMTKLOG,0,1,a,31,15,0,0,1,0,0*11
$PMTK001,183,3*3A
$PMTK869,2,0*37

$GPGGA,123
539.000,5212.0865,N,00005.9601,E,2,07,1.20,4.9,M,47.0,M,0000,0000*6E
$GPGSA,A,3,15,05,24,21,30,13,28,,,,,,2.13,1.20,1.76*0E
$GPGSV,3,1,11,13,86,312,32,28,51,098,36,15,49,290,37,30,37,066,30*7E
$GPGSV,3,2,11,05,35,189,33,49,30,173,29,24,15,246,23,21,13,296,30*77
$GPGSV,3,3,11,20,10,324,16,08,09,023,13,07,06,065,*48
$GPRMC,123539.000,A,5212.0865,N,00005.9601,E,0.00,235.08,270119,,,D*60
$GPVTG,235.08,T,,M,0.00,N,0.00,K,D*34

$GPGGA,123539.200,5212.0864,N,00005.9601,E,2,07,1.20,4.9,M,47.0,M,0000,0000*6D
$GPGSA,A,3,15,05,24,21,30,13,28,,,,,,2.13,1.20,1.76*0E
$GPRMC,123539.200,A,5212.0864,N,00005.9601,E,0.00,175.48,270119,,,D*60
$GPVTG,175.48,T,,M,0.00,N,0.01,K,D*36

$GPGGA,123539.400,5212.0864,N,00005.9601,E,2,07,1.20,4.9,M,47.0,M,0000,0000*6B
$GPGSA,A,3,15,05,24,21,30,13,28,,,,,,2.13,1.20,1.76*0E
$GPRMC,123539.400,A,5212.0864,N,00005.9601,E,0.00,107.84,270119,,,D*63
$GPVTG,107.84,T,,M,0.00,N,0.01,K,D*33

$GPGGA,123539.600,5212.0864,N,00005.9601,E,2,07,1.20,4.9,M,47.0,M,0000,0000*69
$GPGSA,A,3,15,05,24,21,30,13,28,,,,,,2.13,1.20,1.76*0E
$GPRMC,123539.600,A,5212.0864,N,00005.9601,E,0.00,167.21,270119,,,D*68
$GPVTG,167.21,T,,M,0.00,N,0.00,K,D*3B

$GPGGA,123539.800,5212.0864,N,00005.9601,E,2,07,1.20,4.9,M,47.0,M,0000,0000*67
$GPGSA,A,3,15,05,24,21,30,13,28,,,,,,2.13,1.20,1.76*0E
$GPRMC,123539.800,A,5212.0864,N,00005.9601,E,0.01,239.60,270119,,,D*6A
$GPVTG,239.60,T,,M,0.01,N,0.01,K,D*36
$PMTKLOG,0,1,a,31,15,0,0,1,0,0*11
$PMTK001,183,3*3A
$PMTK869,2,0*37

$GPGGA,123540.000,5212.0864,N,00005.9601,E,2,07,1.20,4.9,M,47.0,M,0000,0000*61
$GPGSA,A,3,15,05,24,21,30,13,28,,,,,,2.13,1.20,1.76*0E
$GPG
SV,3,1,11,13,86,312,31,28,51,098,36,15,49,290,36,30,37,066,30*7C
$GPGSV,3,2,11,05,35,189,33,49,30,173,29,24,15,246,23,21,13,296,30*77
$GPGSV,3,3,11,20,10,324,16,08,09,023,12,07,06,065,*49
$GPRMC,123540.000,A,5212.0864,N,00005.9601,E,0.01,227.32,270119,,,D*64
$GPVTG,227.32,T,,M,0.01,N,0.01,K,D*3E

$GPGGA,123540.200,5212.0864,N,00005.9601,E,2,07,1.20,4.9,M,47.0,M,0000,0000*63
$GPGSA,A,3,15,05,24,21,30,13,28,,,,,,2.13,1.20,1.76*0E
$GPRMC,123540.200,A,5212.0864,N,00005.9601,E,0.01,230.52,270119,,,D*66
$GPVTG,230.52,T,,M,0.01,N,0.01,K,D*3E

$GPGGA,123540.400,5212.0864,N,00005.9601,E,2,07,1.20,4.9,M,47.0,M,0000,0000*65
$GPGSA,A,3,15,05,24,21,30,13,28,,,,,,2.13,1.20,1.76*0E
$GPRMC,123540.400,A,5212.0864,N,00005.9601,E,0.01,227.53,270119,,,D*67
$GPVTG,227.53,T,,M,0.01,N,0.02,K,D*3A

$GPGGA,123540.600,5212.0864,N,00005.9601,E,2,07,1.20,4.9,M,47.0,M,0000,0000*67
$GPGSA,A,3,15,05,24,21,30,13,28,,,,,,2.13,1.20,1.76*0E
$GPRMC,123540.600,A,5212.0864,N,00005.9601,E,0.01,222.19,270119,,,D*6E
$GPVTG,222.19,T,,M,0.01,N,0.01,K,D*32

$GPGGA,123540.800,5212.0864,N,00005.9601,E,2,07,1.20,4.9,M,47.0,M,0000,0000*69
$GPGSA,A,3,15,05,24,21,30,13,28,,,,,,2.13,1.20,1.76*0E
$GPRMC,123540.800,A,5212.0864,N,00005.9601,E,0.00,209.40,270119,,,D*64
$GPVTG,209.40,T,,M,0.00,N,0.01,K,D*36
$PMTKLOG,0,1,a,31,15,0,0,1,0,0*11
$PMTK001,183,3*3A
$PMTK869,2,0*37

$GPGGA,123541.000,5212.0864,N,00005.9601,E,2,07,1.20,4.9,M,47.0,M,0000,0000*60
$GPGSA,A,3,15,05,24,21,30,13,28,,,,,,2.13,1.20,1.76*0E
$GPGSV,3,1,11,13,86,312,32,28,51,098,36,15,49,290,36,30,37,066,30*7F
$GPGSV,3,2,11,05,35,189,33,49,30,173,28,24,15,246,22,21,13,295,30*74
$GPGSV,3,3,11,20,10,324,15,08,09,023,13,07,06,065,*4B
$GPRMC,123541.000,A,5212.0864,N,00005.9601,E,0.00,180.66,270119,,,D*6B
$GPVTG
,180.66,T,,M,0.00,N,0.00,K,D*31

$GPGGA,123541.200,5212.0864,N,00005.9601,E,2,07,1.20,4.9,M,47.0,M,0000,0000*62
$GPGSA,A,3,15,05,24,21,30,13,28,,,,,,2.13,1.20,1.76*0E
$GPRMC,123541.200,A,5212.0864,N,00005.9601,E,0.00,311.75,270119,,,D*61
$GPVTG,311.75,T,,M,0.00,N,0.00,K,D*39

$GPGGA,123541.400,5212.0864,N,00005.9601,E,2,07,1.20,4.9,M,47.0,M,0000,0000*64
$GPGSA,A,3,15,05,24,21,30,13,28,,,,,,2.13,1.20,1.76*0E
$GPRMC,123541.400,A,5212.0864,N,00005.9601,E,0.00,264.78,270119,,,D*69
$GPVTG,264.78,T,,M,0.00,N,0.01,K,D*36

$GPGGA,123541.600,5212.0864,N,00005.9601,E,2,07,1.20,4.9,M,47.0,M,0000,0000*66
$GPGSA,A,3,15,05,24,21,30,13,28,,,,,,2.13,1.20,1.76*0E
$GPRMC,123541.600,A,5212.0864,N,00005.9601,E,0.00,318.78,270119,,,D*61
$GPVTG,318.78,T,,M,0.00,N,0.01,K,D*3C

$GPGGA,123541.800,5212.0864,N,00005.9601,E,2,07,1.20,4.9,M,47.0,M,0000,0000*68
$GPGSA,A,3,15,05,24,21,30,13,28,,,,,,2.13,1.20,1.76*0E
$GPRMC,123541.800,A,5212.0864,N,00005.9601,E,0.01,289.01,270119,,,D*69
$GPVTG,289.01,T,,M,0.01,N,0.01,K,D*3A
$PMTKLOG,0,1,a,31,15,0,0,1,0,0*11
$PMTK001,183,3*3A
$PMTK869,2,0*37

$GPGGA,123542.000,5212.0864,N,00005.9601,E,2,07,1.20,4.9,M,47.0,M,0000,0000*63
$GPGSA,A,3,15,05,24,21,30,13,28,,,,,,2.13,1.20,1.76*0E
$GPGSV,3,1,11,13,86,312,32,28,51,0
98,36,15,49,290,36,30,37,066,30*7F
$GPGSV,3,2,11,05,35,189,33,49,30,173,28,24,15,246,21,21,13,295,30*77
$GPGSV,3,3,11,20,10,324,15,08,09,023,13,07,06,065,*4B
$GPRMC,123542.000,A,5212.0864,N,00005.9601,E,0.00,183.17,270119,,,D*6D
$GPVTG,183.17,T,,M,0.00,N,0.00,K,D*34

$GPGGA,123542.200,5212.0864,N,00005.9601,E,2,07,1.20,4.9,M,47.0,M,0000,0000*61
$GPGSA,A,3,15,05,24,21,30,13,28,,,,,,2.13,1.20,1.76*0E
$GPRMC,123542.200,A,5212.0864,N,00005.9601,E,0.00,140.61,270119,,,D*61
$GPVTG,140.61,T,,M,0.00,N,0.01,K,D*3B

$GPGGA,123542.400,5212.0864,N,00005.9601,E,2,07,1.20,4.9,M,47.0,M,0000,0000*67
$GPGSA,A,3,15,05,24,21,30,13,28,,,,,,2.13,1.20,1.76*0E
$GPRMC,123542.400,A,5212.0864,N,00005.9601,E,0.00,118.94,270119,,,D*60
$GPVTG,118.94,T,,M,0.00,N,0.01,K,D*3C

$GPGGA,123542.600,5212.0864,N,00005.9601,E,2,07,1.20,4.9,M,47.0,M,0000,0000*65
$GPGSA,A,3,15,05,24,21,30,13,28,,,,,,2.13,1.20,1.76*0E
$GPRMC,123542.600,A,5212.0864,N,00005.9601,E,0.00,110.45,270119,,,D*66
$GPVTG,110.45,T,,M,0.00,N,0.01,K,D*38

$GPGGA,123542.800,5212.0864,N,00005.9601,E,2,07,1.20,4.9,M,47.0,M,0000,0000*6B
$GPGSA,A,3,15,05,24,21,30,13,28,,,,,,2.13,1.20,1.76*0E
$GPRMC,123542.800,A,5212.0864,N,00005.9601,E,0.00,120.95,270119,,,D*66
$GPVTG,120.95,T,,M,0.00,N,0.01,K,D*36
$PMTKLOG,0,1,a,31,15,0,0,1,0,0*11
$PMTK001,183,3*3A
$PMTK869,2,0*37

$GPGGA,123543.000,5212.0864,N
,00005.9601,E,2,07,1.20,4.9,M,47.0,M,0000,0000*62
$GPGSA,A,3,15,05,24,21,30,13,28,,,,,,2.13,1.20,1.76*0E
$GPGSV,3,1,11,13,86,312,32,28,51,098,36,15,49,290,37,30,37,066,30*7E
$GPGSV,3,2,11,05,35,189,33,49,30,173,29,24,15,246,25,21,13,295,29*7A
$GPGSV,3,3,11,20,10,324,15,08,09,023,14,07,06,065,*4C
$GPRMC,123543.000,A,5212.0864,N,00005.9601,E,0.00,32.87,270119,,,D*5E
$GPVTG,32.87,T,,M,0.00,N,0.00,K,D*06

$GPGGA,123543.200,5212.0864,N,00005.9601,E,2,07,1.19,4.9,M,47.0,M,0000,0000*6A
$GPGSA,A,3,15,05,24,21,30,13,28,,,,,,2.13,1.19,1.76*04
$GPRMC,123543.200,A,5212.0864,N,00005.9601,E,0.00,302.84,270119,,,D*6F
$GPVTG,302.84,T,,M,0.00,N,0.01,K,D*34

$GPGGA,123543.400,5212.0864,N,00005.9601,E,2,07,1.19,4.9,M,47.0,M,0000,0000*6C
$GPGSA,A,3,15,05,24,21,30,13,28,,,,,,2.13,1.19,1.76*04
$GPRMC,123543.400,A,5212.0864,N,00005.9601,E,0.00,145.40,270119,,,D*60
$GPVTG,145.40,T,,M,0.00,N,0.00,K,D*3C

$GPGGA,123543.600,5212.0864,N,00005.9601,E,2,07,1.20,4.9,M,47.0,M,0000,0000*64
$GPGSA,A,3,15,05,24,21,30,13,28,,,,,,2.13,1.20,1.76*0E
$GPRMC,123543.600,A,5212.0864,N,00005.9601,E,0.01,117.27,270119,,,D*65
$GPVTG,117.27,T,,M,0.01,N,0.02,K,D*39

$GPGGA,123543.800,5212.0864,N,00005.9601,E,2,07,1.20,4.9,M,47.0,M,0000,0000*6A
$GPGSA,A,3,15,05,24,21,30,13,28,,,,,,2.13,1.20,1.76*0E
$GPRMC,123543.800,A,5212.0864,N,00005.9601,E,0.00,131.55,270119,,,D*6B
$GPVTG,131.55,T,,M,0.00,N,0.01,K,D*3A
$PMTKLOG,0,1,a,31,15,0,0,1,0,0*11
$PMTK001,183,3*3A
$PMTK869,2,0*37

$GPGGA,123544.000,5212.
0864,N,00005.9601,E,2,07,1.20,4.9,M,47.0,M,0000,0000*65
$GPGSA,A,3,15,05,24,21,30,13,28,,,,,,2.13,1.20,1.76*0E
$GPGSV,3,1,11,13,86,312,34,28,51,098,36,15,49,290,39,30,37,066,27*70
$GPGSV,3,2,11,05,35,189,30,49,30,173,30,24,15,246,25,21,13,295,29*71
$GPGSV,3,3,11,20,10,324,15,08,09,023,15,07,06,065,*4D
$GPRMC,123544.000,A,5212.0864,N,00005.9601,E,0.01,269.29,270119,,,D*60
$GPVTG,269.29,T,,M,0.01,N,0.02,K,D*3D

$GPGGA,123544.200,5212.0864,N,00005.9601,E,2,07,1.20,4.9,M,47.0,M,0000,0000*67
$GPGSA,A,3,15,05,24,21,30,13,28,,,,,,2.13,1.20,1.76*0E
$GPRMC,123544.200,A,5212.0864,N,00005.9601,E,0.00,243.78,270119,,,D*6F
$GPVTG,243.78,T,,M
,0.00,N,0.00,K,D*32

$GPGGA,123544.400,5212.0864,N,00005.9601,E,2,07,1.20,4.9,M,47.0,M,0000,0000*61
$GPGSA,A,3,15,05,24,21,30,13,28,,,,,,2.13,1.20,1.76*0E
$GPRMC,123544.400,A,5212.0864,N,00005.9601,E,0.00,0.00,270119,,,D*63
$GPVTG,0.00,T,,M,0.00,N,0.00,K,D*38

$GPGGA,123544.600,5212.0864,N,00005.9601,E,2,07,1.20,4.9,M,47.0,M,0000,0000*63
$GPGSA,A,3,15,05,24,21,30,13,28,,,,,,2.13,1.20,1.76*0E
$GPRMC,123544.600,A,5212.0864,N,00005.9601,E,0.00,305.30,270119,,,D*64
$GPVTG,305.30,T,,M,0.00,N,0.01,K,D*3C

$GPGGA,123544.800,5212.0864,N,00005.9601,E,2,07,1.20,4.9,M,47.0,M,0000,0000*6D
$GPGSA,A,3,15,05,24,21,30,13,28,,,,,,2.13,1.20,1.76*0E
$GPRMC,123544.800,A,5212.0864,N,00005.9601,E,0.00,119.00,270119,,,D*66
$GPVTG,119.00,T,,M,0.00,N,0.00,K,D*31
$PMTKLOG,0,1,a,31,15,0,0,1,0,0*11
$PMTK001,183,3*3A
$PMTK869,2,0*37

$GPGGA,123545.000,5212.0864,N,00005.9601,E,2,07,
1.20,4.9,M,47.0,M,0000,0000*64
$GPGSA,A,3,15,05,24,21,30,13,28,,,,,,2.13,1.20,1.76*0E
$GPGSV,3,1,11,13,86,312,34,28,51,098,34,15,49,290,39,30,37,066,33*77
$GPGSV,3,2,11,05,35,188,28,49,30,173,30,24,15,246,27,21,13,295,28*7A
$GPGSV,3,3,11,20,10,324,15,08,09,023,,07,06,065,*49
$GPRMC,123545.000,A,5212.0864,N,00005.9601,E,0.01,115.39,270119,,,D*68
$GPVTG,115.39,T,,M,0.01,N,0.02,K,D*34

$GPGGA,123545.200,5212.0864,N,00005.9601,E,2,07,1.20,4.9,M,47.0,M,0000,0000*66
$GPGSA,A,3,15,05,24,21,30,13,28,,,,,,2.13,1.20,1.76*0E
$GPRMC,123545.200,A,5212.0864,N,00005.9601,E,0.00,98.57,270119,,,D*57
$GPVTG,98.57,T,,M,0.00,N,0.00,K,D*0B

$GPGGA,123545.400,5212.0864,N,00005.9601,E,2,07,1.20,4.9,M,47.0,M,0000,0000*60
$GPGSA,A,3,15,05,24,21,30,13,28,,,,,,2.13,1.20,1.76*0E
$GPRMC,123545.400,A,5212.0864,N,00005.9601,E,0.00,120.72,270119,,,D*64
$GPVTG,120.72,T,,M,0.00,N,0.01,K,D*3F

$GPGGA,123545.600,5212.0864,N,00005.9601,E,2,07,1.20,4.9,M,47.0,M,0000,0000*62
$GPGSA,A,3,15,05,24,21,30,13,28,,,,,,2.13,1.20,1.76*0E
$GPRMC,123545.600,A,5212.0864,N,00005.9601,E,0.00,101.99,270119,,,D*60
$GPVTG,101.99,T,,M,0.00,N,0.00,K,D*38

$GPGGA,123545.800,5212.0864,N,00005.9601,E,2,07,1.20,4.9,M,47.0,M,0000,0000*6C
$GPGSA,A,3,15,05,24,21,30,13,28,,,,,,2.13,1.20,1.76*0E
$GPRMC,123545.800,A,5212.0864,N,00005.9601,E,0.00,127.98,270119,,,D*6B
$GPVTG,127.98,T,,M,0.00,N,0.00,K,D*3D
$PMTKLOG,0,1,a,31,15,0,0,1,0,0*11
$PMTK001,183,3*3A
$PMTK869,2,0*37

$GPGGA,123546.000,5212.0864,N,00005.9601,E,2,07,1.19,4.9,M,47.0,M,0000,0000*6D
$GPGSA,A,3,15,05,24,21,30,13,28,,,,,,2.13,1.19,1.76*04
$GPGSV,3,1,11,13,86,312,34,28,51,098,34,15,49,290,40,30,37,066,32*78
$GPGSV,3,2,11,05,35,188,28,49,30,173,30,24,15,246,27,21,13,295,29*7B
$GPGSV,3,3,11,20,10,324,15,08,09,023,,07,06,065,*49
$GPRMC,123546.000,A,5212.0864,N,00005.9601,E,0.00,274.35,270119,,,D*62
$GPVTG,274.35,T,,M,0.00,N,0.01,K,D*3E

$GPGGA,123546.200,5212.0864,N,00005.9601,E,2,07,1.20,4.9,M,47.0,M,0000,0000*65
$GPGSA,A,3,15,05,24,21,30,13,28,,,,,,2.13,1.20,1.76*0E
$GPRMC,123546.200,A,5212.0864,N,00005.9601,E,0.00,248.10,270119,,,D*68
$GPVTG,248.10,T,,M,0.00,N,0.01,K,D*36

$GPGGA,123546.400,5212.0864,N,00005.9601,E,2,07,1.19,4.9,M,47.0,M,0000,0000*69
$GPGSA,A,3,15,05,24,21,30,13,28,,,,,,2.13,1.19,1.76*04
$GPRMC,123546.400,A,5212.0864,N,00005.9601,E,0.00,261.41,270119,,,D*61
$GPVTG,261.41,T,,M,0.00,N,0.01,K,D*39

$GPGGA,123546
.600,5212.0864,N,00005.9601,E,2,07,1.20,4.9,M,47.0,M,0000,0000*61
$GPGSA,A,3,15,05,24,21,30,13,28,,,,,,2.13,1.20,1.76*0E
$GPRMC,123546.600,A,5212.0864,N,00005.9601,E,0.00,34.89,270119,,,D*55
$GPVTG,34.89,T,,M,0.00,N,0.01,K,D*0F

$GPGGA,123546.800,5212.0864,N,00005.9601,E,2,07,1.19,4.9,M,47.0,M,0000,0000*65
$GPGSA,A,3,15,05,24,21,30,13,28,,,,,,2.13,1.19,1.76*04
$GPRMC,123546.800,A,5212.0864,N,00005.9601,E,0.00,151.54,270119,,,D*69
$GPVTG,151.54,T,,M,0.00,N,0.01,K,D*3D
$PMTKLOG,0,1,a,31,15,0,0,1,0,0*11
$PMTK001,183,3*3A
$PMTK869,2,0*37

$GPGGA,12354
7.000,5212.0864,N,00005.9601,E,2,07,1.20,4.9,M,47.0,M,0000,0000*66
$GPGSA,A,3,15,05,24,21,30,13,28,,,,,,2.13,1.20,1.76*0E
$GPGSV,3,1,11,13,86,313,35,28,51,098,34,15,49,290,40,30,37,066,32*78
$GPGSV,3,2,11,05,35,188,27,49,30,173,31,24,15,246,27,21,13,295,29*75
$GPGSV,3,3,11,20,10,324,16,08,09,023,,07,06,065,*4A
$GPRMC,123547.000,A,5212.0864,N,00005.9601,E,0.00,186.55,270119,,,D*6B
$GPVTG,186.55,T,,M,0.00,N,0.01,K,D*36

$GPGGA,123547.200,5212.0864,N,00005.9601,E,2,07,1.20,4.9,M,47.0,M,0000,0000*64
$GPGSA,A,3,15,05,24,21,30,13,28,,,,,,2.13,1.20,1.76*0E
$GPRMC,123547.200,A,5212.0864,N,00005.9601,E,0.00,66.96,270119,,,D*59
$GPVTG,66.96,T,,M,0.00,N,0.00,K,D*07

$GPGGA,123547.400,5212.0864,N,00005.9601,E,2,07,1.20,4.9,M,47.0,M,0000,0000*62
$GPGSA,A,3,15,05,24,21,30,13,28,,,,,,2.13,1.20,1.76*0E
$GPRMC,123547.400,A,5212.0864,N,00005.9601,E,0.00,324.27,270119,,,D*60
$GPVTG,324.27,T,,M,0.00,N,0.01,K,D*39

$GPGGA,123547.600,5212.0864,N,00005.9601,E,2,07,1.19,4.9,M,47.0,M,0000,0000*6A
$GPGSA,A,3,15,05,24,21,30,13,28,,,,,,2.13,1.19,1.76*04
$GPRMC,123547.600,A,5212.0864,N,00005.9601,E,0.01,336.58,270119,,,D*68
$GPVTG,336.58,T,,M,0.01,N,0.01,K,D*33

$GPGGA,123547.800,5212.0864,N,00005.9601,E,2,07,1.19,4.9,M,47.0,M,0000,0000*64
$GPGSA,A,3,15,05,24,21,30,13,28,,,,,,2.13,1.19,1.76*04
$GPRMC,123547.800,A,5212.0864,N,00005.9601,E,0.00,2.81,270119,,,D*67
$GPVTG,2.81,T,,M,0.00,N,0.01,K,D*32
$PMTKLOG,0,1,a,31,15,0,0,1,0,0*11
$PMTK001,183,3*3A
$PMTK869,2,0*37

$GPGGA,123548.000,5212.0864,N,00005.9601,E,2,07,1.2
0,4.9,M,47.0,M,0000,0000*69
$GPGSA,A,3,15,05,24,21,30,13,28,,,,,,2.13,1.20,1.76*0E
$GPGSV,3,1,11,13,86,313,34,28,51,098,35,15,49,290,40,30,37,066,32*78
$GPGSV,3,2,11,05,35,188,29,49,30,173,30,24,15,246,24,21,13,295,32*73
$GPGSV,3,3,11,20,10,324,16,08,09,023,,07,06,065,*4A
$GPRMC,123548.000,A,5212.0864,N,00005.9601,E,0.00,0.00,270119,,,D*6B
$GPVTG,0.00,T,,M,0.00,N,0.00,K,D*38

$GPGGA,123548.200,5212.0864,N,00005.9601,E,2,07,1.20,4.9,M,47.0,M,0000,0000*6B
$GPGSA,A,3,15,05,24,21,30,13,28,,,,,,2.13,1.20,1.76*0E
$GPRMC,123548.200,A,5212.0864,N,00005.9601,E,0.00,0.00,270119,,,D*69
$GPVTG,0.00,T,,M,0.00,N,0.00,K,D*38

$GPGGA,123548.400,5212.0864,N,00005.9601,E,2,07,1.20,4.9,M,47.0,M,0000,0000*6D
$GPGSA,A,3,15,05,24,21,30,13,28,,,,,,2.13,1.20,1.76*0E
$GPRMC,123548.400,A,5212.0864,N,00005.9601,E,0.00,112.48,270119,,,D*61
$GPVTG,112.48,T,,M,0.00,N,0.01,K,D*37

$GPGGA,123548.600,5212.0865,N,00005.9601,E,2,07,1.20,4.9,M,47.0,M,0000,0000*6E
$GPGSA,A,3,15,05,24,21,30,13,28,,,,,,2.13,1.20,1.76*0E
$GPRMC,123548.600,A,5212.0865,N,00005.9601,E,0.00,114.32,270119,,,D*69
$GPVTG,114.32,T,,M,0.00,N,0.00,K,D*3D

$GPGGA,123548.800,5212.0865,N,00005.9601,E,2,07,1.20,4.9,M,47.0,M,0000,0000*60
$GPGSA,A,3,15,05,24,21,30,13,28,,,,,,2.13,1.20,1.76*0E
$GPRMC,123548.800,A,5212.0865,N,00005.9601,E,0.00,0.00,270119,,,D*62
$GPVTG,0.00,T,,M,0.00,N,0.00,K,D*38
$PMTKLOG,0,1,a,31,15,0,0,1,0,0*11
$PMTK001,183,3*3A
$PMTK869,2,0*37

$GPGGA,123549.000,5212.0865,N,00005.9601,E,2
,07,1.20,4.9,M,47.0,M,0000,0000*69
$GPGSA,A,3,15,05,24,21,30,13,28,,,,,,2.13,1.20,1.76*0E
$GPGSV,3,1,11,13,86,313,34,28,51,098,34,15,49,290,39,30,37,066,31*74
$GPGSV,3,2,11,05,35,188,31,49,30,173,30,24,15,246,26,21,13,295,30*7A
$GPGSV,3,3,11,20,10,324,16,08,09,023,,07,06,065,*4A
$GPRMC,123549.000,A,5212.0865,N,00005.9601,E,0.00,250.62,270119,,,D*68
$GPVTG,250.62,T,,M,0.00,N,0.01,K,D*3A

$GPGGA,123549.200,5212.0865,N,00005.9601,E,2,07,1.20,4.9,M,47.0,M,0000,0000*6B
$GPGSA,A,3,15,05,24,21,30,13,28,,,,,,2.13,1.20,1.76*0E
$GPRMC,123549.200,A,5212.0865,N,00005.9601,E,0.00,0.00,270119,,,D*69
$GPVTG,0.00,T,,M,0.00,N,0.00,K,D*38

$GPGGA,123549.400,5212.0865,N,00005.9601,E,2,07,1.20,4.9,M,47.0,M,0000,0000*6D
$GPGSA,A,3,15,05,24,21,30,13,28,,,,,,2.13,1.20,1.76*0E
$GPRMC,123549.400,A,5212.0865,N,00005.9601,E,0.00,246.30,270119,,,D*6C
$GPVTG,246.30,T,,M,0.00,N,0.01,K,D*3A

$GPGGA,123549.600,5212.0865,N,00005.9601,E,2,07,1.20,4.9,M,47.0,M,0000,0000*6F
$GPGSA,A,3,15,05,24,21,30,13,28,,,,,,2.13,1.20,1.76*0E
$GPRMC,123549.600,A,5212.0865,N,00005.9601,E,0.00,284.20,270119,,,D*61
$GPVTG,284.20,T,,M,0.00,N,0.00,K,D*34

$GPGGA,123549.800,5212.0864,N,00005.9601,E,2,07,1.20,4.9,M,47.0,M,0000,0000*60
$GPGSA,A,3,15,05,24,21,30,13,28,,,,,,2.13,1.20,1.76*0E
$GPRMC,123549.800,A,5212.0864,N,00005.9601,E,0.00,128.88,270119,,,D*69
$GPVTG,128.88,T,,M,0.00,N,0.01,K,D*32
$PMTKLOG,0,1,a,31,15,0,0,1,0,0*11
$PMTK001,183,3*3A
$PMTK869,2,0*37

$GPGGA,123550.000,5212.0864,N,00005.9
601,E,2,07,1.20,4.9,M,47.0,M,0000,0000*60
$GPGSA,A,3,15,05,24,21,30,13,28,,,,,,2.13,1.20,1.76*0E
$GPGSV,3,1,11,13,86,313,34,28,51,098,35,15,49,290,39,30,37,066,34*70
$GPGSV,3,2,11,05,35,188,26,49,30,173,30,24,15,246,24,21,13,295,30*7E
$GPGSV,3,3,11,20,10,324,14,08,09,023,,07,06,065,*48
$GPRMC,123550.000,A,5212.0864,N,00005.9601,E,0.00,243.68,270119,,,D*69
$GPVTG,243.68,T,,M,0.00,N,0.01,K,D*32

$GPGGA,123550.200,5212.0864,N,00005.9601,E,2,07,1.20,4.9,M,47.0,M,0000,0000*62
$GPGSA,A,3,15,05,24,21,30,13,28,,,,,,2.13,1.20,1.76*0E
$GPRMC,123550.200,A,5212.0864,N,00005.9601,E,0.01,252.60,270119,,,D*62
$GPVTG,252.60,T,,M,0.01,N,0.01,K,D*3B

$GPGGA,123550.400,5212.0864,N,00005.9601,E,2,07,1.19,4.9,M,47.0,M,0000,0000*6E
$GPGSA,A,3,15,05,24,21,30,13,28,,,,,,2.13,1.19,1.76*04
$GPRMC,123550.400,A,5212.0864,N,00005.9601,E,0.00,225.45,270119,,,D*62
$GPVTG,225.45,T,,M,0.00,N,0.01,K,D*3D

$GPGGA,123550.600,5212.0864,N,00005.9601,E,2,07,1.19,4.9,M,47.0,M,0000,0000*6C
$GPGSA,A,3,15,05,24,21,30,13,28,,,,,,2.13,1.19,1.76*04
$GPRMC,123550.600,A,5212.0864,N,00005.9601,E,0.00,121.53,270119,,,D*60
$GPVTG,121.53,T,,M,0.00,N,0.01,K,D*3D

$GPGGA,123550.800,5212.0864,N,00005.9601,E,2,07,1.20,4.9,M,47.0,M,0000,0000*68
$GPGSA,A,3,15,05,24,21,30,13,28,,,,,,2.13,1.20,1.76*0E
$GPRMC,123550.800,A,5212.0864,N,00005.9601,E,0.00,140.33,270119,,,D*6F
$GPVTG,140.33,T,,M,0.00,N,0.00,K,D*3D
$PMTKLOG,0,1,a,31,15,0,0,1,0,0*11
$PMTK001,183,3*3A
$PMTK869,2,0*37

$GPGGA,123551.000,5212.0864,N,00005.9601,E,2,07,1.20,4.9,M,47.0,M,0000,0000*61
$GPGSA,A,3,15,05,24,21,30,13,28,,,,,,2.13,1.20,1.76*0E
$GPGSV,3,1,11,13,86,313,34,28,51,098,35,15,49,290,39,30,37,066,34*70
$GPGSV,3,2,11,05,35,188,24,49,30,173,30,24,15,246,23,21,13,295,29*73
$GPGSV,3,3,11,20,10,324,18,08,09,023,,07,06,065,*44
$GPRMC,123551.000,A,5212.0864,N,00005.9601,E,0.00,114.51,270119,,,D*63
$GPVTG,114.51,T,,M,
0.00,N,0.01,K,D*39

$GPGGA,123551.200,5212.0864,N,00005.9601,E,2,07,1.19,4.9,M,47.0,M,0000,0000*69
$GPGSA,A,3,15,05,24,21,30,13,28,,,,,,2.13,1.19,1.76*04
$GPRMC,123551.200,A,5212.0864,N,00005.9601,E,0.00,278.94,270119,,,D*61
$GPVTG,278.94,T,,M,0.00,N,0.00,K,D*38

$GPGGA,123551.400,5212.0864,N,00005.9601,E,2,07,1.20,4.9,M,47.0,M,0000,0000*65
$GPGSA,A,3,15,05,24,21,30,13,28,,,,,,2.13,1.20,1.76*0E
$GPRMC,123551.400,A,5212.0864,N,00005.9601,E,0.00,0.00,270119,,,D*67
$GPVTG,0.00,T,,M,0.00,N,0.00,K,D*38

$GPGGA,123551.600,5212.0864,N,00005.9601,E,2,07,1.19,4.9,M,47.0,M,0000,0000*6D
$GPGSA,A,3,15,05,24,21,30,13,28,,,,,,2.13,1.19,1.76*04
$GPRMC,123551.600,A,5212.0864,N,00005.9601,E,0.00,0.00,270119,,,D*65
$GPVTG,0.00,T,,M,0.00,N,0.00,K,D*38

$GPGGA,123551.800,5212.0864,N,00005.9601,E,2,07,1.20,4.9,M,47.0,M,0000,0000*69
$GPGSA,A,3,15,05,24,21,30,13,28,,,,,,2.13,1.20,1.76*0E
$GPRMC,123551.800,A,5212.0864,N,00005.9601,E,0.00,116.85,270119,,,D*60
$GPVTG,116.85,T,,M,0.00,N,0.01,K,D*32
$PMTKLOG,0,1,a,31,15,0,0,1,0,0*11
$PMTK001,183,3*3A
$PMTK869,2,0*37

$GPGGA,123552.000,5212.
0864,N,00005.9601,E,2,07,1.20,4.9,M,47.0,M,0000,0000*62
$GPGSA,A,3,15,05,24,21,30,13,28,,,,,,2.13,1.20,1.76*0E
$GPGSV,3,1,11,13,86,313,34,28,51,098,35,15,49,290,39,30,37,066,31*75
$GPGSV,3,2,11,05,34,188,28,49,30,173,30,24,15,246,25,21,13,295,29*78
$GPGSV,3,3,11,20,10,324,19,08,09,023,,07,06,065,*45
$GPRMC,123552.000,A,5212.0864,N,00005.9601,E,0.01,116.38,270119,,,D*6C
$GPVTG,116.38,T,,M,0.01,N,0.01,K,D*35

$GPGGA,123552.200,5212.0864,N,00005.9601,E,2,07,1.20,4.9,M,47.0,M,0000,0000*60
$GPGSA,A,3,15,05,24,21,30,13,28,,,,,,2.13,1.20,1.76*0E
$GPRMC,123552.200,A,5212.0864,N,00005.9601,E,0.00,140.97,270119,,,D*69
$GPVTG,140.97,T,,M,0.00,N,0.01,K,D*32

$GPGGA,123552.400,5212.0864,N,00005.9601,E,2,07,1.19,4.9,M,47.0,M,0000,0000*6C
$GPGSA,A,3,15,05,24,21,30,13,28,,,,,,2.13,1.19,1.76*04
$GPRMC,123552.400,A,5212.0864,N,00005.9601,E,0.00,224.14,270119,,,D*65
$GPVTG,224.14,T,,M,0.00,N,0.01,K,D*38

$GPGGA,123552.600,5212.0864,N,00005.9601,E,2,07,1.19,4.9,M,47.0,M,0000,0000*6E
$GPGSA,A,3,15,05,24,21,30,13,28,,,,,,2.13,1.19,1.76*04
$GPRMC,123552.600,A,5212.0864,N,00005.9601,E,0.01,210.26,270119,,,D*60
$GPVTG,210.26,T,,M,0.01,N,0.01,K,D*3F

$GPGGA,123552.800,5212.0864,N,00005.9601,E,2,07,1.19,4.9,M,47.0,M,0000,0000*60
$GPGSA,A,3,15,05,24,21,30,13,28,,,,,,2.13,1.19,1.76*04
$GPRMC,123552.800,A,5212.0864,N,00005.9601,E,0.01,232.88,270119,,,D*6A
$GPVTG,232.88,T,,M,0.01,N,0.01,K,D*3B
$PMTKLOG,0,1,a,31,15,0,0,1,0,0*11
$PMTK001,183,3*3A
$PMTK869,2,0*37

$GPGGA,123553.000,5212.0864,N,00005.9601,E,2,07,1.20,4.9,M,47.0,M,0000,0000*63
$GPGSA,A,3,15,05,24,21,30,13,28,,,,,,2.13,1.20,1.7
6*0E
$GPGSV,3,1,11,13,86,313,34,28,51,098,35,15,49,290,39,30,37,066,32*76
$GPGSV,3,2,11,05,34,188,31,49,30,173,30,24,15,246,23,21,13,295,28*77
$GPGSV,3,3,11,20,10,324,19,08,09,023,,07,06,065,*45
$GPRMC,123553.000,A,5212.0864,N,00005.9601,E,0.00,291.41,270119,,,D*6E
$GPVTG,291.41,T,,M,0.00,N,0.01,K,D*36

$GPGGA,123553.200,5212.0864,N,00005.9601,E,2,07,1.20,4.9,M,47.0,M,0000,0000*61
$GPGSA,A,3,15,05,24,21,30,13,28,,,,,,2.13,1.20,1.76*0E
$GPRMC,123553.200,A,5212.0864,N,00005.9601,E,0.00,0.00,270119,,,D*63
$GPVTG,0.00,T,,M,0.00,N,0.00,K,D*38

$GPGGA,123553.400,5212.0864,N,00005.9601,E,2,07,1.19,4.9,M,47.0,M,0000,0000*6D
$GPGSA,A,3,15,05,24,21,30,13,28,,,,,,2.13,1.19,1.76*04
$GPRMC,123553.400,A,5212.0864,N,00005.9601,E,0.00,305.06,270119,,,D*65
$GPVTG,305.06,T,,M,0.00,N,0.01,K,D*39

$GPGGA,123553.600,5212.0864,N,00005.9601,E,2,07,1.20,4.9,M,47.0,M,0000,0000*65
$GPGSA,A,3,15,05,24,21,30,13,28,,,,,,2.13,1.20,1.76*0E
$GPRMC,123553.600,A,5212.0864,N,00005.9601,E,0.01,310.95,270119,,,D*68
$GPVTG,310.95,T,,M,0.01,N,0.02,K,D*35

$GPGGA,123553.800,5212.0864,N,00005.9601,E,2,07,1.20,4.9,M,47.0,M,0000,0000*6B
$GPGSA,A,3,15,05,24,21,30,13,28,,,,,,2.13,1.20,1.76*0E
$GPRMC,123553.800,A,5212.0864,N,00005.9601,E,0.01,273.74,270119,,,D*6D
$GPVTG,273.74,T,,M,0.01,N,0.01,K,D*3D
$PMTKLOG,0,1,a,31,15,0,0,1,0,0*11
$PMTK001,183,3*3A
$PMTK869,2,0*37

$GPGGA,123554.000,5212.0864,N,00005.9601,E,2,07,1.19,4.9,M,47.0,M,0000,0000*6E
$GPGSA,A,3,15,05,24
,21,30,13,28,,,,,,2.13,1.19,1.76*04
$GPGSV,3,1,11,13,86,313,34,28,51,098,34,15,49,290,39,30,37,066,34*71
$GPGSV,3,2,11,05,34,188,28,49,30,173,30,24,15,246,21,21,13,295,29*7C
$GPGSV,3,3,11,20,10,324,20,08,09,023,,07,06,065,*4F
$GPRMC,123554.000,A,5212.0864,N,00005.9601,E,0.00,273.09,270119,,,D*69
$GPVTG,273.09,T,,M,0.00,N,0.01,K,D*36

$GPGGA,123554.200,5212.0864,N,00005.9601,E,2,07,1.19,4.9,M,47.0,M,0000,0000*6C
$GPGSA,A,3,15,05,24,21,30,13,28,,,,,,2.13,1.19,1.76*04
$GPRMC,123554.200,A,5212.0864,N,00005.9601,E,0.00,0.00,270119,,,D*64
$GPVTG,0.00,T,,M,0.00,N,0.00,K,D*38

$GPGGA,123554.400,5212.0864,N,00005.9601,E,2,07,1.20,4.9,M,47.0,M,0000,0000*60
$GPGSA,A,3,15,05,24,21,30,13,28,,,,,,2.13,1.20,1.76*0E
$GPRMC,123554.400,A,5212.0864,N,00005.9601,E,0.00,114.28,270119,,,D*6C
$GPVTG,114.28,T,,M,0.00,N,0.00,K,D*36

$GPGGA,123554.600,5212.0864,N,00005.9601,E,2,07,1.19,4.9,M,47.0,M,0000,0000*68
$GPGSA,A,3,15,05,24,21,30,13,28,,,,,,2.13,1.19,1.76*04
$GPRMC,123554.600,A,5212.0864,N,00005.9601,E,0.00,0.00,270119,,,D*60
$GPVTG,0.00,T,,M,0.00,N,0.00,K,D*38

$GPGGA,123554.800,5212.0864,N,00005.9601,E,2,07,1.20,4.9,M,47.0,M,0000,0000*6C
$GPGSA,A,3,15,05,24,21,30,13,28,,,,,,2.13,1.20,1.76*0E
$GPRMC,123554.800,A,5212.0864,N,00005.9601,E,0.00,96.44,270119,,,D*51
$GPVTG,96.44,T,,M,0.00,N,0.00,K,D*07
$PMTKLOG,0,1,a,31,15,0,0,1,0,0*11
$PMTK001,183,3*3A
$PMTK869,2,0*37

$GPGGA,123555.000,5212.0864,N,00005.9601,E,2,07,1.20,4.9,M,47.0,M,0000,0000*65
$GPGSA,A,3,15,05,24,21,30,13,28,,,,,,2.13,1.20,1.76*0E
$GP
GSV,3,1,11,13,86,313,34,28,51,098,35,15,49,290,39,30,37,066,34*70
$GPGSV,3,2,11,05,34,188,26,49,30,173,31,24,15,246,21,21,13,295,30*7B
$GPGSV,3,3,11,20,10,324,19,08,09,023,,07,06,065,*45
$GPRMC,123555.000,A,5212.0864,N,00005.9601,E,0.01,99.01,270119,,,D*57
$GPVTG,99.01,T,,M,0.01,N,0.01,K,D*09

$GPGGA,123555.200,5212.0864,N,00005.9601,E,2,07,1.20,4.9,M,47.0,M,0000,0000*67
$GPGSA,A,3,15,05,24,21,30,13,28,,,,,,2.13,1.20,1.76*0E
$GPRMC,123555.200,A,5212.0864,N,00005.9601,E,0.00,341.25,270119,,,D*64
$GPVTG,341.25,T,,M,0.00,N,0.00,K,D*39

$GPGGA,123555.400,5212.0864,N,00005.9601,E,2,07,1.19,4.9,M,47.0,M,0000,0000*6B
$GPGSA,A,3,15,05,24,21,30,13,28,,,,,,2.13,1.19,1.76*04
$GPRMC,123555.400,A,5212.0864,N,00005.9601,E,0.00,185.63,270119,,,D*6A
$GPVTG,185.63,T,,M,0.00,N,0.00,K,D*31

$GPGGA,123555.600,5212.0864,N,00005.9601,E,2,07,1.20,4.9,M,47.0,M,0000,0000*63
$GPGSA,A,3,15,05,24,21,30,13,28,,,,,,2.13,1.20,1.76*0E
$GPRMC,123555.600,A,5212.0864,N,00005.9601,E,0.00,212.29,270119,,,D*6B
$GPVTG,212.29,T,,M,0.00,N,0.01,K,D*33

$GPGGA,123555.800,5212.0864,N,00005.9601,E,2,07,1.19,4.9,M,47.0,M,0000,0000*67
$GPGSA,A,3,15,05,24,21,30,13,28,,,,,,2.13,1.19,1.76*04
$GPRMC,123555.800,A,5212.0864,N,00005.9601,E,0.00,174.45,270119,,,D*6C
$GPVTG,174.45,T,,M,0.00,N,0.01,K,D*3A
$PMTKLOG,0,1,a,31,15,0,0,1,0,0*11
$PMTK001,183,3*3A
$PMTK869,2,0*37

$GPGGA,123556.000,5212.0864,N,00005.9601,E,2,07,1.19,4.9,M,47.0,M,0000,0000*6C
$GPGSA,A,3,15,05,24,21,30,13,28,,,,,,2.13,1.19,1.76*04
$GPGSV,3,1,11,13,86,313,34,28,51,098,35,15,49,290,39,30,37,066,33*77
$GPGSV,3,2,11,05,34,188,28,49,30,173,31,24,15,246,20,21,13,295,29*7C
$GPGSV,3,3,11,20,10,324,19,08,09,023,,07,06,065,*45
$GPRMC,123556.000,A,5212.0864,N,00005.9601,E,0.00,295.18,270119,,,D*63
$GPVTG,295.18,T,,M,0.00,N,0.01,K,D*3E

$GPGGA,123556.200,5212.0864,N,00005.9601,E,2,07,1.20,4.9,M,47.0,M,0000,0000*64
$GPGSA,A,3,15,05,24,21,30,13,28,,,,,,2.13,1.20,1.76*0E
$GPRMC,123556.200,A,5212.0864,N,00005.9601,E,0.00,289.87,270119,,,D*6A
$GPVTG,289.87,T,,M,0.00,N,0.00,K,D*34

$GPGGA,123556.400,5212.0864,N,00005.9601,E,2,07,1.19,4.9,M,47.0,M,0000,0000*68
$GPGSA,A,3,15,05,24,21,30,13,28,,,,,,2.13,1.19,1.76*04
$GPRMC,123556.400,A,5212.0864,N,00005.9601,E,0.00,55.82,270119,,,D*5A
$GPVTG,55.82,T,,M,0.00,N,0.00,K,D*02

$GPGGA,123556.600,5212.0864,N,00005.9601,E,2,07,1.19,4.9,M,47.0,M,0000,0000*6A
$GPGSA,A,3,15,05,24,21,30,13,
28,,,,,,2.13,1.19,1.76*04
$GPRMC,123556.600,A,5212.0864,N,00005.9601,E,0.00,41.98,270119,,,D*56
$GPVTG,41.98,T,,M,0.00,N,0.01,K,D*0D

$GPGGA,123556.800,5212.0864,N,00005.9601,E,2,07,1.20,4.9,M,47.0,M,0000,0000*6E
$GPGSA,A,3,15,05,24,21,30,13,28,,,,,,2.13,1.20,1.76*0E
$GPRMC,123556.800,A,5212.0864,N,00005.9601,E,0.01,20.99,270119,,,D*5F
$GPVTG,20.99,T,,M,0.01,N,0.01,K,D*0A
$PMTKLOG,0,1,a,31,15,0,0,1,0,0*11
$PMTK001,183,3*3A
$PMTK869,2,0*37

$GPGGA,123557.000,5212.0864,N,00005.9601,E,2,07,1.20,4.9,M,47.0,M,0000,0000*67

$GPGSA,A,3,15,05,24,21,30,13,28,,,,,,2.13,1.20,1.76*0E
$GPGSV,3,1,11,13,86,313,34,28,51,097,35,15,49,290,39,30,37,066,33*78
$GPGSV,3,2,11,05,34,188,28,49,30,173,31,24,15,246,19,21,13,295,29*76
$GPGSV,3,3,11,20,10,324,18,08,09,023,,07,06,065,*44
$GPRMC,123557.000,A,5212.0864,N,00005.9601,E,0.01,1.22,270119,,,D*65
$GPVTG,1.22,T,,M,0.01,N,0.01,K,D*39

$GPGGA,123557.200,5212.0864,N,00005.9601,E,2,07,1.19,4.9,M,47.0,M,0000,0000*6F
$GPGSA,A,3,15,05,24,21,30,13,28,,,,,,2.13,1.19,1.76*04
$GPRMC,123557.200,A,5212.0864,N,00005.9601,E,0.00,261.24,270119,,,D*64
$GPVTG,261.24,T,,M,0.00,N,0.00,K,D*3B

$GPGGA,123557.400,5212.0864,N,00005.9601,E,2,07,1.19,4.9,M,47.0,M,0000,0000*69
$GPGSA,A,3,15,05,24,21,30,13,28,,,,,,2.13,1.19,1.76*04
$GPRMC,123557.400,A,5212.0864,N,00005.9601,E,0.01,294.88,270119,,,D*6F
$GPVTG,294.88,T,,M,0.01,N,0.02,K,D*34

$GPGGA,123557.600,5212.0864,N,00005.9601,E,2,07,1.19,4.9,M,47.0,M,0000,0000*6B
$GPGSA,A,3,15,05,24,21,30,13,28,,,,,,2.13,1.19,1.76*04
$GPRMC,123557.600,A,5212.0864,N,00005.9601,E,0.01,305.65,270119,,,D*67
$GPVTG,305.65,T,,M,0.01,N,0.01,K,D*3D

$GPGGA,123557.800,5212.0864,N,00005.9601,E,2,07,1.20,4.9,M,47.0,M,0000,0000*6F
$GPGSA,A,3,15,05,24,21,30,13,28,,,,,,2.13,1.20,1.76*0E
$GPRMC,123557.800,A,5212.0864,N,00005.9601,E,0.00,308.34,270119,,,D*61
$GPVTG,308.34,T,,M,0.00,N,0.01,K,D*35
$PMTKLOG,0,1,a,31,15,0,0,1,0,0*11
$PMTK001,183,3*3A
$PMTK869,2,0*37

$GPGGA,123558.000,5212.0864,N,00005.9601,E,2,07,1.20,4.9,M,47.0,M,0000,0000*68
$GPGSA,A,3,15,05,24,21,30,13,28,,,,,,2.13,1.20,1.76*0E
$GPGSV,3,1,11,13,86,313,34,28,51,097,35,15,49,290
,39,30,37,066,33*78
$GPGSV,3,2,11,05,34,188,26,49,30,173,31,24,15,246,22,21,13,295,29*70
$GPGSV,3,3,11,20,10,324,16,08,09,023,,07,06,065,*4A
$GPRMC,123558.000,A,5212.0864,N,00005.9601,E,0.00,174.52,270119,,,D*6F
$GPVTG,174.52,T,,M,0.00,N,0.00,K,D*3D

$GPGGA,123558.200,5212.0864,N,00005.9601,E,2,07,1.20,4.9,M,47.0,M,0000,0000*6A
$GPGSA,A,3,15,05,24,21,30,13,28,,,,,,2.13,1.20,1.76*0E
$GPRMC,123558.200,A,5212.0864,N,00005.9601,E,0.00,0.00,270119,,,D*68
$GPVTG,0.00,T,,M,0.00,N,0.00,K,D*38

$GPGGA,123558.400,5212.0864,N,00005.9601,E,2,07,1.20,4.9,M,47.0,M,0000,0000*6C
$GPGSA,A,3,15,05,24,21,30,13,28,,,,,,2.13,1.20,1.76*0E
$GPRMC,123558.400,A,5212.0864,N,00005.9601,E,0.00,322.18,270119,,,D*64
$GPVTG,322.18,T,,M,0.00,N,0.00,K,D*32

$GPGGA,123558.600,5212.0864,N,00005.9601,E,2,07,1.20,4.9,M,47.0,M,0000,0000*6E
$GPGSA,A,3,15,05,24,21,30,13,28,,,,,,2.13,1.20,1.76*0E
$GPRMC,123558.600,A,5212.0864,N,00005.9601,E,0.00,0.00,270119,,,D*6C
$GPVTG,0.00,T,,M,0.00,N,0.00,K,D*38

$GPGGA,123558.800,5212.0864,N,00005.9601,E,2,07,1.19,4.9,M,47.0,M,0000,0000*6A
$GPGSA,A,3,15,05,24,21,30,13,28,,,,,,2.13,1.19,1.76*04
$GPRMC,123558.800,A,5212.0864,N,00005.9601,E,0.01,98.94,270119,,,D*5F
$GPVTG,98.94,T,,M,0.01,N,0.01,K,D*04
$PMTKLOG,0,1,a,31,15,0,0,1,0,0*11
$PMTK001,183,3*3A
$PMTK869,2,0*37

$GPGGA,123559.000,5212.0864,N,00005.9601,E,2,07,1.19,4.9,M,47.0,M,0000,0000*63
$GPGSA,A,3,15,05,24,21,30,13,28,,,,,,2.13,1.19,1.76*04
$GPGSV,3,1,11,13,86,313,34,28,51,097,35,15,49,290,39,
30,37,066,34*7F
$GPGSV,3,2,11,05,34,188,29,49,30,173,32,24,15,246,23,21,13,295,28*7C
$GPGSV,3,3,11,20,10,324,16,08,09,023,,07,06,065,*4A
$GPRMC,123559.000,A,5212.0864,N,00005.9601,E,0.01,73.41,270119,,,D*5B
$GPVTG,73.41,T,,M,0.01,N,0.02,K,D*0A

$GPGGA,123559.200,5212.0864,N,00005.9601,E,2,07,1.20,4.9,M,47.0,M,0000,0000*6B
$GPGSA,A,3,15,05,24,21,30,13,28,,,,,,2.13,1.20,1.76*0E
$GPRMC,123559.200,A,5212.0864,N,00005.9601,E,0.00,92.07,270119,,,D*55
$GPVTG,92.07,T,,M,0.00,N,0.00,K,D*04

$GPGGA,123559.400,5212.0864,N,00005.9601,E,2,07,1.19,4.9,M,47.0,M,0000,0000*67
$GPGSA,A,3,15,05,24,21,30,13,28,,,,,,2.13,1.19,1.76*04
$GPRMC,123559.400,A,5212.0864,N,00005.9601,E,0.00,253.64,270119,,,D*69
$GPVTG,253.64,T,,M,0.00,N,0.00,K,D*3E

$GPGGA,123559.600,5212.0864,N,00005.9601,E,2,07,1.19,4.9,M,47.0,M,0000,0000*65
$GPGSA,A,3,15,05,24,21,30,13,28,,,,,,2.13,1.19,1.76*04
$GPRMC,123559.600,A,5212.0864,N,00005.9601,E,0.01,221.13,270119,,,D*6F
$GPVTG,221.13,T,,M,0.01,N,0.01,K,D*3B

$GPGGA,123559.800,5212.0864,N,00005.9601,E,2,07,1.19,4.9,M,47.0,M,0000,0000*6B
$GPGSA,A,3,15,05,24,21,30,13,28,,,,,,2.13,1.19,1.76*04
$GPRMC,123559.800,A,5212.0864,N,00005.9601,E,0.01,238.28,270119,,,D*61
$GPVTG,238.28,T,,M,0.01,N,0.01,K,D*3B
$PMTKLOG,0,1,a,31,15,0,0,1,0,0*11
$PMTK001,183,3*3A
$PMTK869,2,0*37

$GPGGA,123600.000,5212.0864,N,00005.
9601,E,2,07,1.19,4.9,M,47.0,M,0000,0000*6C
$GPGSA,A,3,15,05,24,21,30,13,28,,,,,,2.13,1.19,1.76*04
$GPGSV,3,1,11,13,86,313,35,28,51,097,35,15,49,290,39,30,37,066,33*79
$GPGSV,3,2,11,05,34,188,29,49,30,173,32,24,15,246,24,21,13,295,28*7B
$GPGSV,3,3,11,20,10,324,15,08,08,023,,07,06,065,*48
$GPRMC,123600.000,A,5212.0864,N,00005.9601,E,0.00,285.41,270119,,,D*6E
$GPVTG,285.41,T,,M,0.00,N,0.01,K,D*33

$GPGGA,123600.200,5212.0864,N,00005.9601,E,2,07,1.20,4.9,M,47.0,M,0000,0000*64
$GPGSA,A,3,15,05,24,21,30,13,28,,,,,,2.13,1.20,1.76*0E
$GPRMC,123600.200,A,5212.0864,N,00005.9601,E,0.00,0.00,270119,,,D*66
$GPVTG,0.00,T,,M,0.00,N,0.00,K,D*38

$GPGGA,123600.400,5212.0864,N,00005.9601,E,2,07,1.19,4.9,M,47.0,M,0000,0000*68
$GPGSA,A,3,15,05,24,21,30,13,28,,,,,,2.13,1.19,1.76*04
$GPRMC,123600.400,A,5212.0864,N,00005.9601,E,0.01,118.26,270119,,,D*6D
$GPVTG,118.26,T,,M,0.01,N,0.01,K,D*34

$GPGGA,123600.600,5212.0864,N,00005.9601,E,2,07,1.19,4.9,M,47.0,M,0000,0000*6A
$GPGSA,A,3,15,05,24,21,30,13,28,,,,,,2.13,1.19,1.76*04
$GPRMC,123600.600,A,5212.0864,N,00005.9601,E,0.00,189.80,270119,,,D*6A
$GPVTG,189.80,T,,M,0.00,N,0.01,K,D*31

$GPGGA,123600.800,5212.0864,N,00005.9601,E,2,07,1.19,4.9,M,47.0,M,0000,0000*64
$GPGSA,A,3,15,05,24,21,30,13,28,,,,,,2.13,1.19,1.76*04
$GPRMC,123600.800,A,5212.0864,N,00005.9601,E,0.01,243.13,270119,,,D*6A
$GPVTG,243.13,T,,M,0.01,N,0.01,K,D*3F
$PMTKLOG,0,1,a,31,15,0,0,1,0,0*11
$PMTK001,183,3*3A
$PMTK869,2,0*37

$GPGGA,123601.000,5212.0864,N,00005.9601,E,2,07,1.19,4.9,M,47.0,M,0000,0000*6D
$GPGSA,A,3,15,05,24,21,30,13,28,,,,,,2.13,1.19,1.76*04
$GPGSV,3,1,11,13,86,313,35,28,51,097,36,15,49,290,39,30,37,066,33*7A
$GPGSV,3,2,11,05,34,188,26,49,30,173,32,24,15,246,24,21,13,295,28*74
$GPGSV,3,3,11,20,10,324,15,08,08,023,,07,06,065,*48
$GPRMC,123601.000,A,5212.0864,N,00005.9601,E,0.01,267.49,270119,,,D*6A
$GPVTG,267.49,T,,M,0.01,N,0.01,K,D*36

$GPGGA,123601.200,5212.0864,N,00005.9601,E,2,07,1.20,4.9,M,47.0,M,0000,0000*65
$GPGSA,A,3,15,05,24,21,30,13,28,,,,,,2.13,1.20,1.76*0E
$GPRMC,123601.200,A,5212.0864,N,00005.9601,E,0.00,320.99,270119,,,D*66
$GPVTG,320.99,T,,M,0.00,N,0.01,K,D*38

$GPGGA,123601.400,5212.0864,N,00005.9601,E,2,07,1.19,4.9,M,47.0,M,0000,0000*69
$GPGSA,A,3,15,05,24,21,30,13,28,,,,,,2.13,1.19,1.76*04
$GPRMC,123601.400,A,5212.0864,N,00005.9601,E,0.01,333.81,270119,,,D*6A
$GPVTG,333.81,T,,M,0.01,N,0.01,K,D*32

$GPGGA,123601.600,5212.0864,N,00005.9601,E,2,07,1.19,4.9,M,47.0,M,0000,0000*6B
$GPGSA,A,3,15,05,24,21,30,13,28,,,,,,2.13,1.19,1.76*04
$GPRMC,123601.600,A,5212.0864,N,00005.9601
,E,0.01,38.89,270119,,,D*58
$GPVTG,38.89,T,,M,0.01,N,0.01,K,D*02

$GPGGA,123601.800,5212.0864,N,00005.9601,E,2,07,1.20,4.9,M,47.0,M,0000,0000*6F
$GPGSA,A,3,15,05,24,21,30,13,28,,,,,,2.13,1.20,1.76*0E
$GPRMC,123601.800,A,5212.0864,N,00005.9601,E,0.00,44.39,270119,,,D*57
$GPVTG,44.39,T,,M,0.00,N,0.00,K,D*02
$PMTKLOG,0,1,a,31,15,0,0,1,0,0*11
$PMTK001,183,3*3A
$PMTK869,2,0*37

$GPGGA,123602.000,5212.0864,N,00005.9601,E,2,07,1.20,4.9,M,47.0,M,0000,0000*64
$GPGSA,A,3,15,05,24,21,30,13,28,,,,,,2.13,1.20,1.76*0E
$GPGSV,3,1,11,13,86,3
13,33,28,51,097,36,15,49,290,39,30,37,066,34*7B
$GPGSV,3,2,11,05,34,188,28,49,30,173,32,24,15,246,22,21,13,295,28*7C
$GPGSV,3,3,11,20,10,324,16,08,08,023,,07,06,065,*4B
$GPRMC,123602.000,A,5212.0864,N,00005.9601,E,0.00,117.85,270119,,,D*6C
$GPVTG,117.85,T,,M,0.00,N,0.01,K,D*33

$GPGGA,123602.200,5212.0864,N,00005.9601,E,2,07,1.19,4.9,M,47.0,M,0000,0000*6C
$GPGSA,A,3,15,05,24,21,30,13,28,,,,,,2.13,1.19,1.76*04
$GPRMC,123602.200,A,5212.0864,N,00005.9601,E,0.00,85.35,270119,,,D*5F
$GPVTG,85.35,T,,M,0.00,N,0.00,K,D*03

$GPGGA,123602.400,5212.0864,N,00005.9601,E,2,07,1.19,4.9,M,47.0,M,0000,0000*6A
$GPGSA,A,3,15,05,24,21,30,13,28,,,,,,2.13,1.19,1.76*04
$GPRMC,123602.400,A,5212.0864,N,00005.9601,E,0.00,48.92,270119,,,D*55
$GPVTG,48.92,T,,M,0.00,N,0.01,K,D*0E

$GPGGA,123602.600,5212.0864,N,00005.9601,E,2,07,1.20,4.9,M,47.0,M,0000,0000*62
$GPGSA,A,3,15,05,24,21,30,13,28,,,,,,2.13,1.20,1.76*0E
$GPRMC,123602.600,A,5212.0864,N,00005.9601,E,0.00,110.59,270119,,,D*6C
$GPVTG,110.59,T,,M,0.00,N,0.00,K,D*34

$GPGGA,123602.800,5212.0864,N,00005.9601,E,2,07,1.19,4.9,M,47.0,M,0000,0000*66
$GPGSA,A,3,15,05,24,21,30,13,28,,,,,,2.12,1.19,1.76*05
$GPRMC,123602.800,A,5212.0864,N,00005.9601,E,0.00,209.18,270119,,,D*6C
$GPVTG,209.18,T,,M,0.00,N,0.00,K,D*3A
$PMTKLOG,0,1,a,31,15,0,0,1,0,0*11
$PMTK001,183,3*3A
$PMTK869,2,0*37

$GPGGA,123603.000,5212.0864,N,00005.9601,E,2,07,1.19,4.9,M,47.0,M,0000,0000*6F
$GPGSA,A,3,15,05,24,21,30,13,28,,,,,,2.13,1.19,1.76*04
$GPGSV,3,1,11,13,86,313,33
,28,51,097,36,15,49,290,39,30,37,066,34*7B
$GPGSV,3,2,11,05,34,188,30,49,30,173,31,24,15,246,21,21,13,295,28*75
$GPGSV,3,3,11,20,10,324,16,08,08,023,,07,06,065,*4B
$GPRMC,123603.000,A,5212.0864,N,00005.9601,E,0.01,125.52,270119,,,D*67
$GPVTG,125.52,T,,M,0.01,N,0.01,K,D*39

$GPGGA,123603.200,5212.0864,N,00005.9601,E,2,07,1.20,4.9,M,47.0,M,0000,0000*67
$GPGSA,A,3,15,05,24,21,30,13,28,,,,,,2.13,1.20,1.76*0E
$GPRMC,123603.200,A,5212.0864,N,00005.9601,E,0.00,88.26,270119,,,D*51
$GPVTG,88.26,T,,M,0.00,N,0.01,K,D*0D

$GPGGA,123603.400,5212.0864,N,00005.9601,E,2,07,1.20,4.9,M,47.0,M,0000,0000*61
$GPGSA,A,3,15,05,24,21,30,13,28,,,,,,2.13,1.20,1.76*0E
$GPRMC,123603.400,A,5212.0864,N,00005.9601,E,0.00,56.26,270119,,,D*54
$GPVTG,56.26,T,,M,0.00,N,0.01,K,D*0E

$GPGGA,123603.600,5212.0864,N,00005.9601,E,2,07,1.19,4.9,M,47.0,M,0000,0000*69
$GPGSA,A,3,15,05,24,21,30,13,28,,,,,,2.12,1.19,1.76*05
$GPRMC,123603.600,A,5212.0864,N,00005.9601,E,0.00,334.48,270119,,,D*69
$GPVTG,334.48,T,,M,0.00,N,0.01,K,D*31

$GPGGA,123603.800,5212.0864,N,00005.9601,E,2,07,1.20,4.9,M,47.0,M,0000,0000*6D
$GPGSA,A,3,15,05,24,21,30,13,28,,,,,,2.13,1.20,1.76*0E
$GPRMC,123603.800,A,5212.0864,N,00005.9601,E,0.00,285.69,270119,,,D*6F
$GPVTG,285.69,T,,M,0.00,N,0.01,K,D*39
$PMTKLOG,0,1,a,31,15,0,0,1,0,0*11
$PMTK001,183,3*3A
$PMTK869,2,0*37

$GPGGA,123604.000,5212.0864,N,00005.9601,E,2,07,1.20,4.9,M,47.0,M,0000,0000*62
$GPGSA,A,3,15,05,24,21,30,13,28,,,,,,2.13,1.20,1.76*0E
$GPGSV,3,1,11,13,86,313,33,28,51,097,35,15,49,290,39,30,37,066,34*78
$GPGSV,3,2,11,05,34,188,30,49,30,173,30,24,15,246,18,21,13,295,29*7F
$GPGSV,3,3,11,20,10,324,17,08
,08,023,,07,06,065,*4A
$GPRMC,123604.000,A,5212.0864,N,00005.9601,E,0.00,184.91,270119,,,D*65
$GPVTG,184.91,T,,M,0.00,N,0.01,K,D*3C

$GPGGA,123604.200,5212.0864,N,00005.9601,E,2,07,1.19,4.9,M,47.0,M,0000,0000*6A
$GPGSA,A,3,15,05,24,21,30,13,28,,,,,,2.13,1.19,1.76*04
$GPRMC,123604.200,A,5212.0864,N,00005.9601,E,0.00,175.26,270119,,,D*65
$GPVTG,175.26,T,,M,0.00,N,0.01,K,D*3E

$GPGGA,123604.400,5212.0864,N,00005.9601,E,2,07,1.19,4.9,M,47.0,M,0000,0000*6C
$GPGSA,A,3,15,05,24,21,30,13,28,,,,,,2.13,1.19,1.76*04
$GPRMC,123604.400,A,5212.0864,N,00005.9601,E,0.00,149.26,270119,,,D*6C
$GPVTG,149.26,T,,M,0.00,N,0.00,K,D*30

$GPGGA,123604.600,5212.0864,N,00005.9601,E,2,07,1.19,4.9,M,47.0,M,0000,0000*6E
$GPGSA,A,3,15,05,24,21,30,13,28,,,,,,2.13,1.19,1.76*04
$GPRMC,123604.600,A,5212.0864,N,00005.9601,E,0.00,0.00,270119,,,D*66
$GPVTG,0.00,T,,M,0.00,N,0.00,K,D*38

$GPGGA,123604.800,5212.0864,N,00005.9601,E,2,07,1.19,4.9,M,47.0,M,0000,0000*60
$GPGSA,A,3,15,05,24,21,30,13,28,,,,,,2.13,1.19,1.76*04
$GPRMC,123604.800,A,5212.0864,N,00005.9601,E,0.00,354.76,270119,,,D*6B
$GPVTG,354.76,T,,M,0.00,N,0.00,K,D*3B
$PMTKLOG,0,1,a,31,15,0,0,1,0,0*11
$PMTK001,183,3*3A
$PMTK869,2,0*37

$GPGGA,123605.000,5212.0864,N,00005.9601,E,2,07,1.20,4.9,M,47.0,M,0000,0000*63
$GPGSA,A,3,15,05,24,21,30,13,28,,,,,,2.13,1.20,1.76*0E
$GPGSV,3,1,11,13,86,313,33,28,51,097,35,15,49,290,39,30,37,066,34*78
$GPGSV,3,2,11,05,34,188,30,49,30,173,29,24,15,246,18,21,13,295,29*77
$GPGSV,3,3,11,20,10,324,17,08,08,
023,,07,06,065,*4A
$GPRMC,123605.000,A,5212.0864,N,00005.9601,E,0.00,263.75,270119,,,D*64
$GPVTG,263.75,T,,M,0.00,N,0.01,K,D*3C

$GPGGA,123605.200,5212.0864,N,00005.9601,E,2,07,1.20,4.9,M,47.0,M,0000,0000*61
$GPGSA,A,3,15,05,24,21,30,13,28,,,,,,2.13,1.20,1.76*0E
$GPRMC,123605.200,A,5212.0864,N,00005.9601,E,0.00,285.48,270119,,,D*60
$GPVTG,285.48,T,,M,0.00,N,0.00,K,D*3B

$GPGGA,123605.400,5212.0864,N,00005.9601,E,2,07,1.20,4.9,M,47.0,M,0000,0000*67
$GPGSA,A,3,15,05,24,21,30,13,28,,,,,,2.13,1.20,1.76*0E
$GPRMC,123605.400,A,5212.0864,N,00005.9601,E,0.00,357.74,270119,,,D*67
$GPVTG,357.74,T,,M,0.00,N,0.01,K,D*3B

$GPGGA,123605.600,5212.0864,N,00005.9601,E,2,07,1.19,4.9,M,47.0,M,0000,0000*6F
$GPGSA,A,3,15,05,24,21,30,13,28,,,,,,2.12,1.19,1.76*05
$GPRMC,123605.600,A,5212.0864,N,00005.9601,E,0.01,295.23,270119,,,D*69
$GPVTG,295.23,T,,M,0.01,N,0.01,K,D*37

$GPGGA,12
3605.800,5212.0864,N,00005.9601,E,2,07,1.19,4.9,M,47.0,M,0000,0000*61
$GPGSA,A,3,15,05,24,21,30,13,28,,,,,,2.13,1.19,1.76*04
$GPRMC,123605.800,A,5212.0864,N,00005.9601,E,0.00,318.12,270119,,,D*60
$GPVTG,318.12,T,,M,0.00,N,0.01,K,D*30
$PMTKLOG,0,1,a,31,15,0,0,1,0,0*11
$PMTK001,183,3*3A
$PMTK869,2,0*37

$GPGGA,123606.000,5212.0864,N,00005.9601,E,2,07,1.19,4.9,M,47.0,M,0000,0000*6A
$GPGSA,A,3,15,05,24,21,30,13,28,,,,,,2.13,1.19,1.76*04
$GPGSV,3,1,11,13,86,313,34,28,51,097,35,15,49,290,39,30,37,066,34*7F
$GPGSV,3,2,11,05,34,188,30,49,30,173,29,24,15,246,18,21,13,295,29*77
$GPGSV,3,3,11,20,10,324,17,08,08,023,,07,06,065,*4A
$GPRMC,123606.000,A,5212.0864,N,00005.9601,E,0.01,340.09,270119,,,D*6D
$GPVTG,340.09,T,,M,0.01,N,0.01,K,D*36

$GPGGA,123606.200,5212.0864,N,00005.9601,E,2,07,1.19,4.9,M,47.0,M,0000,0000*68
$GPGSA,A,3,15,05,24,21,30,13,28,,,,,,2.12,1.19,1.76*05
$GPRMC,123606.200,A,5212.0864,N,00005.9601,E,0.00,338.73,270119,,,D*6C
$GPVTG,338.73,T,,M,0.00,N,0.01,K,D*35

$GPGGA,123606.400,5212.0864,N,00005.9601,E,2,07,1.19,4.9,M,47.0,M,0000,0000*6E
$GPGSA,A,3,15,05,24,21,30,13
,28,,,,,,2.12,1.19,1.76*05
$GPRMC,123606.400,A,5212.0864,N,00005.9601,E,0.00,279.13,270119,,,D*68
$GPVTG,279.13,T,,M,0.00,N,0.01,K,D*37

$GPGGA,123606.600,5212.0864,N,00005.9601,E,2,07,1.19,4.9,M,47.0,M,0000,0000*6C
$GPGSA,A,3,15,05,24,21,30,13,28,,,,,,2.13,1.19,1.76*04
$GPRMC,123606.600,A,5212.0864,N,00005.9601,E,0.00,208.86,270119,,,D*60
$GPVTG,208.86,T,,M,0.00,N,0.01,K,D*3D

$GPGGA,123606.800,5212.0864,N,00005.9601,E,2,07,1.19,4.9,M,47.0,M,0000,0000*62
$GPGSA,A,3,15,05,24,21,30,13,28,,,,,,2.13,1.19,1.76*04
$GPRMC,123606.800,A,5212.0864,N,00005.9601,E,0.01,188.47,270119,,,D*69
$GPVTG,188.47,T,,M,0.01,N,0.01,K,D*3A
$PMTKLOG,0,1,a,31,15,0,0,1,0,0*11
$PMTK001,183,3*3A
$PMTK869,2,0*37

$GPGGA,123607.000,5212.0864,N,00005.9601,E,2,07,1.19,4.9,M,47.0,M,0000,0000*6B
$GPGSA,A,3,15,05,24,21,30,13,28,,,,,,2.12,1.19,1.76*05
$GPGSV,3,1,11,13,86,313,34,28,51,097,35,15,49,290,39,30,37,066,34*7F
$GPGSV,3,2,11,05,34,188,30,49,30,173,29,24,15,246,18,21,13,295,30*7F
$GPGSV,3,3,11,20,10,324,17,08,08,023,,07,06,065,
*4A
$GPRMC,123607.000,A,5212.0864,N,00005.9601,E,0.00,19.26,270119,,,D*5F
$GPVTG,19.26,T,,M,0.00,N,0.00,K,D*04

$GPGGA,123607.200,5212.0864,N,00005.9601,E,2,07,1.19,4.9,M,47.0,M,0000,0000*69
$GPGSA,A,3,15,05,24,21,30,13,28,,,,,,2.12,1.19,1.76*05
$GPRMC,123607.200,A,5212.0864,N,00005.9601,E,0.00,38.39,270119,,,D*50
$GPVTG,38.39,T,,M,0.00,N,0.01,K,D*08

$GPGGA,123607.400,5212.0864,N,00005.9601,E,2,07,1.19,4.9,M,47.0,M,0000,0000*6F
$GPGSA,A,3,15,05,24,21,30,13,28,,,,,,2.12,1.19,1.76*05
$GPRMC,123607.400,A,5212.0864,N,00005.9601,E,0.01,23.19,270119,,,D*5F
$GPVTG,23.19,T,,M,0.01,N,0.01,K,D*01

$GPGGA,123607.600,5212.0864,N,00005.9601,E,2,07,1.20,4.9,M,47.0,M,0000,0000*67
$GPGSA,A,3,15,05,24,21,30,13,28,,,,,,2.13,1.20,1.76*0E
$GPRMC,123607.600,A,5212.0864,N,00005.9601,E,0.01,357.49,270119,,,D*68
$GPVTG,357.49,T,,M,0.01,N,0.02,K,D*37

$GPGGA,123607.800,5212.0865,N,00005.9601,E,2,07,1.19,4.9,M,47.0,M,0000,0000*62
$GPGSA,A,3,15,05,24,21,30,13,28,,,,,,2.12,1.19,1.76*05
$GPRMC,123607.800,A,5212.0865,N,00005.9601,E,0.01,338.20,270119,,,D*61
$GPVTG,338.20,T,,M,0.01,N,0.02,K,D*31
$PMTKLOG,0,1,a,31,15,0,0,1,0,0*11
$PMTK001,183,3*3A
$PMTK869,2,0*37

$GPGGA,123608.000,5212.0865,N,00005.9601,E,2,07,1.19,4.9,M,47.0,M,0000,0000*65
$GPGSA,A,3,15,05,24,21,30,13,28,,,,,,2.12,1.19,1.76*05
$GPGSV,3,1,11,13,86,313,34,28,51,097,35,15,49,290,39,30,37,066,34*7F
$GPGSV,3,2,11,05,34,188,30,49,30,173,29,24,15,246,17,21,13,295,30*70
$GPGSV,3,3,11,20,10,324,17,08,08,023,,07,06,065,*4A
$GPRMC,123608.000,A,5212.0865,N,00005.9601,E,0.01,312.98,27011
9,,,D*6D
$GPVTG,312.98,T,,M,0.01,N,0.01,K,D*39

$GPGGA,123608.200,5212.0865,N,00005.9601,E,2,07,1.19,4.9,M,47.0,M,0000,0000*67
$GPGSA,A,3,15,05,24,21,30,13,28,,,,,,2.12,1.19,1.76*05
$GPRMC,123608.200,A,5212.0865,N,00005.9601,E,0.01,211.90,270119,,,D*65
$GPVTG,211.90,T,,M,0.01,N,0.01,K,D*33

$GPGGA,123608.400,5212.0865,N,00005.9601,E,2,07,1.19,4.9,M,47.0,M,0000,0000*61
