$GPGGA,171451.000,5212.0874,N,00005.9628,E,2,10,0.79,4.6,M,47.0,M,0000,0000*69
$GPGGA,171451.200,5212.0874,N,00005.9628,E,2,10,0.79,4.6,M,47.0,M,0000,0000*6B
$GPGGA,171451.400,5212.0874,N,00005.9628,E,2,10,0.79,4.6,M,47.0,M,0000,0000*6D
$PMTKLOG,0,1,a,31,15,0,0,1,0,0*11
$PMTK001,183,3*3A
$PMTK869,2,0*37
$GPGGA,171451.600,5212.0874,N,00005.9628,E,2,10,0.79,4.6,M,47.0,M,0000,0000*6F
$GPGGA,171451.800,5212.0874,N,00005.9628,E,2,10,0.79,4.6,M,47.0,M,0000,0000*61

$GPGGA,171452.000,5212.0874,N,00005.9628,E,2,10,0.79,4.6,M,47.0,M,0000,0000*6A
$GPGGA,171452.200,5212.0874,N,00005.9628,E,2,10,0.79,4.6,M,47.0,M,0000,0000*68
$GPGGA,171452.400,5212.0874,N,00005.9628,E,2,10,0.79,4.6,M,47.0,M,0000,0000*6E
$PMTKLOG,0,1,a,31,15,0,0,1,0,0*11
$PMTK001,183,3*3A
$PMTK869,2,0*37
$GPGGA,171452.600,5212.0874,N,00005.9628,E,2,10,0.79,4.6,M,47.0,M,0000,0000*6C
$GPGGA,171452.800,5212.0874,N,00005.9628,E,2,10,0.79,4.6,M,47.0,M,0000,0000*62

$GPGGA,171453.000,5212.0874,N,00005.9628,E,2,10,0.79,4.6,M,47.0,M,0000,0000*6B
$GPGGA,171453.200,5212.0874,N,00005.9628,E,2,10,0.79,4.6,M,47.0,M,0000,0000*69
$GPGGA,171453.400,5212.0874,N,00005.9628,E,2,10,0.79,4.6,M,47.0,M,0000,0000*6F
$PMTKLOG,0,1,a,31,15,0,0,1,0,0*11
$PMTK001,183,3*3A
$PMTK869,2,0*37
$GPGGA,171453.600,5212.0874,N,00005.9628,E,2,10,0.79,4.6,M,47.0,M,0000,0000*6D
$GPGGA,171453.800,5212.0874,N,00005.9628,E,2,10,0.79,4.6,M,47.0,M,0000,0000*63

$GPGGA,171454.000,5212.0874,N,00005.9628,E,2,10,0.79,4.6,M,47.0,M,0000,0000*6C
$GPGGA,171454.200,5212.0874,N,00005.9628,E,2,10,0.79,4.6,M,47.0,M,0000,0000*6E
$GPGGA,171454.400,5212.0874,N,00005.9628,E,2,10,0.79,4.6,M,47.0,M,0000,0000*68
$PMTKLOG,0,1,a,31,15,0,0,1,0,0*11
$PMTK001,183,3*3A
$PMTK869,2,0*37
$GPGGA,171454.600,5212.0874,N,00005.9628,E,2,10,0.79,4.6,M,47.0,M,0000,0000*6A
$GPGGA,171454.800,5212.0874,N,00005.9628,E,2,10,0.79,4.6,M,47.0,M,0000,0000*64

$GPGGA,171455.000,5212.0874,N,00005.9628,E,2,10,0.79,4.6,M,47.0,M,0000,0000*6D
$GPGGA,171455.200,5212.0874,N,00005.9628,E,2,10,0.79,4.6,M,47.0,M,0000,0000*6F
$GPGGA,171455.400,5212.0874,N,00005.9628,E,2,10,0.79,4.6,M,47.0,M,0000,0000*69
$PMTKLOG,0,1,a,31,15,0,0,1,0,0*11
$PMTK001,183,3*3A
$PMTK869,2,0*37
$GPGGA,171455.600,5212.0874,N,00005.9628,E,2,10,0.79,4.6,M,47.0,M,0000,0000*6B
$GPGGA,171455.800,5212.0874,N,00005.9628,E,2,10,0.79,4.6,M,47.0,M,0000,0000*65

$GPGGA,171456.000,5212.0874,N,00005.9628,E,2,10,0.79,4.6,M,47.0,M,0000,0000*6E
$GPGGA,171456.200,5212.0874,N,00005.9628,E,2,10,0.79,4.6,M,47.0,M,0000,0000*6C
$GPGGA,171456.400,5212.0874,N,00005.9628,E,2,10,0.79,4.6,M,47.0,M,0000,0000*6A
$PMTKLOG,0,1,a,31,15,0,0,1,0,0*11
$PMTK001,183,3*3A
$PMTK869,2,0*37
$GPGGA,171456.600,5212.0874,N,00005.9628,E,2,10,0.79,4.6,M,47.0,M,0000,0000*68
$GPGGA,171456.800,5212.0874,N,00005.9628,E,2,10,0.79,4.6,M,47.0,M,0000,0000*66

$GPGGA,171457.000,5212.0874,N,00005.9628,E,2,10,0.79,4.6,M,47.0,M,0000,0000*6F
$GPGGA,171457.200,5212.0874,N,00005.9628,E,2,10,0.79,4.6,M,47.0,M,0000,0000*6D
$GPGGA,171457.400,5212.0874,N,00005.9628,E,2,10,0.79,4.6,M,47.0,M,0000,0000*6B
$PMTKLOG,0,1,a,31,15,0,0,1,0,0*11
$PMTK001,183,3*3A
$PMTK869,2,0*37
$GPGGA,171457.600,5212.0874,N,00005.9628,E,2,10,0.79,4.6,M,47.0,M,0000,0000*69
$GPGGA,171457.800,5212.0874,N,00005.9628,E,2,10,0.79,4.6,M,47.0,M,0000,0000*67

$GPGGA,171458.000,5212.0874,N,00005.9628,E,2,10,0.79,4.6,M,47.0,M,0000,0000*60
$GPGGA,171458.200,5212.0874,N,00005.9628,E,2,10,0.79,4.6,M,47.0,M,0000,0000*62
$GPGGA,171458.400,5212.0874,N,00005.9628,E,2,10,0.79,4.6,M,47.0,M,0000,0000*64
$PMTKLOG,0,1,a,31,15,0,0,1,0,0*11
$PMTK001,183,3*3A
$PMTK869,2,0*37
$GPGGA,171458.600,5212.0874,N,00005.9628,E,2,10,0.79,4.6,M,47.0,M,0000,0000*66
$GPGGA,171458.800,5212.0874,N,00005.9628,E,2,10,0.79,4.6,M,47.0,M,0000,0000*68

$GPGGA,171459.000,5212.0874,N,00005.9628,E,2,10,0.79,4.6,M,47.0,M,0000,0000*61
$GPGGA,171459.200,5212.0874,N,00005.9628,E,2,10,0.79,4.6,M,47.0,M,0000,0000*63
$GPGGA,171459.400,5212.0874,N,00005.9628,E,2,10,0.79,4.6,M,47.0,M,0000,0000*65
$PMTKLOG,0,1,a,31,15,0,0,1,0,0*11
$PMTK001,183,3*3A
$PMTK869,2,0*37
$GPGGA,171459.600,5212.0874,N,00005.9628,E,2,10,0.79,4.6,M,47.0,M,0000,0000*67
$GPGGA,171459.800,5212.0874,N,00005.9628,E,2,10,0.79,4.6,M,47.0,M,0000,0000*69

$GPGGA,171500.000,5212.0874,N,00005.9628,E,2,10,0.79,4.6,M,47.0,M,0000,0000*6C
$GPGGA,171500.200,5212.0874,N,00005.9628,E,2,10,0.79,4.6,M,47.0,M,0000,0000*6E
$GPGGA,171500.400,5212.0874,N,00005.9628,E,2,10,0.79,4.6,M,47.0,M,0000,0000*68
$PMTKLOG,0,1,a,31,15,0,0,1,0,0*11
$PMTK001,183,3*3A
$PMTK869,2,0*37
$GPGGA,171500.600,5212.0874,N,00005.9628,E,2,10,0.79,4.6,M,47.0,M,0000,0000*6A
$GPGGA,171500.800,5212.0874,N,00005.9628,E,2,10,0.79,4.6,M,47.0,M,0000,0000*64

$GPGGA,171501.000,5212.0874,N,00005.9628,E,2,10,0.79,4.6,M,47.0,M,0000,0000*6D
$GPGGA,171501.200,5212.0874,N,00005.9628,E,2,10,0.79,4.6,M,47.0,M,0000,0000*6F
$GPGGA,171501.400,5212.0874,N,00005.9628,E,2,10,0.79,4.6,M,47.0,M,0000,0000*69
$PMTKLOG,0,1,a,31,15,0,0,1,0,0*11
$PMTK001,183,3*3A
$PMTK869,2,0*37
$GPGGA,171501.600,5212.0874,N,00005.9628,E,2,10,0.79,4.6,M,47.0,M,0000,0000*6B
$GPGGA,171501.800,5212.0874,N,00005.9628,E,2,10,0.79,4.6,M,47.0,M,0000,0000*65

$GPGGA,171502.000,5212.0874,N,00005.9628,E,2,10,0.79,4.6,M,47.0,M,0000,0000*6E
$GPGGA,171502.200,5212.0874,N,00005.9628,E,2,10,0.79,4.6,M,47.0,M,0000,0000*6C
$GPGGA,171502.400,5212.0874,N,00005.9628,E,2,10,0.79,4.6,M,47.0,M,0000,0000*6A
$PMTKLOG,0,1,a,31,15,0,0,1,0,0*11
$PMTK001,183,3*3A
$PMTK869,2,0*37
$GPGGA,171502.600,5212.0874,N,00005.9628,E,2,10,0.79,4.6,M,47.0,M,0000,0000*68
$GPGGA,171502.800,5212.0874,N,00005.9628,E,2,10,0.79,4.6,M,47.0,M,0000,0000*66

$GPGGA,171503.000,5212.0874,N,00005.9628,E,2,10,0.79,4.6,M,47.0,M,0000,0000*6F
$GPGGA,171503.200,5212.0874,N,00005.9628,E,2,10,0.79,4.6,M,47.0,M,0000,0000*6D
$GPGGA,171503.400,5212.0874,N,00005.9628,E,2,10,0.79,4.6,M,47.0,M,0000,0000*6B
$PMTKLOG,0,1,a,31,15,0,0,1,0,0*11
$PMTK001,183,3*3A
$PMTK869,2,0*37
$GPGGA,171503.600,5212.0874,N,00005.9628,E,2,10,0.79,4.6,M,47.0,M,0000,0000*69
$GPGGA,171503.800,5212.0874,N,00005.9628,E,2,10,0.79,4.6,M,47.0,M,0000,0000*67

$GPGGA,171504.000,5212.0874,N,00005.9628,E,2,10,0.79,4.6,M,47.0,M,0000,0000*68
$GPGGA,171504.200,5212.0874,N,00005.9628,E,2,10,0.79,4.6,M,47.0,M,0000,0000*6A
$GPGGA,171504.400,5212.0874,N,00005.9628,E,2,10,0.79,4.6,M,47.0,M,0000,0000*6C
$PMTKLOG,0,1,a,31,15,0,0,1,0,0*11
$PMTK001,183,3*3A
$PMTK869,2,0*37
$GPGGA,171504.600,5212.0874,N,00005.9628,E,2,10,0.79,4.6,M,47.0,M,0000,0000*6E
$GPGGA,171504.800,5212.0874,N,00005.9628,E,2,10,0.79,4.6,M,47.0,M,0000,0000*60

$GPGGA,171505.000,5212.0874,N,00005.9628,E,2,10,0.79,4.6,M,47.0,M,0000,0000*69
$GPGGA,171505.200,5212.0874,N,00005.9628,E,2,10,0.79,4.6,M,47.0,M,0000,0000*6B
$GPGGA,171505.400,5212.0874,N,00005.9628,E,2,10,0.79,4.6,M,47.0,M,0000,0000*6D
$PMTKLOG,0,1,a,31,15,0,0,1,0,0*11
$PMTK001,183,3*3A
$PMTK869,2,0*37
$GPGGA,171505.600,5212.0874,N,00005.9628,E,2,10,0.79,4.6,M,47.0,M,0000,0000*6F
$GPGGA,171505.800,5212.0874,N,00005.9628,E,2,10,0.79,4.6,M,47.0,M,0000,0000*61

$GPGGA,171506.000,5212.0874,N,00005.9628,E,2,10,0.79,4.6,M,47.0,M,0000,0000*6A
$GPGGA,171506.200,5212.0874,N,00005.9628,E,2,10,0.79,4.6,M,47.0,M,0000,0000*68
$GPGGA,171506.400,5212.0874,N,00005.9628,E,2,10,0.79,4.6,M,47.0,M,0000,0000*6E
$PMTKLOG,0,1,a,31,15,0,0,1,0,0*11
$PMTK001,183,3*3A
$PMTK869,2,0*37
$GPGGA,171506.600,5212.0874,N,00005.9628,E,2,10,0.79,4.6,M,47.0,M,0000,0000*6C
$GPGGA,171506.800,5212.0874,N,00005.9628,E,2,10,0.79,4.6,M,47.0,M,0000,0000*62

$GPGGA,171507.000,5212.0874,N,00005.9628,E,2,10,0.79,4.6,M,47.0,M,0000,0000*6B
$GPGGA,171507.200,5212.0874,N,00005.9628,E,2,10,0.79,4.6,M,47.0,M,0000,0000*69
$GPGGA,171507.400,5212.0874,N,00005.9628,E,2,10,0.79,4.6,M,47.0,M,0000,0000*6F
$PMTKLOG,0,1,a,31,15,0,0,1,0,0*11
$PMTK001,183,3*3A
$PMTK869,2,0*37
$GPGGA,171507.600,5212.0874,N,00005.9628,E,2,10,0.79,4.6,M,47.0,M,0000,0000*6D
$GPGGA,171507.800,5212.0874,N,00005.9628,E,2,10,0.79,4.6,M,47.0,M,0000,0000*63

$GPGGA,171508.000,5212.0874,N,00005.9628,E,2,10,0.79,4.6,M,47.0,M,0000,0000*64
$GPGGA,171508.200,5212.0874,N,00005.9628,E,2,10,0.79,4.6,M,47.0,M,0000,0000*66
$GPGGA,171508.400,5212.0874,N,00005.9628,E,2,10,0.79,4.6,M,47.0,M,0000,0000*60
$PMTKLOG,0,1,a,31,15,0,0,1,0,0*11
$PMTK001,183,3*3A
$PMTK869,2,0*37
$GPGGA,171508.600,5212.0874,N,00005.9628,E,2,10,0.79,4.6,M,47.0,M,0000,0000*62
$GPGGA,171508.800,5212.0874,N,00005.9628,E,2,10,0.79,4.6,M,47.0,M,0000,0000*6C

$GPGGA,171509.000,5212.0874,N,00005.9628,E,2,10,0.79,4.6,M,47.0,M,0000,0000*65
$GPGGA,171509.200,5212.0874,N,00005.9628,E,2,10,0.79,4.6,M,47.0,M,0000,0000*67
$GPGGA,171509.400,5212.0874,N,00005.9628,E,2,10,0.79,4.6,M,47.0,M,0000,0000*61
$PMTKLOG,0,1,a,31,15,0,0,1,0,0*11
$PMTK001,183,3*3A
$PMTK869,2,0*37
$GPGGA,171509.600,5212.0874,N,00005.9628,E,2,10,0.79,4.6,M,47.0,M,0000,0000*63
$GPGGA,171509.800,5212.0874,N,00005.9628,E,2,10,0.79,4.6,M,47.0,M,0000,0000*6D

$GPGGA,171510.000,5212.0874,N,00005.9628,E,2,10,0.79,4.6,M,47.0,M,0000,0000*6D
$GPGGA,171510.200,5212.0874,N,00005.9628,E,2,10,0.79,4.6,M,47.0,M,0000,0000*6F
$GPGGA,171510.400,5212.0874,N,00005.9628,E,2,10,0.79,4.6,M,47.0,M,0000,0000*69
$PMTKLOG,0,1,a,31,15,0,0,1,0,0*11
$PMTK001,183,3*3A
$PMTK869,2,0*37
$GPGGA,171510.600,5212.0874,N,00005.9628,E,2,10,0.79,4.6,M,47.0,M,0000,0000*6B
$GPGGA,171510.800,5212.0874,N,00005.9628,E,2,10,0.79,4.6,M,47.0,M,0000,0000*65

$GPGGA,171511.000,5212.0874,N,00005.9628,E,2,10,0.79,4.6,M,47.0,M,0000,0000*6C
$GPGGA,171511.200,5212.0874,N,00005.9628,E,2,10,0.79,4.6,M,47.0,M,0000,0000*6E
$GPGGA,171511.400,5212.0874,N,00005.9628,E,2,10,0.79,4.6,M,47.0,M,0000,0000*68
$PMTKLOG,0,1,a,31,15,0,0,1,0,0*11
$PMTK001,183,3*3A
$PMTK869,2,0*37
$GPGGA,171511.600,5212.0874,N,00005.9628,E,2,10,0.79,4.6,M,47.0,M,0000,0000*6A
$GPGGA,171511.800,5212.0874,N,00005.9628,E,2,10,0.79,4.6,M,47.0,M,0000,0000*64

$GPGGA,171512.000,5212.0874,N,00005.9628,E,2,10,0.79,4.6,M,47.0,M,0000,0000*6F
$GPGGA,171512.200,5212.0874,N,00005.9628,E,2,10,0.79,4.6,M,47.0,M,0000,0000*6D
$GPGGA,171512.400,5212.0874,N,00005.9628,E,2,10,0.79,4.6,M,47.0,M,0000,0000*6B
$PMTKLOG,0,1,a,31,15,0,0,1,0,0*11
$PMTK001,183,3*3A
$PMTK869,2,0*37
$GPGGA,171512.600,5212.0874,N,00005.9628,E,2,10,0.79,4.6,M,47.0,M,0000,0000*69
$GPGGA,171512.800,5212.0874,N,00005.9628,E,2,10,0.79,4.6,M,47.0,M,0000,0000*67

$GPGGA,171513.000,5212.0874,N,00005.9628,E,2,10,0.79,4.6,M,47.0,M,0000,0000*6E
$GPGGA,171513.200,5212.0874,N,00005.9628,E,2,10,0.79,4.6,M,47.0,M,0000,0000*6C
$GPGGA,171513.400,5212.0874,N,00005.9628,E,2,10,0.79,4.6,M,47.0,M,0000,0000*6A
$PMTKLOG,0,1,a,31,15,0,0,1,0,0*11
$PMTK001,183,3*3A
$PMTK869,2,0*37
$GPGGA,171513.600,5212.0874,N,00005.9628,E,2,10,0.79,4.6,M,47.0,M,0000,0000*68
$GPGGA,171513.800,5212.0874,N,00005.9628,E,2,10,0.79,4.6,M,47.0,M,0000,0000*66

$GPGGA,171514.000,5212.0874,N,00005.9628,E,2,10,0.79,4.6,M,47.0,M,0000,0000*69
$GPGGA,171514.200,5212.0874,N,00005.9628,E,2,10,0.79,4.6,M,47.0,M,0000,0000*6B
$GPGGA,171514.400,5212.0874,N,00005.9628,E,2,10,0.79,4.6,M,47.0,M,0000,0000*6D
$PMTKLOG,0,1,a,31,15,0,0,1,0,0*11
$PMTK001,183,3*3A
$PMTK869,2,0*37
$GPGGA,171514.600,5212.0874,N,00005.9628,E,2,10,0.79,4.6,M,47.0,M,0000,0000*6F
$GPGGA,171514.800,5212.0874,N,00005.9628,E,2,10,0.79,4.6,M,47.0,M,0000,0000*61

$GPGGA,171515.000,5212.0874,N,00005.9628,E,2,10,0.79,4.6,M,47.0,M,0000,0000*68
$GPGGA,171515.200,5212.0874,N,00005.9628,E,2,10,0.79,4.6,M,47.0,M,0000,0000*6A
$GPGGA,171515.400,5212.0874,N,00005.9628,E,2,10,0.79,4.6,M,47.0,M,0000,0000*6C
$PMTKLOG,0,1,a,31,15,0,0,1,0,0*11
$PMTK001,183,3*3A
$PMTK869,2,0*37
$GPGGA,171515.600,5212.0874,N,00005.9628,E,2,10,0.79,4.6,M,47.0,M,0000,0000*6E
$GPGGA,171515.800,5212.0874,N,00005.9628,E,2,10,0.79,4.6,M,47.0,M,0000,0000*60

$GPGGA,171516.000,5212.0874,N,00005.9628,E,2,10,0.79,4.6,M,47.0,M,0000,0000*6B
$GPGGA,171516.200,5212.0874,N,00005.9628,E,2,10,0.79,4.6,M,47.0,M,0000,0000*69
$GPGGA,171516.400,5212.0874,N,00005.9628,E,2,10,0.79,4.6,M,47.0,M,0000,0000*6F
$PMTKLOG,0,1,a,31,15,0,0,1,0,0*11
$PMTK001,183,3*3A
$PMTK869,2,0*37
$GPGGA,171516.600,5212.0874,N,00005.9628,E,2,10,0.79,4.6,M,47.0,M,0000,0000*6D
$GPGGA,171516.800,5212.0874,N,00005.9628,E,2,10,0.79,4.6,M,47.0,M,0000,0000*63

$GPGGA,171517.000,5212.0874,N,00005.9628,E,2,10,0.79,4.6,M,47.0,M,0000,0000*6A
$GPGGA,171517.200,5212.0874,N,00005.9628,E,2,10,0.79,4.6,M,47.0,M,0000,0000*68
$GPGGA,171517.400,5212.0874,N,00005.9628,E,2,10,0.79,4.6,M,47.0,M,0000,0000*6E
$PMTKLOG,0,1,a,31,15,0,0,1,0,0*11
$PMTK001,183,3*3A
$PMTK869,2,0*37
$GPGGA,171517.600,5212.0874,N,00005.9628,E,2,10,0.79,4.6,M,47.0,M,0000,0000*6C
$GPGGA,171517.800,5212.0874,N,00005.9628,E,2,10,0.79,4.6,M,47.0,M,0000,0000*62

$GPGGA,171518.000,5212.0874,N,00005.9628,E,2,10,0.79,4.6,M,47.0,M,0000,0000*65
$GPGGA,171518.200,5212.0874,N,00005.9628,E,2,10,0.79,4.6,M,47.0,M,0000,0000*67
$GPGGA,171518.400,5212.0874,N,00005.9628,E,2,10,0.79,4.6,M,47.0,M,0000,0000*61
$PMTKLOG,0,1,a,31,15,0,0,1,0,0*11
$PMTK001,183,3*3A
$PMTK869,2,0*37
$GPGGA,171518.600,5212.0874,N,00005.9628,E,2,10,0.79,4.6,M,47.0,M,0000,0000*63
$GPGGA,171518.800,5212.0874,N,00005.9628,E,2,10,0.79,4.6,M,47.0,M,0000,0000*6D

$GPGGA,171519.000,5212.0874,N,00005.9628,E,2,10,0.79,4.6,M,47.0,M,0000,0000*64
$GPGGA,171519.200,5212.0874,N,00005.9628,E,2,10,0.79,4.6,M,47.0,M,0000,0000*66
$GPGGA,171519.400,5212.0874,N,00005.9628,E,2,10,0.79,4.6,M,47.0,M,0000,0000*60
$PMTKLOG,0,1,a,31,15,0,0,1,0,0*11
$PMTK001,183,3*3A
$PMTK869,2,0*37
$GPGGA,171519.600,5212.0874,N,00005.9628,E,2,10,0.79,4.6,M,47.0,M,0000,0000*62
$GPGGA,171519.800,5212.0874,N,00005.9628,E,2,10,0.79,4.6,M,47.0,M,0000,0000*6C

$GPGGA,171520.000,5212.0874,N,00005.9628,E,2,10,0.79,4.6,M,47.0,M,0000,0000*6E
$GPGGA,171520.200,5212.0874,N,00005.9628,E,2,10,0.79,4.6,M,47.0,M,0000,0000*6C
$GPGGA,171520.400,5212.0874,N,00005.9628,E,2,10,0.79,4.6,M,47.0,M,0000,0000*6A
$PMTKLOG,0,1,a,31,15,0,0,1,0,0*11
$PMTK001,183,3*3A
$PMTK869,2,0*37
$GPGGA,171520.600,5212.0874,N,00005.9628,E,2,10,0.79,4.6,M,47.0,M,0000,0000*68
$GPGGA,171520.800,5212.0874,N,00005.9628,E,2,10,0.79,4.6,M,47.0,M,0000,0000*66

$GPGGA,171521.000,5212.0874,N,00005.9628,E,2,10,0.79,4.6,M,47.0,M,0000,0000*6F
$GPGGA,171521.200,5212.0874,N,00005.9628,E,2,10,0.79,4.6,M,47.0,M,0000,0000*6D
$GPGGA,171521.400,5212.0874,N,00005.9628,E,2,10,0.79,4.6,M,47.0,M,0000,0000*6B
$PMTKLOG,0,1,a,31,15,0,0,1,0,0*11
$PMTK001,183,3*3A
$PMTK869,2,0*37
$GPGGA,171521.600,5212.0874,N,00005.9628,E,2,10,0.79,4.6,M,47.0,M,0000,0000*69
$GPGGA,171521.800,5212.0874,N,00005.9628,E,2,10,0.79,4.6,M,47.0,M,0000,0000*67

$GPGGA,171522.000,5212.0874,N,00005.9628,E,2,10,0.79,4.6,M,47.0,M,0000,0000*6C
$GPGGA,171522.200,5212.0874,N,00005.9628,E,2,10,0.79,4.6,M,47.0,M,0000,0000*6E
$GPGGA,171522.400,5212.0874,N,00005.9628,E,2,10,0.79,4.6,M,47.0,M,0000,0000*68
$PMTKLOG,0,1,a,31,15,0,0,1,0,0*11
$PMTK001,183,3*3A
$PMTK869,2,0*37
$GPGGA,171522.600,5212.0874,N,00005.9628,E,2,10,0.79,4.6,M,47.0,M,0000,0000*6A
$GPGGA,171522.800,5212.0874,N,00005.9628,E,2,10,0.79,4.6,M,47.0,M,0000,0000*64

$GPGGA,171523.000,5212.0874,N,00005.9628,E,2,10,0.79,4.6,M,47.0,M,0000,0000*6D
$GPGGA,171523.200,5212.0874,N,00005.9628,E,2,10,0.79,4.6,M,47.0,M,0000,0000*6F
$GPGGA,171523.400,5212.0874,N,00005.9628,E,2,10,0.79,4.6,M,47.0,M,0000,0000*69
$PMTKLOG,0,1,a,31,15,0,0,1,0,0*11
$PMTK001,183,3*3A
$PMTK869,2,0*37
$GPGGA,171523.600,5212.0874,N,00005.9628,E,2,10,0.79,4.6,M,47.0,M,0000,0000*6B
$GPGGA,171523.800,5212.0874,N,00005.9628,E,2,10,0.79,4.6,M,47.0,M,0000,0000*65

$GPGGA,171524.000,5212.0874,N,00005.9628,E,2,10,0.79,4.6,M,47.0,M,0000,0000*6A
$GPGGA,171524.200,5212.0874,N,00005.9628,E,2,10,0.79,4.6,M,47.0,M,0000,0000*68
$GPGGA,171524.400,5212.0874,N,00005.9628,E,2,10,0.79,4.6,M,47.0,M,0000,0000*6E
$PMTKLOG,0,1,a,31,15,0,0,1,0,0*11
$PMTK001,183,3*3A
$PMTK869,2,0*37
$GPGGA,171524.600,5212.0874,N,00005.9628,E,2,10,0.79,4.6,M,47.0,M,0000,0000*6C
$GPGGA,171524.800,5212.0874,N,00005.9628,E,2,10,0.79,4.6,M,47.0,M,0000,0000*62

$GPGGA,171525.000,5212.0874,N,00005.9628,E,2,10,0.79,4.6,M,47.0,M,0000,0000*6B
$GPGGA,171525.200,5212.0874,N,00005.9628,E,2,10,0.79,4.6,M,47.0,M,0000,0000*69
$GPGGA,171525.400,5212.0874,N,00005.9628,E,2,10,0.79,4.6,M,47.0,M,0000,0000*6F
$PMTKLOG,0,1,a,31,15,0,0,1,0,0*11
$PMTK001,183,3*3A
$PMTK869,2,0*37
$GPGGA,171525.600,5212.0874,N,00005.9628,E,2,10,0.79,4.6,M,47.0,M,0000,0000*6D
$GPGGA,171525.800,5212.0874,N,00005.9628,E,2,10,0.79,4.6,M,47.0,M,0000,0000*63

$GPGGA,171526.000,5212.0874,N,00005.9628,E,2,10,0.79,4.6,M,47.0,M,0000,0000*68
$GPGGA,171526.200,5212.0874,N,00005.9628,E,2,10,0.79,4.6,M,47.0,M,0000,0000*6A
$GPGGA,171526.400,5212.0874,N,00005.9628,E,2,10,0.79,4.6,M,47.0,M,0000,0000*6C
$PMTKLOG,0,1,a,31,15,0,0,1,0,0*11
$PMTK001,183,3*3A
$PMTK869,2,0*37
$GPGGA,171526.600,5212.0874,N,00005.9628,E,2,10,0.79,4.6,M,47.0,M,0000,0000*6E
$GPGGA,171526.800,5212.0874,N,00005.9628,E,2,10,0.79,4.6,M,47.0,M,0000,0000*60

$GPGGA,171527.000,5212.0874,N,00005.9628,E,2,10,0.79,4.6,M,47.0,M,0000,0000*69
$GPGGA,171527.200,5212.0874,N,00005.9628,E,2,10,0.79,4.6,M,47.0,M,0000,0000*6B
$GPGGA,171527.400,5212.0874,N,00005.9628,E,2,10,0.79,4.6,M,47.0,M,0000,0000*6D
$PMTKLOG,0,1,a,31,15,0,0,1,0,0*11
$PMTK001,183,3*3A
$PMTK869,2,0*37
$GPGGA,171527.600,5212.0874,N,00005.9628,E,2,10,0.79,4.6,M,47.0,M,0000,0000*6F
$GPGGA,171527.800,5212.0874,N,00005.9628,E,2,10,0.79,4.6,M,47.0,M,0000,0000*61

$GPGGA,171528.000,5212.0874,N,00005.9628,E,2,10,0.79,4.6,M,47.0,M,0000,0000*66
$GPGGA,171528.200,5212.0874,N,00005.9628,E,2,10,0.79,4.6,M,47.0,M,0000,0000*64
$GPGGA,171528.400,5212.0874,N,00005.9628,E,2,10,0.79,4.6,M,47.0,M,0000,0000*62
$PMTKLOG,0,1,a,31,15,0,0,1,0,0*11
$PMTK001,183,3*3A
$PMTK869,2,0*37
$GPGGA,171528.600,5212.0874,N,00005.9628,E,2,10,0.79,4.6,M,47.0,M,0000,0000*60
$GPGGA,171528.800,5212.0874,N,00005.9628,E,2,10,0.79,4.6,M,47.0,M,0000,0000*6E

$GPGGA,171529.000,5212.0874,N,00005.9628,E,2,10,0.79,4.6,M,47.0,M,0000,0000*67
$GPGGA,171529.200,5212.0874,N,00005.9628,E,2,10,0.79,4.6,M,47.0,M,0000,0000*65
$GPGGA,171529.400,5212.0874,N,00005.9628,E,2,10,0.79,4.6,M,47.0,M,0000,0000*63
$PMTKLOG,0,1,a,31,15,0,0,1,0,0*11
$PMTK001,183,3*3A
$PMTK869,2,0*37
$GPGGA,171529.600,5212.0874,N,00005.9628,E,2,10,0.79,4.6,M,47.0,M,0000,0000*61
$GPGGA,171529.800,5212.0874,N,00005.9628,E,2,10,0.79,4.6,M,47.0,M,0000,0000*6F

$GPGGA,171530.000,5212.0874,N,00005.9628,E,2,10,0.79,4.6,M,47.0,M,0000,0000*6F
$GPGGA,171530.200,5212.0874,N,00005.9628,E,2,10,0.79,4.6,M,47.0,M,0000,0000*6D
$GPGGA,171530.400,5212.0874,N,00005.9628,E,2,10,0.79,4.6,M,47.0,M,0000,0000*6B
$PMTKLOG,0,1,a,31,15,0,0,1,0,0*11
$PMTK001,183,3*3A
$PMTK869,2,0*37
$GPGGA,171530.600,5212.0874,N,00005.9628,E,2,10,0.79,4.6,M,47.0,M,0000,0000*69
$GPGGA,171530.800,5212.0874,N,00005.9628,E,2,10,0.79,4.6,M,47.0,M,0000,0000*67

$GPGGA,171531.000,5212.0874,N,00005.9628,E,2,10,0.79,4.6,M,47.0,M,0000,0000*6E
$GPGGA,171531.200,5212.0874,N,00005.9628,E,2,10,0.79,4.6,M,47.0,M,0000,0000*6C
$GPGGA,171531.400,5212.0874,N,00005.9628,E,2,10,0.79,4.6,M,47.0,M,0000,0000*6A
$PMTKLOG,0,1,a,31,15,0,0,1,0,0*11
$PMTK001,183,3*3A
$PMTK869,2,0*37
$GPGGA,171531.600,5212.0874,N,00005.9628,E,2,10,0.79,4.6,M,47.0,M,0000,0000*68
$GPGGA,171531.800,5212.0874,N,00005.9628,E,2,10,0.79,4.6,M,47.0,M,0000,0000*66

$GPGGA,171532.000,5212.0874,N,00005.9628,E,2,10,0.79,4.6,M,47.0,M,0000,0000*6D
$GPGGA,171532.200,5212.0874,N,00005.9628,E,2,10,0.79,4.6,M,47.0,M,0000,0000*6F
$GPGGA,171532.400,5212.0874,N,00005.9628,E,2,10,0.79,4.6,M,47.0,M,0000,0000*69
$PMTKLOG,0,1,a,31,15,0,0,1,0,0*11
$PMTK001,183,3*3A
$PMTK869,2,0*37
$GPGGA,171532.600,5212.0874,N,00005.9628,E,2,10,0.79,4.6,M,47.0,M,0000,0000*6B
$GPGGA,171532.800,5212.0874,N,00005.9628,E,2,10,0.79,4.6,M,47.0,M,0000,0000*65

$GPGGA,171533.000,5212.0874,N,00005.9628,E,2,10,0.79,4.6,M,47.0,M,0000,0000*6C
$GPGGA,171533.200,5212.0874,N,00005.9628,E,2,10,0.79,4.6,M,47.0,M,0000,0000*6E
$GPGGA,171533.400,5212.0874,N,00005.9628,E,2,10,0.79,4.6,M,47.0,M,0000,0000*68
$PMTKLOG,0,1,a,31,15,0,0,1,0,0*11
$PMTK001,183,3*3A
$PMTK869,2,0*37
$GPGGA,171533.600,5212.0874,N,00005.9628,E,2,10,0.79,4.6,M,47.0,M,0000,0000*6A
$GPGGA,171533.800,5212.0874,N,00005.9628,E,2,10,0.79,4.6,M,47.0,M,0000,0000*64

$GPGGA,171534.000,5212.0874,N,00005.9628,E,2,10,0.79,4.6,M,47.0,M,0000,0000*6B
$GPGGA,171534.200,5212.0874,N,00005.9628,E,2,10,0.79,4.6,M,47.0,M,0000,0000*69
$GPGGA,171534.400,5212.0874,N,00005.9628,E,2,10,0.79,4.6,M,47.0,M,0000,0000*6F
$PMTKLOG,0,1,a,31,15,0,0,1,0,0*11
$PMTK001,183,3*3A
$PMTK869,2,0*37
$GPGGA,171534.600,5212.0874,N,00005.9628,E,2,10,0.79,4.6,M,47.0,M,0000,0000*6D
$GPGGA,171534.800,5212.0874,N,00005.9628,E,2,10,0.79,4.6,M,47.0,M,0000,0000*63

$GPGGA,171535.000,5212.0874,N,00005.9628,E,2,10,0.79,4.6,M,47.0,M,0000,0000*6A
$GPGGA,171535.200,5212.0874,N,00005.9628,E,2,10,0.79,4.6,M,47.0,M,0000,0000*68
$GPGGA,171535.400,5212.0874,N,00005.9628,E,2,10,0.79,4.6,M,47.0,M,0000,0000*6E
$PMTKLOG,0,1,a,31,15,0,0,1,0,0*11
$PMTK001,183,3*3A
$PMTK869,2,0*37
$GPGGA,171535.600,5212.0874,N,00005.9628,E,2,10,0.79,4.6,M,47.0,M,0000,0000*6C
$GPGGA,171535.800,5212.0874,N,00005.9628,E,2,10,0.79,4.6,M,47.0,M,0000,0000*62

$GPGGA,171536.000,5212.0874,N,00005.9628,E,2,10,0.79,4.6,M,47.0,M,0000,0000*69
$GPGGA,171536.200,5212.0874,N,00005.9628,E,2,10,0.79,4.6,M,47.0,M,0000,0000*6B
$GPGGA,171536.400,5212.0874,N,00005.9628,E,2,10,0.79,4.6,M,47.0,M,0000,0000*6D
$PMTKLOG,0,1,a,31,15,0,0,1,0,0*11
$PMTK001,183,3*3A
$PMTK869,2,0*37
$GPGGA,171536.600,5212.0874,N,00005.9628,E,2,10,0.79,4.6,M,47.0,M,0000,0000*6F
$GPGGA,171536.800,5212.0874,N,00005.9628,E,2,10,0.79,4.6,M,47.0,M,0000,0000*61

$GPGGA,171537.000,5212.0874,N,00005.9628,E,2,10,0.79,4.6,M,47.0,M,0000,0000*68
$GPGGA,171537.200,5212.0874,N,00005.9628,E,2,10,0.79,4.6,M,47.0,M,0000,0000*6A
$GPGGA,171537.400,5212.0874,N,00005.9628,E,2,10,0.79,4.6,M,47.0,M,0000,0000*6C
$PMTKLOG,0,1,a,31,15,0,0,1,0,0*11
$PMTK001,183,3*3A
$PMTK869,2,0*37
$GPGGA,171537.600,5212.0874,N,00005.9628,E,2,10,0.79,4.6,M,47.0,M,0000,0000*6E
$GPGGA,171537.800,5212.0874,N,00005.9628,E,2,10,0.79,4.6,M,47.0,M,0000,0000*60

$GPGGA,171538.000,5212.0874,N,00005.9628,E,2,10,0.79,4.6,M,47.0,M,0000,0000*67
$GPGGA,171538.200,5212.0874,N,00005.9628,E,2,10,0.79,4.6,M,47.0,M,0000,0000*65
$GPGGA,171538.400,5212.0874,N,00005.9628,E,2,10,0.79,4.6,M,47.0,M,0000,0000*63
$PMTKLOG,0,1,a,31,15,0,0,1,0,0*11
$PMTK001,183,3*3A
$PMTK869,2,0*37
$GPGGA,171538.600,5212.0874,N,00005.9628,E,2,10,0.79,4.6,M,47.0,M,0000,0000*61
$GPGGA,171538.800,5212.0874,N,00005.9628,E,2,10,0.79,4.6,M,47.0,M,0000,0000*6F

$GPGGA,171539.000,5212.0874,N,00005.9628,E,2,10,0.79,4.6,M,47.0,M,0000,0000*66
$GPGGA,171539.200,5212.0874,N,00005.9628,E,2,10,0.79,4.6,M,47.0,M,0000,0000*64
$GPGGA,171539.400,5212.0874,N,00005.9628,E,2,10,0.79,4.6,M,47.0,M,0000,0000*62
$PMTKLOG,0,1,a,31,15,0,0,1,0,0*11
$PMTK001,183,3*3A
$PMTK869,2,0*37
$GPGGA,171539.600,5212.0874,N,00005.9628,E,2,10,0.79,4.6,M,47.0,M,0000,0000*60
$GPGGA,171539.800,5212.0874,N,00005.9628,E,2,10,0.79,4.6,M,47.0,M,0000,0000*6E

$GPGGA,171540.000,5212.0874,N,00005.9628,E,2,10,0.79,4.6,M,47.0,M,0000,0000*68
$GPGGA,171540.200,5212.0874,N,00005.9628,E,2,10,0.79,4.6,M,47.0,M,0000,0000*6A
$GPGGA,171540.400,5212.0874,N,00005.9628,E,2,10,0.79,4.6,M,47.0,M,0000,0000*6C
$PMTKLOG,0,1,a,31,15,0,0,1,0,0*11
$PMTK001,183,3*3A
$PMTK869,2,0*37
$GPGGA,171540.600,5212.0874,N,00005.9628,E,2,10,0.79,4.6,M,47.0,M,0000,0000*6E
$GPGGA,171540.800,5212.0874,N,00005.9628,E,2,10,0.79,4.6,M,47.0,M,0000,0000*60

$GPGGA,171541.000,5212.0874,N,00005.9628,E,2,10,0.79,4.6,M,47.0,M,0000,0000*69
$GPGGA,171541.200,5212.0874,N,00005.9628,E,2,10,0.79,4.6,M,47.0,M,0000,0000*6B
$GPGGA,171541.400,5212.0874,N,00005.9628,E,2,10,0.79,4.6,M,47.0,M,0000,0000*6D
$PMTKLOG,0,1,a,31,15,0,0,1,0,0*11
$PMTK001,183,3*3A
$PMTK869,2,0*37
$GPGGA,171541.600,5212.0874,N,00005.9628,E,2,10,0.79,4.6,M,47.0,M,0000,0000*6F
$GPGGA,171541.800,5212.0874,N,00005.9628,E,2,10,0.79,4.6,M,47.0,M,0000,0000*61

$GPGGA,171542.000,5212.0874,N,00005.9628,E,2,10,0.79,4.6,M,47.0,M,0000,0000*6A
$GPGGA,171542.200,5212.0874,N,00005.9628,E,2,10,0.79,4.6,M,47.0,M,0000,0000*68
$GPGGA,171542.400,5212.0874,N,00005.9628,E,2,10,0.79,4.6,M,47.0,M,0000,0000*6E
$PMTKLOG,0,1,a,31,15,0,0,1,0,0*11
$PMTK001,183,3*3A
$PMTK869,2,0*37
$GPGGA,171542.600,5212.0874,N,00005.9628,E,2,10,0.79,4.6,M,47.0,M,0000,0000*6C
$GPGGA,171542.800,5212.0874,N,00005.9628,E,2,10,0.79,4.6,M,47.0,M,0000,0000*62

$GPGGA,171543.000,5212.0874,N,00005.9628,E,2,10,0.79,4.6,M,47.0,M,0000,0000*6B
$GPGGA,171543.200,5212.0874,N,00005.9628,E,2,10,0.79,4.6,M,47.0,M,0000,0000*69
$GPGGA,171543.400,5212.0874,N,00005.9628,E,2,10,0.79,4.6,M,47.0,M,0000,0000*6F
$PMTKLOG,0,1,a,31,15,0,0,1,0,0*11
$PMTK001,183,3*3A
$PMTK869,2,0*37
$GPGGA,171543.600,5212.0874,N,00005.9628,E,2,10,0.79,4.6,M,47.0,M,0000,0000*6D
$GPGGA,171543.800,5212.0874,N,00005.9628,E,2,10,0.79,4.6,M,47.0,M,0000,0000*63

$GPGGA,171544.000,5212.0874,N,00005.9628,E,2,10,0.79,4.6,M,47.0,M,0000,0000*6C
$GPGGA,171544.200,5212.0874,N,00005.9628,E,2,10,0.79,4.6,M,47.0,M,0000,0000*6E
$GPGGA,171544.400,5212.0874,N,00005.9628,E,2,10,0.79,4.6,M,47.0,M,0000,0000*68
$PMTKLOG,0,1,a,31,15,0,0,1,0,0*11
$PMTK001,183,3*3A
$PMTK869,2,0*37
$GPGGA,171544.600,5212.0874,N,00005.9628,E,2,10,0.79,4.6,M,47.0,M,0000,0000*6A
$GPGGA,171544.800,5212.0874,N,00005.9628,E,2,10,0.79,4.6,M,47.0,M,0000,0000*64

$GPGGA,171545.000,5212.0874,N,00005.9628,E,2,10,0.79,4.6,M,47.0,M,0000,0000*6D
$GPGGA,171545.200,5212.0874,N,00005.9628,E,2,10,0.79,4.6,M,47.0,M,0000,0000*6F
$GPGGA,171545.400,5212.0874,N,00005.9628,E,2,10,0.79,4.6,M,47.0,M,0000,0000*69
$PMTKLOG,0,1,a,31,15,0,0,1,0,0*11
$PMTK001,183,3*3A
$PMTK869,2,0*37
$GPGGA,171545.600,5212.0874,N,00005.9628,E,2,10,0.79,4.6,M,47.0,M,0000,0000*6B
$GPGGA,171545.800,5212.0874,N,00005.9628,E,2,10,0.79,4.6,M,47.0,M,0000,0000*65

$GPGGA,171546.000,5212.0874,N,00005.9628,E,2,10,0.79,4.6,M,47.0,M,0000,0000*6E
$GPGGA,171546.200,5212.0874,N,00005.9628,E,2,10,0.79,4.6,M,47.0,M,0000,0000*6C
$GPGGA,171546.400,5212.0874,N,00005.9628,E,2,10,0.79,4.6,M,47.0,M,0000,0000*6A
$PMTKLOG,0,1,a,31,15,0,0,1,0,0*11
$PMTK001,183,3*3A
$PMTK869,2,0*37
$GPGGA,171546.600,5212.0874,N,00005.9628,E,2,10,0.79,4.6,M,47.0,M,0000,0000*68
$GPGGA,171546.800,5212.0874,N,00005.9628,E,2,10,0.79,4.6,M,47.0,M,0000,0000*66

$GPGGA,171547.000,5212.0874,N,00005.9628,E,2,10,0.79,4.6,M,47.0,M,0000,0000*6F
$GPGGA,171547.200,5212.0874,N,00005.9628,E,2,10,0.79,4.6,M,47.0,M,0000,0000*6D
$GPGGA,171547.400,5212.0874,N,00005.9628,E,2,10,0.79,4.6,M,47.0,M,0000,0000*6B
$PMTKLOG,0,1,a,31,15,0,0,1,0,0*11
$PMTK001,183,3*3A
$PMTK869,2,0*37
$GPGGA,171547.600,5212.0874,N,00005.9628,E,2,10,0.79,4.6,M,47.0,M,0000,0000*69
$GPGGA,171547.800,5212.0874,N,00005.9628,E,2,10,0.79,4.6,M,47.0,M,0000,0000*67

$GPGGA,171548.000,5212.0874,N,00005.9628,E,2,10,0.79,4.6,M,47.0,M,0000,0000*60
$GPGGA,171548.200,5212.0874,N,00005.9628,E,2,10,0.79,4.6,M,47.0,M,0000,0000*62
$GPGGA,171548.400,5212.0874,N,00005.9628,E,2,10,0.79,4.6,M,47.0,M,0000,0000*64
$PMTKLOG,0,1,a,31,15,0,0,1,0,0*11
$PMTK001,183,3*3A
$PMTK869,2,0*37
$GPGGA,171548.600,5212.0874,N,00005.9628,E,2,10,0.79,4.6,M,47.0,M,0000,0000*66
$GPGGA,171548.800,5212.0874,N,00005.9628,E,2,10,0.79,4.6,M,47.0,M,0000,0000*68

$GPGGA,171549.000,5212.0874,N,00005.9628,E,2,10,0.79,4.6,M,47.0,M,0000,0000*61
$GPGGA,171549.200,5212.0874,N,00005.9628,E,2,10,0.79,4.6,M,47.0,M,0000,0000*63
$GPGGA,171549.400,5212.0874,N,00005.9628,E,2,10,0.79,4.6,M,47.0,M,0000,0000*65
$PMTKLOG,0,1,a,31,15,0,0,1,0,0*11
$PMTK001,183,3*3A
$PMTK869,2,0*37
$GPGGA,171549.600,5212.0874,N,00005.9628,E,2,10,0.79,4.6,M,47.0,M,0000,0000*67
$GPGGA,171549.800,5212.0874,N,00005.9628,E,2,10,0.79,4.6,M,47.0,M,0000,0000*69

$GPGGA,171550.000,5212.0874,N,00005.9628,E,2,10,0.79,4.6,M,47.0,M,0000,0000*69
$GPGGA,171550.200,5212.0874,N,00005.9628,E,2,10,0.79,4.6,M,47.0,M,0000,0000*6B
$GPGGA,171550.400,5212.0874,N,00005.9628,E,2,10,0.79,4.6,M,47.0,M,0000,0000*6D
$PMTKLOG,0,1,a,31,15,0,0,1,0,0*11
$PMTK001,183,3*3A
$PMTK869,2,0*37
$GPGGA,171550.600,5212.0874,N,00005.9628,E,2,10,0.79,4.6,M,47.0,M,0000,0000*6F
$GPGGA,171550.800,5212.0874,N,00005.9628,E,2,10,0.79,4.6,M,47.0,M,0000,0000*61

$GPGGA,171551.000,5212.0874,N,00005.9628,E,2,10,0.79,4.6,M,47.0,M,0000,0000*68
$GPGGA,171551.200,5212.0874,N,00005.9628,E,2,10,0.79,4.6,M,47.0,M,0000,0000*6A
$GPGGA,171551.400,5212.0874,N,00005.9628,E,2,10,0.79,4.6,M,47.0,M,0000,0000*6C
$PMTKLOG,0,1,a,31,15,0,0,1,0,0*11
$PMTK001,183,3*3A
$PMTK869,2,0*37
$GPGGA,171551.600,5212.0874,N,00005.9628,E,2,10,0.79,4.6,M,47.0,M,0000,0000*6E
$GPGGA,171551.800,5212.0874,N,00005.9628,E,2,10,0.79,4.6,M,47.0,M,0000,0000*60

$GPGGA,171552.000,5212.0874,N,00005.9628,E,2,10,0.79,4.6,M,47.0,M,0000,0000*6B
$GPGGA,171552.200,5212.0874,N,00005.9628,E,2,10,0.79,4.6,M,47.0,M,0000,0000*69
$GPGGA,171552.400,5212.0874,N,00005.9628,E,2,10,0.79,4.6,M,47.0,M,0000,0000*6F
$PMTKLOG,0,1,a,31,15,0,0,1,0,0*11
$PMTK001,183,3*3A
$PMTK869,2,0*37
$GPGGA,171552.600,5212.0874,N,00005.9628,E,2,10,0.79,4.6,M,47.0,M,0000,0000*6D
$GPGGA,171552.800,5212.0874,N,00005.9628,E,2,10,0.79,4.6,M,47.0,M,0000,0000*63

$GPGGA,171553.000,5212.0874,N,00005.9628,E,2,10,0.79,4.6,M,47.0,M,0000,0000*6A
$GPGGA,171553.200,5212.0874,N,00005.9628,E,2,10,0.79,4.6,M,47.0,M,0000,0000*68
$GPGGA,171553.400,5212.0874,N,00005.9628,E,2,10,0.79,4.6,M,47.0,M,0000,0000*6E
$PMTKLOG,0,1,a,31,15,0,0,1,0,0*11
$PMTK001,183,3*3A
$PMTK869,2,0*37
$GPGGA,171553.600,5212.0874,N,00005.9628,E,2,10,0.79,4.6,M,47.0,M,0000,0000*6C
$GPGGA,171553.800,5212.0874,N,00005.9628,E,2,10,0.79,4.6,M,47.0,M,0000,0000*62

$GPGGA,171554.000,5212.0874,N,00005.9628,E,2,10,0.79,4.6,M,47.0,M,0000,0000*6D
$GPGGA,171554.200,5212.0874,N,00005.9628,E,2,10,0.79,4.6,M,47.0,M,0000,0000*6F
$GPGGA,171554.400,5212.0874,N,00005.9628,E,2,10,0.79,4.6,M,47.0,M,0000,0000*69
$PMTKLOG,0,1,a,31,15,0,0,1,0,0*11
$PMTK001,183,3*3A
$PMTK869,2,0*37
$GPGGA,171554.600,5212.0874,N,00005.9628,E,2,10,0.79,4.6,M,47.0,M,0000,0000*6B
$GPGGA,171554.800,5212.0874,N,00005.9628,E,2,10,0.79,4.6,M,47.0,M,0000,0000*65

$GPGGA,171555.000,5212.0874,N,00005.9628,E,2,10,0.79,4.6,M,47.0,M,0000,0000*6C
$GPGGA,171555.200,5212.0874,N,00005.9628,E,2,10,0.79,4.6,M,47.0,M,0000,0000*6E
$GPGGA,171555.400,5212.0874,N,00005.9628,E,2,10,0.79,4.6,M,47.0,M,0000,0000*68
$PMTKLOG,0,1,a,31,15,0,0,1,0,0*11
$PMTK001,183,3*3A
$PMTK869,2,0*37
$GPGGA,171555.600,5212.0874,N,00005.9628,E,2,10,0.79,4.6,M,47.0,M,0000,0000*6A
$GPGGA,171555.800,5212.0874,N,00005.9628,E,2,10,0.79,4.6,M,47.0,M,0000,0000*64

$GPGGA,171556.000,5212.0874,N,00005.9628,E,2,10,0.79,4.6,M,47.0,M,0000,0000*6F
$GPGGA,171556.200,5212.0874,N,00005.9628,E,2,10,0.79,4.6,M,47.0,M,0000,0000*6D
$GPGGA,171556.400,5212.0874,N,00005.9628,E,2,10,0.79,4.6,M,47.0,M,0000,0000*6B
$PMTKLOG,0,1,a,31,15,0,0,1,0,0*11
$PMTK001,183,3*3A
$PMTK869,2,0*37
$GPGGA,171556.600,5212.0874,N,00005.9628,E,2,10,0.79,4.6,M,47.0,M,0000,0000*69
$GPGGA,171556.800,5212.0874,N,00005.9628,E,2,10,0.79,4.5,M,47.0,M,0000,0000*64

$GPGGA,171557.000,5212.0874,N,00005.9628,E,2,10,0.79,4.5,M,47.0,M,0000,0000*6D
$GPGGA,171557.200,5212.0874,N,00005.9628,E,2,10,0.79,4.5,M,47.0,M,0000,0000*6F
$GPGGA,171557.400,5212.0874,N,00005.9628,E,2,10,0.79,4.5,M,47.0,M,0000,0000*69
$PMTKLOG,0,1,a,31,15,0,0,1,0,0*11
$PMTK001,183,3*3A
$PMTK869,2,0*37
$GPGGA,171557.600,5212.0874,N,00005.9628,E,2,10,0.79,4.5,M,47.0,M,0000,0000*6B
$GPGGA,171557.800,5212.0874,N,00005.9628,E,2,10,0.79,4.5,M,47.0,M,0000,0000*65

$GPGGA,171558.000,5212.0874,N,00005.9628,E,2,10,0.79,4.5,M,47.0,M,0000,0000*62
$GPGGA,171558.200,5212.0874,N,00005.9628,E,2,10,0.79,4.5,M,47.0,M,0000,0000*60
$GPGGA,171558.400,5212.0874,N,00005.9628,E,2,10,0.79,4.5,M,47.0,M,0000,0000*66
$PMTKLOG,0,1,a,31,15,0,0,1,0,0*11
$PMTK001,183,3*3A
$PMTK869,2,0*37
$GPGGA,171558.600,5212.0874,N,00005.9628,E,2,10,0.79,4.5,M,47.0,M,0000,0000*64
$GPGGA,171558.800,5212.0874,N,00005.9628,E,2,10,0.79,4.5,M,47.0,M,0000,0000*6A

$GPGGA,171559.000,5212.0874,N,00005.9628,E,2,10,0.79,4.5,M,47.0,M,0000,0000*63
$GPGGA,171559.200,5212.0874,N,00005.9628,E,2,10,0.79,4.5,M,47.0,M,0000,0000*61
$GPGGA,171559.400,5212.0874,N,00005.9628,E,2,10,0.79,4.5,M,47.0,M,0000,0000*67
$PMTKLOG,0,1,a,31,15,0,0,1,0,0*11
$PMTK001,183,3*3A
$PMTK869,2,0*37
$GPGGA,171559.600,5212.0874,N,00005.9628,E,2,10,0.79,4.5,M,47.0,M,0000,0000*65
$GPGGA,171559.800,5212.0874,N,00005.9628,E,2,10,0.79,4.5,M,47.0,M,0000,0000*6B

$GPGGA,171600.000,5212.0874,N,00005.9628,E,2,10,0.79,4.5,M,47.0,M,0000,0000*6C
$GPGGA,171600.200,5212.0874,N,00005.9628,E,2,10,0.79,4.5,M,47.0,M,0000,0000*6E
$GPGGA,171600.400,5212.0874,N,00005.9628,E,2,10,0.79,4.5,M,47.0,M,0000,0000*68
$PMTKLOG,0,1,a,31,15,0,0,1,0,0*11
$PMTK001,183,3*3A
$PMTK869,2,0*37
$GPGGA,171600.600,5212.0874,N,00005.9628,E,2,10,0.79,4.5,M,47.0,M,0000,0000*6A
$GPGGA,171600.800,5212.0874,N,00005.9628,E,2,10,0.79,4.5,M,47.0,M,0000,0000*64

$GPGGA,171601.000,5212.0874,N,00005.9628,E,2,10,0.79,4.5,M,47.0,M,0000,0000*6D
$GPGGA,171601.200,5212.0874,N,00005.9628,E,2,10,0.79,4.5,M,47.0,M,0000,0000*6F
$GPGGA,171601.400,5212.0874,N,00005.9628,E,2,10,0.79,4.5,M,47.0,M,0000,0000*69
$PMTKLOG,0,1,a,31,15,0,0,1,0,0*11
$PMTK001,183,3*3A
$PMTK869,2,0*37
$GPGGA,171601.600,5212.0874,N,00005.9628,E,2,10,0.79,4.5,M,47.0,M,0000,0000*6B
$GPGGA,171601.800,5212.0874,N,00005.9628,E,2,10,0.79,4.5,M,47.0,M,0000,0000*65

$GPGGA,171602.000,5212.0874,N,00005.9628,E,2,10,0.79,4.5,M,47.0,M,0000,0000*6E
$GPGGA,171602.200,5212.0874,N,00005.9628,E,2,10,0.79,4.5,M,47.0,M,0000,0000*6C
$GPGGA,171602.400,5212.0874,N,00005.9628,E,2,10,0.79,4.5,M,47.0,M,0000,0000*6A
$PMTKLOG,0,1,a,31,15,0,0,1,0,0*11
$PMTK001,183,3*3A
$PMTK869,2,0*37
$GPGGA,171602.600,5212.0874,N,00005.9628,E,2,10,0.79,4.5,M,47.0,M,0000,0000*68
$GPGGA,171602.800,5212.0874,N,00005.9628,E,2,10,0.79,4.5,M,47.0,M,0000,0000*66

$GPGGA,171603.000,5212.0874,N,00005.9628,E,2,10,0.79,4.5,M,47.0,M,0000,0000*6F
$GPGGA,171603.200,5212.0874,N,00005.9628,E,2,10,0.79,4.5,M,47.0,M,0000,0000*6D
$GPGGA,171603.400,5212.0874,N,00005.9628,E,2,10,0.79,4.5,M,47.0,M,0000,0000*6B
$PMTKLOG,0,1,a,31,15,0,0,1,0,0*11
$PMTK001,183,3*3A
$PMTK869,2,0*37
$GPGGA,171603.600,5212.0874,N,00005.9628,E,2,10,0.79,4.5,M,47.0,M,0000,0000*69
$GPGGA,171603.800,5212.0874,N,00005.9628,E,2,10,0.79,4.5,M,47.0,M,0000,0000*67

$GPGGA,171604.000,5212.0874,N,00005.9628,E,2,10,0.79,4.5,M,47.0,M,0000,0000*68
$GPGGA,171604.200,5212.0874,N,00005.9628,E,2,10,0.79,4.5,M,47.0,M,0000,0000*6A
$GPGGA,171604.400,5212.0874,N,00005.9628,E,2,10,0.79,4.5,M,47.0,M,0000,0000*6C
$PMTKLOG,0,1,a,31,15,0,0,1,0,0*11
$PMTK001,183,3*3A
$PMTK869,2,0*37
$GPGGA,171604.600,5212.0874,N,00005.9628,E,2,10,0.79,4.5,M,47.0,M,0000,0000*6E
$GPGGA,171604.800,5212.0874,N,00005.9628,E,2,10,0.79,4.5,M,47.0,M,0000,0000*60

$GPGGA,171605.000,5212.0874,N,00005.9628,E,2,10,0.79,4.5,M,47.0,M,0000,0000*69
$GPGGA,171605.200,5212.0874,N,00005.9628,E,2,10,0.79,4.5,M,47.0,M,0000,0000*6B
$GPGGA,171605.400,5212.0874,N,00005.9628,E,2,10,0.79,4.5,M,47.0,M,0000,0000*6D
$PMTKLOG,0,1,a,31,15,0,0,1,0,0*11
$PMTK001,183,3*3A
$PMTK869,2,0*37
$GPGGA,171605.600,5212.0874,N,00005.9628,E,2,10,0.79,4.5,M,47.0,M,0000,0000*6F
$GPGGA,171605.800,5212.0874,N,00005.9628,E,2,10,0.79,4.5,M,47.0,M,0000,0000*61

$GPGGA,171606.000,5212.0874,N,00005.9628,E,2,10,0.79,4.5,M,47.0,M,0000,0000*6A
$GPGGA,171606.200,5212.0874,N,00005.9628,E,2,10,0.79,4.5,M,47.0,M,0000,0000*68
$GPGGA,171606.400,5212.0874,N,00005.9628,E,2,10,0.79,4.5,M,47.0,M,0000,0000*6E
$PMTKLOG,0,1,a,31,15,0,0,1,0,0*11
$PMTK001,183,3*3A
$PMTK869,2,0*37
$GPGGA,171606.600,5212.0874,N,00005.9628,E,2,10,0.79,4.5,M,47.0,M,0000,0000*6C
$GPGGA,171606.800,5212.0874,N,00005.9628,E,2,10,0.79,4.5,M,47.0,M,0000,0000*62

$GPGGA,171607.000,5212.0874,N,00005.9628,E,2,10,0.79,4.5,M,47.0,M,0000,0000*6B
$GPGGA,171607.200,5212.0874,N,00005.9628,E,2,10,0.79,4.5,M,47.0,M,0000,0000*69
$GPGGA,171607.400,5212.0874,N,00005.9628,E,2,10,0.79,4.5,M,47.0,M,0000,0000*6F
$PMTKLOG,0,1,a,31,15,0,0,1,0,0*11
$PMTK001,183,3*3A
$PMTK869,2,0*37
$GPGGA,171607.600,5212.0874,N,00005.9628,E,2,10,0.79,4.5,M,47.0,M,0000,0000*6D
$GPGGA,171607.800,5212.0874,N,00005.9627,E,2,10,0.79,4.5,M,47.0,M,0000,0000*6C

$GPGGA,171608.000,5212.0874,N,00005.9627,E,2,10,0.79,4.5,M,47.0,M,0000,0000*6B
$GPGGA,171608.200,5212.0874,N,00005.9627,E,2,10,0.79,4.5,M,47.0,M,0000,0000*69
$GPGGA,171608.400,5212.0874,N,00005.9627,E,2,10,0.79,4.5,M,47.0,M,0000,0000*6F
$PMTKLOG,0,1,a,31,15,0,0,1,0,0*11
$PMTK001,183,3*3A
$PMTK869,2,0*37
$GPGGA,171608.600,5212.0874,N,00005.9627,E,2,10,0.79,4.5,M,47.0,M,0000,0000*6D
$GPGGA,171608.800,5212.0874,N,00005.9627,E,2,10,0.79,4.5,M,47.0,M,0000,0000*63

$GPGGA,171609.000,5212.0874,N,00005.9627,E,2,10,0.79,4.5,M,47.0,M,0000,0000*6A
$GPGGA,171609.200,5212.0874,N,00005.9627,E,2,10,0.79,4.5,M,47.0,M,0000,0000*68
$GPGGA,171609.400,5212.0874,N,00005.9627,E,2,10,0.79,4.5,M,47.0,M,0000,0000*6E
$PMTKLOG,0,1,a,31,15,0,0,1,0,0*11
$PMTK001,183,3*3A
$PMTK869,2,0*37
$GPGGA,171609.600,5212.0874,N,00005.9627,E,2,10,0.79,4.5,M,47.0,M,0000,0000*6C
$GPGGA,171609.800,5212.0874,N,00005.9627,E,2,10,0.79,4.5,M,47.0,M,0000,0000*62

$GPGGA,171610.000,5212.0874,N,00005.9627,E,2,10,0.79,4.5,M,47.0,M,0000,0000*62
$GPGGA,171610.200,5212.0874,N,00005.9627,E,2,10,0.79,4.5,M,47.0,M,0000,0000*60
$GPGGA,171610.400,5212.0874,N,00005.9627,E,2,10,0.79,4.5,M,47.0,M,0000,0000*66
$PMTKLOG,0,1,a,31,15,0,0,1,0,0*11
$PMTK001,183,3*3A
$PMTK869,2,0*37
$GPGGA,171610.600,5212.0874,N,00005.9627,E,2,10,0.79,4.5,M,47.0,M,0000,0000*64
$GPGGA,171610.800,5212.0874,N,00005.9627,E,2,10,0.79,4.5,M,47.0,M,0000,0000*6A

$GPGGA,171611.000,5212.0874,N,00005.9627,E,2,10,0.79,4.5,M,47.0,M,0000,0000*63
$GPGGA,171611.200,5212.0874,N,00005.9627,E,2,10,0.79,4.5,M,47.0,M,0000,0000*61
$GPGGA,171611.400,5212.0874,N,00005.9627,E,2,10,0.79,4.5,M,47.0,M,0000,0000*67
$PMTKLOG,0,1,a,31,15,0,0,1,0,0*11
$PMTK001,183,3*3A
$PMTK869,2,0*37
$GPGGA,171611.600,5212.0874,N,00005.9627,E,2,10,0.79,4.5,M,47.0,M,0000,0000*65
$GPGGA,171611.800,5212.0874,N,00005.9627,E,2,10,0.79,4.5,M,47.0,M,0000,0000*6B

$GPGGA,171612.000,5212.0874,N,00005.9627,E,2,10,0.79,4.5,M,47.0,M,0000,0000*60
$GPGGA,171612.200,5212.0874,N,00005.9627,E,2,10,0.79,4.5,M,47.0,M,0000,0000*62
$GPGGA,171612.400,5212.0874,N,00005.9627,E,2,10,0.79,4.5,M,47.0,M,0000,0000*64
$PMTKLOG,0,1,a,31,15,0,0,1,0,0*11
$PMTK001,183,3*3A
$PMTK869,2,0*37
$GPGGA,171612.600,5212.0874,N,00005.9627,E,2,10,0.79,4.5,M,47.0,M,0000,0000*66
$GPGGA,171612.800,5212.0874,N,00005.9627,E,2,10,0.79,4.5,M,47.0,M,0000,0000*68

$GPGGA,171613.000,5212.0874,N,00005.9627,E,2,10,0.79,4.5,M,47.0,M,0000,0000*61
$GPGGA,171613.200,5212.0874,N,00005.9627,E,2,10,0.79,4.5,M,47.0,M,0000,0000*63
$GPGGA,171613.400,5212.0874,N,00005.9627,E,2,10,0.79,4.5,M,47.0,M,0000,0000*65
$PMTKLOG,0,1,a,31,15,0,0,1,0,0*11
$PMTK001,183,3*3A
$PMTK869,2,0*37
$GPGGA,171613.600,5212.0874,N,00005.9627,E,2,10,0.79,4.5,M,47.0,M,0000,0000*67
$GPGGA,171613.800,5212.0874,N,00005.9627,E,2,10,0.79,4.5,M,47.0,M,0000,0000*69

$GPGGA,171614.000,5212.0874,N,00005.9627,E,2,10,0.79,4.5,M,47.0,M,0000,0000*66
$GPGGA,171614.200,5212.0874,N,00005.9627,E,2,10,0.79,4.5,M,47.0,M,0000,0000*64
$GPGGA,171614.400,5212.0874,N,00005.9627,E,2,10,0.79,4.5,M,47.0,M,0000,0000*62
$PMTKLOG,0,1,a,31,15,0,0,1,0,0*11
$PMTK001,183,3*3A
$PMTK869,2,0*37
$GPGGA,171614.600,5212.0874,N,00005.9627,E,2,10,0.79,4.5,M,47.0,M,0000,0000*60
$GPGGA,171614.800,5212.0874,N,00005.9627,E,2,10,0.79,4.5,M,47.0,M,0000,0000*6E

$GPGGA,171615.000,5212.0874,N,00005.9627,E,2,10,0.79,4.5,M,47.0,M,0000,0000*67
$GPGGA,171615.200,5212.0874,N,00005.9627,E,2,10,0.79,4.5,M,47.0,M,0000,0000*65
$GPGGA,171615.400,5212.0874,N,00005.9627,E,2,10,0.79,4.5,M,47.0,M,0000,0000*63
$PMTKLOG,0,1,a,31,15,0,0,1,0,0*11
$PMTK001,183,3*3A
$PMTK869,2,0*37
$GPGGA,171615.600,5212.0874,N,00005.9627,E,2,10,0.79,4.5,M,47.0,M,0000,0000*61
$GPGGA,171615.800,5212.0874,N,00005.9627,E,2,10,0.79,4.5,M,47.0,M,0000,0000*6F

$GPGGA,171616.000,5212.0874,N,00005.9627,E,2,10,0.79,4.5,M,47.0,M,0000,0000*64
$GPGGA,171616.200,5212.0874,N,00005.9627,E,2,10,0.79,4.5,M,47.0,M,0000,0000*66
$GPGGA,171616.400,5212.0874,N,00005.9627,E,2,10,0.79,4.5,M,47.0,M,0000,0000*60
$PMTKLOG,0,1,a,31,15,0,0,1,0,0*11
$PMTK001,183,3*3A
$PMTK869,2,0*37
$GPGGA,171616.600,5212.0874,N,00005.9627,E,2,10,0.79,4.5,M,47.0,M,0000,0000*62
$GPGGA,171616.800,5212.0874,N,00005.9627,E,2,10,0.79,4.5,M,47.0,M,0000,0000*6C

$GPGGA,171617.000,5212.0874,N,00005.9627,E,2,10,0.79,4.5,M,47.0,M,0000,0000*65
$GPGGA,171617.200,5212.0874,N,00005.9627,E,2,10,0.79,4.5,M,47.0,M,0000,0000*67
$GPGGA,171617.400,5212.0874,N,00005.9627,E,2,10,0.79,4.5,M,47.0,M,0000,0000*61
$PMTKLOG,0,1,a,31,15,0,0,1,0,0*11
$PMTK001,183,3*3A
$PMTK869,2,0*37
$GPGGA,171617.600,5212.0874,N,00005.9627,E,2,10,0.79,4.5,M,47.0,M,0000,0000*63
$GPGGA,171617.800,5212.0874,N,00005.9627,E,2,10,0.79,4.5,M,47.0,M,0000,0000*6D

$GPGGA,171618.000,5212.0874,N,00005.9627,E,2,10,0.79,4.5,M,47.0,M,0000,0000*6A
$GPGGA,171618.200,5212.0874,N,00005.9627,E,2,10,0.79,4.5,M,47.0,M,0000,0000*68
$GPGGA,171618.400,5212.0874,N,00005.9627,E,2,10,0.79,4.5,M,47.0,M,0000,0000*6E
$PMTKLOG,0,1,a,31,15,0,0,1,0,0*11
$PMTK001,183,3*3A
$PMTK869,2,0*37
$GPGGA,171618.600,5212.0874,N,00005.9627,E,2,10,0.79,4.5,M,47.0,M,0000,0000*6C
$GPGGA,171618.800,5212.0874,N,00005.9627,E,2,10,0.79,4.5,M,47.0,M,0000,0000*62

$GPGGA,171619.000,5212.0874,N,00005.9627,E,2,10,0.79,4.5,M,47.0,M,0000,0000*6B
$GPGGA,171619.200,5212.0874,N,00005.9627,E,2,10,0.79,4.5,M,47.0,M,0000,0000*69
$GPGGA,171619.400,5212.0874,N,00005.9627,E,2,10,0.79,4.5,M,47.0,M,0000,0000*6F
$PMTKLOG,0,1,a,31,15,0,0,1,0,0*11
$PMTK001,183,3*3A
$PMTK869,2,0*37
$GPGGA,171619.600,5212.0874,N,00005.9627,E,2,10,0.79,4.5,M,47.0,M,0000,0000*6D
$GPGGA,171619.800,5212.0874,N,00005.9627,E,2,10,0.79,4.5,M,47.0,M,0000,0000*63

$GPGGA,171620.000,5212.0874,N,00005.9627,E,2,10,0.79,4.5,M,47.0,M,0000,0000*61
$GPGGA,171620.200,5212.0874,N,00005.9627,E,2,10,0.79,4.5,M,47.0,M,0000,0000*63
$GPGGA,171620.400,5212.0874,N,00005.9627,E,2,10,0.79,4.5,M,47.0,M,0000,0000*65
$PMTKLOG,0,1,a,31,15,0,0,1,0,0*11
$PMTK001,183,3*3A
$PMTK869,2,0*37
$GPGGA,171620.600,5212.0874,N,00005.9627,E,2,10,0.79,4.5,M,47.0,M,0000,0000*67
$GPGGA,171620.800,5212.0874,N,00005.9627,E,2,10,0.79,4.5,M,47.0,M,0000,0000*69

$GPGGA,171621.000,5212.0874,N,00005.9627,E,2,10,0.79,4.5,M,47.0,M,0000,0000*60
$GPGGA,171621.200,5212.0874,N,00005.9627,E,2,10,0.79,4.5,M,47.0,M,0000,0000*62
$GPGGA,171621.400,5212.0874,N,00005.9627,E,2,10,0.79,4.5,M,47.0,M,0000,0000*64
$PMTKLOG,0,1,a,31,15,0,0,1,0,0*11
$PMTK001,183,3*3A
$PMTK869,2,0*37
$GPGGA,171621.600,5212.0874,N,00005.9627,E,2,10,0.79,4.5,M,47.0,M,0000,0000*66
$GPGGA,171621.800,5212.0874,N,00005.9627,E,2,10,0.79,4.5,M,47.0,M,0000,0000*68

$GPGGA,171622.000,5212.0874,N,00005.9627,E,2,10,0.79,4.5,M,47.0,M,0000,0000*63
$GPGGA,171622.200,5212.0874,N,00005.9627,E,2,10,0.79,4.5,M,47.0,M,0000,0000*61
$GPGGA,171622.400,5212.0874,N,00005.9627,E,2,10,0.79,4.5,M,47.0,M,0000,0000*67
$PMTKLOG,0,1,a,31,15,0,0,1,0,0*11
$PMTK001,183,3*3A
$PMTK869,2,0*37
$GPGGA,171622.600,5212.0874,N,00005.9627,E,2,10,0.79,4.5,M,47.0,M,0000,0000*65
$GPGGA,171622.800,5212.0874,N,00005.9627,E,2,10,0.79,4.5,M,47.0,M,0000,0000*6B

$GPGGA,171623.000,5212.0874,N,00005.9627,E,2,10,0.79,4.5,M,47.0,M,0000,0000*62
$GPGGA,171623.200,5212.0874,N,00005.9627,E,2,10,0.79,4.5,M,47.0,M,0000,0000*60
$GPGGA,171623.400,5212.0874,N,00005.9627,E,2,10,0.79,4.5,M,47.0,M,0000,0000*66
$PMTKLOG,0,1,a,31,15,0,0,1,0,0*11
$PMTK001,183,3*3A
$PMTK869,2,0*37
$GPGGA,171623.600,5212.0874,N,00005.9627,E,2,10,0.79,4.5,M,47.0,M,0000,0000*64
$GPGGA,171623.800,5212.0874,N,00005.9627,E,2,10,0.79,4.5,M,47.0,M,0000,0000*6A

$GPGGA,171624.000,5212.0874,N,00005.9627,E,2,10,0.79,4.5,M,47.0,M,0000,0000*65
$GPGGA,171624.200,5212.0874,N,00005.9627,E,2,10,0.79,4.5,M,47.0,M,0000,0000*67
$GPGGA,171624.400,5212.0874,N,00005.9627,E,2,10,0.79,4.5,M,47.0,M,0000,0000*61
$PMTKLOG,0,1,a,31,15,0,0,1,0,0*11
$PMTK001,183,3*3A
$PMTK869,2,0*37
$GPGGA,171624.600,5212.0874,N,00005.9627,E,2,10,0.79,4.5,M,47.0,M,0000,0000*63
$GPGGA,171624.800,5212.0874,N,00005.9627,E,2,10,0.79,4.5,M,47.0,M,0000,0000*6D

$GPGGA,171625.000,5212.0874,N,00005.9627,E,2,10,0.79,4.5,M,47.0,M,0000,0000*64
$GPGGA,171625.200,5212.0874,N,00005.9627,E,2,10,0.79,4.5,M,47.0,M,0000,0000*66
$GPGGA,171625.400,5212.0874,N,00005.9627,E,2,10,0.79,4.5,M,47.0,M,0000,0000*60
$PMTKLOG,0,1,a,31,15,0,0,1,0,0*11
$PMTK001,183,3*3A
$PMTK869,2,0*37
$GPGGA,171625.600,5212.0874,N,00005.9627,E,2,10,0.79,4.5,M,47.0,M,0000,0000*62
$GPGGA,171625.800,5212.0874,N,00005.9627,E,2,10,0.79,4.5,M,47.0,M,0000,0000*6C

$GPGGA,171626.000,5212.0874,N,00005.9627,E,2,10,0.79,4.5,M,47.0,M,0000,0000*67
$GPGGA,171626.200,5212.0874,N,00005.9627,E,2,10,0.79,4.5,M,47.0,M,0000,0000*65
$GPGGA,171626.400,5212.0874,N,00005.9627,E,2,10,0.79,4.5,M,47.0,M,0000,0000*63
$PMTKLOG,0,1,a,31,15,0,0,1,0,0*11
$PMTK001,183,3*3A
$PMTK869,2,0*37
$GPGGA,171626.600,5212.0874,N,00005.9627,E,2,10,0.79,4.5,M,47.0,M,0000,0000*61
$GPGGA,171626.800,5212.0874,N,00005.9627,E,2,10,0.79,4.5,M,47.0,M,0000,0000*6F

$GPGGA,171627.000,5212.0874,N,00005.9627,E,2,10,0.79,4.5,M,47.0,M,0000,0000*66
$GPGGA,171627.200,5212.0874,N,00005.9627,E,2,10,0.79,4.5,M,47.0,M,0000,0000*64
$GPGGA,171627.400,5212.0874,N,00005.9627,E,2,10,0.79,4.5,M,47.0,M,0000,0000*62
$PMTKLOG,0,1,a,31,15,0,0,1,0,0*11
$PMTK001,183,3*3A
$PMTK869,2,0*37
$GPGGA,171627.600,5212.0874,N,00005.9627,E,2,10,0.79,4.5,M,47.0,M,0000,0000*60
$GPGGA,171627.800,5212.0874,N,00005.9627,E,2,10,0.79,4.5,M,47.0,M,0000,0000*6E

$GPGGA,171628.000,5212.0874,N,00005.9627,E,2,10,0.79,4.5,M,47.0,M,0000,0000*69
$GPGGA,171628.200,5212.0874,N,00005.9627,E,2,10,0.79,4.5,M,47.0,M,0000,0000*6B
$GPGGA,171628.400,5212.0874,N,00005.9627,E,2,10,0.79,4.5,M,47.0,M,0000,0000*6D
$PMTKLOG,0,1,a,31,15,0,0,1,0,0*11
$PMTK001,183,3*3A
$PMTK869,2,0*37
$GPGGA,171628.600,5212.0874,N,00005.9627,E,2,10,0.79,4.5,M,47.0,M,0000,0000*6F
$GPGGA,171628.800,5212.0874,N,00005.9627,E,2,10,0.79,4.5,M,47.0,M,0000,0000*61

$GPGGA,171629.000,5212.0874,N,00005.9627,E,2,10,0.79,4.5,M,47.0,M,0000,0000*68
$GPGGA,171629.200,5212.0874,N,00005.9627,E,2,10,0.79,4.5,M,47.0,M,0000,0000*6A
$GPGGA,171629.400,5212.0874,N,00005.9627,E,2,10,0.79,4.5,M,47.0,M,0000,0000*6C
$PMTKLOG,0,1,a,31,15,0,0,1,0,0*11
$PMTK001,183,3*3A
$PMTK869,2,0*37
$GPGGA,171629.600,5212.0874,N,00005.9627,E,2,10,0.79,4.5,M,47.0,M,0000,0000*6E
$GPGGA,171629.800,5212.0874,N,00005.9627,E,2,10,0.79,4.5,M,47.0,M,0000,0000*60

$GPGGA,171630.000,5212.0874,N,00005.9627,E,2,10,0.79,4.5,M,47.0,M,0000,0000*60
$GPGGA,171630.200,5212.0874,N,00005.9627,E,2,10,0.79,4.5,M,47.0,M,0000,0000*62
$GPGGA,171630.400,5212.0874,N,00005.9627,E,2,10,0.79,4.5,M,47.0,M,0000,0000*64
$PMTKLOG,0,1,a,31,15,0,0,1,0,0*11
$PMTK001,183,3*3A
$PMTK869,2,0*37
$GPGGA,171630.600,5212.0874,N,00005.9627,E,2,10,0.79,4.5,M,47.0,M,0000,0000*66
$GPGGA,171630.800,5212.0874,N,00005.9627,E,2,10,0.79,4.5,M,47.0,M,0000,0000*68

$GPGGA,171631.000,5212.0874,N,00005.9627,E,2,10,0.79,4.5,M,47.0,M,0000,0000*61
$GPGGA,171631.200,5212.0874,N,00005.9627,E,2,10,0.79,4.5,M,47.0,M,0000,0000*63
$GPGGA,171631.400,5212.0874,N,00005.9627,E,2,10,0.79,4.5,M,47.0,M,0000,0000*65
$PMTKLOG,0,1,a,31,15,0,0,1,0,0*11
$PMTK001,183,3*3A
$PMTK869,2,0*37
$GPGGA,171631.600,5212.0874,N,00005.9627,E,2,10,0.79,4.5,M,47.0,M,0000,0000*67
$GPGGA,171631.800,5212.0874,N,00005.9627,E,2,10,0.79,4.5,M,47.0,M,0000,0000*69

$GPGGA,171632.000,5212.0874,N,00005.9627,E,2,10,0.79,4.5,M,47.0,M,0000,0000*62
$GPGGA,171632.200,5212.0874,N,00005.9627,E,2,10,0.79,4.5,M,47.0,M,0000,0000*60
$GPGGA,171632.400,5212.0875,N,00005.9627,E,2,10,0.79,4.5,M,47.0,M,0000,0000*67
$PMTKLOG,0,1,a,31,15,0,0,1,0,0*11
$PMTK001,183,3*3A
$PMTK869,2,0*37
$GPGGA,171632.600,5212.0875,N,00005.9627,E,2,10,0.79,4.5,M,47.0,M,0000,0000*65
$GPGGA,171632.800,5212.0875,N,00005.9627,E,2,10,0.79,4.5,M,47.0,M,0000,0000*6B

$GPGGA,171633.000,5212.0875,N,00005.9627,E,2,10,0.79,4.5,M,47.0,M,0000,0000*62
$GPGGA,171633.200,5212.0875,N,00005.9627,E,2,10,0.79,4.5,M,47.0,M,0000,0000*60
$GPGGA,171633.400,5212.0875,N,00005.9627,E,2,10,0.79,4.5,M,47.0,M,0000,0000*66
$PMTKLOG,0,1,a,31,15,0,0,1,0,0*11
$PMTK001,183,3*3A
$PMTK869,2,0*37
$GPGGA,171633.600,5212.0875,N,00005.9627,E,2,10,0.79,4.5,M,47.0,M,0000,0000*64
$GPGGA,171633.800,5212.0875,N,00005.9627,E,2,10,0.79,4.5,M,47.0,M,0000,0000*6A

$GPGGA,171634.000,5212.0875,N,00005.9627,E,2,10,0.79,4.5,M,47.0,M,0000,0000*65
$GPGGA,171634.200,5212.0875,N,00005.9627,E,2,10,0.79,4.5,M,47.0,M,0000,0000*67
$GPGGA,171634.400,5212.0875,N,00005.9627,E,2,10,0.79,4.5,M,47.0,M,0000,0000*61
$PMTKLOG,0,1,a,31,15,0,0,1,0,0*11
$PMTK001,183,3*3A
$PMTK869,2,0*37
$GPGGA,171634.600,5212.0875,N,00005.9627,E,2,10,0.79,4.5,M,47.0,M,0000,0000*63
$GPGGA,171634.800,5212.0875,N,00005.9627,E,2,10,0.79,4.5,M,47.0,M,0000,0000*6D

$GPGGA,171635.000,5212.0875,N,00005.9627,E,2,10,0.79,4.5,M,47.0,M,0000,0000*64
$GPGGA,171635.200,5212.0875,N,00005.9627,E,2,10,0.79,4.5,M,47.0,M,0000,0000*66
$GPGGA,171635.400,5212.0875,N,00005.9627,E,2,10,0.79,4.5,M,47.0,M,0000,0000*60
$PMTKLOG,0,1,a,31,15,0,0,1,0,0*11
$PMTK001,183,3*3A
$PMTK869,2,0*37
$GPGGA,171635.600,5212.0875,N,00005.9627,E,2,10,0.79,4.5,M,47.0,M,0000,0000*62
$GPGGA,171635.800,5212.0875,N,00005.9627,E,2,10,0.79,4.5,M,47.0,M,0000,0000*6C

$GPGGA,171636.000,5212.0875,N,00005.9627,E,2,10,0.79,4.5,M,47.0,M,0000,0000*67
$GPGGA,171636.200,5212.0875,N,00005.9627,E,2,10,0.79,4.5,M,47.0,M,0000,0000*65
$GPGGA,171636.400,5212.0875,N,00005.9627,E,2,10,0.79,4.5,M,47.0,M,0000,0000*63
$PMTKLOG,0,1,a,31,15,0,0,1,0,0*11
$PMTK001,183,3*3A
$PMTK869,2,0*37
$GPGGA,171636.600,5212.0875,N,00005.9627,E,2,10,0.79,4.5,M,47.0,M,0000,0000*61
$GPGGA,171636.800,5212.0875,N,00005.9627,E,2,10,0.79,4.5,M,47.0,M,0000,0000*6F

$GPGGA,171637.000,5212.0875,N,00005.9627,E,2,10,0.79,4.5,M,47.0,M,0000,0000*66
$GPGGA,171637.200,5212.0875,N,00005.9627,E,2,10,0.79,4.5,M,47.0,M,0000,0000*64
$GPGGA,171637.400,5212.0875,N,00005.9627,E,2,10,0.79,4.5,M,47.0,M,0000,0000*62
$PMTKLOG,0,1,a,31,15,0,0,1,0,0*11
$PMTK001,183,3*3A
$PMTK869,2,0*37
$GPGGA,171637.600,5212.0875,N,00005.9627,E,2,10,0.79,4.5,M,47.0,M,0000,0000*60
$GPGGA,171637.800,5212.0875,N,00005.9627,E,2,10,0.79,4.5,M,47.0,M,0000,0000*6E

$GPGGA,171638.000,5212.0875,N,00005.9627,E,2,10,0.79,4.5,M,47.0,M,0000,0000*69
$GPGGA,171638.200,5212.0875,N,00005.9627,E,2,10,0.79,4.5,M,47.0,M,0000,0000*6B
$GPGGA,171638.400,5212.0875,N,00005.9627,E,2,10,0.79,4.5,M,47.0,M,0000,0000*6D
$PMTKLOG,0,1,a,31,15,0,0,1,0,0*11
$PMTK001,183,3*3A
$PMTK869,2,0*37
$GPGGA,171638.600,5212.0875,N,00005.9627,E,2,10,0.79,4.5,M,47.0,M,0000,0000*6F
$GPGGA,171638.800,5212.0875,N,00005.9627,E,2,10,0.79,4.5,M,47.0,M,0000,0000*61

$GPGGA,171639.000,5212.0875,N,00005.9627,E,2,10,0.79,4.5,M,47.0,M,0000,0000*68
$GPGGA,171639.200,5212.0875,N,00005.9627,E,2,10,0.79,4.5,M,47.0,M,0000,0000*6A
$GPGGA,171639.400,5212.0875,N,00005.9627,E,2,10,0.79,4.5,M,47.0,M,0000,0000*6C
$PMTKLOG,0,1,a,31,15,0,0,1,0,0*11
$PMTK001,183,3*3A
$PMTK869,2,0*37
$GPGGA,171639.600,5212.0875,N,00005.9627,E,2,10,0.79,4.5,M,47.0,M,0000,0000*6E
$GPGGA,171639.800,5212.0875,N,00005.9627,E,2,10,0.79,4.5,M,47.0,M,0000,0000*60

$GPGGA,171640.000,5212.0875,N,00005.9627,E,2,10,0.79,4.5,M,47.0,M,0000,0000*66
$GPGGA,171640.200,5212.0875,N,00005.9627,E,2,10,0.79,4.5,M,47.0,M,0000,0000*64
$GPGGA,171640.400,5212.0875,N,00005.9627,E,2,10,0.79,4.5,M,47.0,M,0000,0000*62
$PMTKLOG,0,1,a,31,15,0,0,1,0,0*11
$PMTK001,183,3*3A
$PMTK869,2,0*37
$GPGGA,171640.600,5212.0875,N,00005.9627,E,2,10,0.79,4.5,M,47.0,M,0000,0000*60
$GPGGA,171640.800,5212.0875,N,00005.9627,E,2,10,0.79,4.5,M,47.0,M,0000,0000*6E

$GPGGA,171641.000,5212.0875,N,00005.9627,E,2,10,0.79,4.5,M,47.0,M,0000,0000*67
$GPGGA,171641.200,5212.0875,N,00005.9627,E,2,10,0.79,4.5,M,47.0,M,0000,0000*65
$GPGGA,171641.400,5212.0875,N,00005.9627,E,2,10,0.79,4.5,M,47.0,M,0000,0000*63
$PMTKLOG,0,1,a,31,15,0,0,1,0,0*11
$PMTK001,183,3*3A
$PMTK869,2,0*37
$GPGGA,171641.600,5212.0875,N,00005.9627,E,2,10,0.79,4.5,M,47.0,M,0000,0000*61
$GPGGA,171641.800,5212.0875,N,00005.9627,E,2,10,0.79,4.5,M,47.0,M,0000,0000*6F

$GPGGA,171642.000,5212.0875,N,00005.9627,E,2,10,0.79,4.5,M,47.0,M,0000,0000*64
$GPGGA,171642.200,5212.0875,N,00005.9627,E,2,10,0.79,4.5,M,47.0,M,0000,0000*66
$GPGGA,171642.400,5212.0875,N,00005.9627,E,2,10,0.79,4.5,M,47.0,M,0000,0000*60
$PMTKLOG,0,1,a,31,15,0,0,1,0,0*11
$PMTK001,183,3*3A
$PMTK869,2,0*37
$GPGGA,171642.600,5212.0875,N,00005.9627,E,2,10,0.79,4.5,M,47.0,M,0000,0000*62
$GPGGA,171642.800,5212.0875,N,00005.9627,E,2,10,0.79,4.5,M,47.0,M,0000,0000*6C

$GPGGA,171643.000,5212.0875,N,00005.9627,E,2,10,0.79,4.5,M,47.0,M,0000,0000*65
$GPGGA,171643.200,5212.0875,N,00005.9627,E,2,10,0.79,4.5,M,47.0,M,0000,0000*67
$GPGGA,171643.400,5212.0875,N,00005.9627,E,2,10,0.79,4.5,M,47.0,M,0000,0000*61
$PMTKLOG,0,1,a,31,15,0,0,1,0,0*11
$PMTK001,183,3*3A
$PMTK869,2,0*37
$GPGGA,171643.600,5212.0875,N,00005.9627,E,2,10,0.79,4.5,M,47.0,M,0000,0000*63
$GPGGA,171643.800,5212.0875,N,00005.9627,E,2,10,0.79,4.5,M,47.0,M,0000,0000*6D

$GPGGA,171644.000,5212.0875,N,00005.9627,E,2,10,0.79,4.5,M,47.0,M,0000,0000*62
$GPGGA,171644.200,5212.0875,N,00005.9627,E,2,10,0.79,4.5,M,47.0,M,0000,0000*60
$GPGGA,171644.400,5212.0875,N,00005.9627,E,2,10,0.79,4.5,M,47.0,M,0000,0000*66
$PMTKLOG,0,1,a,31,15,0,0,1,0,0*11
$PMTK001,183,3*3A
$PMTK869,2,0*37
$GPGGA,171644.600,5212.0875,N,00005.9627,E,2,10,0.79,4.5,M,47.0,M,0000,0000*64
$GPGGA,171644.800,5212.0875,N,00005.9627,E,2,10,0.79,4.5,M,47.0,M,0000,0000*6A

$GPGGA,171645.000,5212.0875,N,00005.9627,E,2,10,0.79,4.5,M,47.0,M,0000,0000*63
$GPGGA,171645.200,5212.0875,N,00005.9627,E,2,10,0.79,4.5,M,47.0,M,0000,0000*61
$GPGGA,171645.400,5212.0875,N,00005.9627,E,2,10,0.79,4.5,M,47.0,M,0000,0000*67
$PMTKLOG,0,1,a,31,15,0,0,1,0,0*11
$PMTK001,183,3*3A
$PMTK869,2,0*37
$GPGGA,171645.600,5212.0875,N,00005.9627,E,2,10,0.79,4.5,M,47.0,M,0000,0000*65
$GPGGA,171645.800,5212.0875,N,00005.9627,E,2,10,0.79,4.5,M,47.0,M,0000,0000*6B

$GPGGA,171646.000,5212.0875,N,00005.9627,E,2,10,0.79,4.5,M,47.0,M,0000,0000*60
$GPGGA,171646.200,5212.0875,N,00005.9627,E,2,10,0.79,4.5,M,47.0,M,0000,0000*62
$GPGGA,171646.400,5212.0875,N,00005.9627,E,2,10,0.79,4.5,M,47.0,M,0000,0000*64
$PMTKLOG,0,1,a,31,15,0,0,1,0,0*11
$PMTK001,183,3*3A
$PMTK869,2,0*37
$GPGGA,171646.600,5212.0875,N,00005.9627,E,2,10,0.79,4.5,M,47.0,M,0000,0000*66
$GPGGA,171646.800,5212.0875,N,00005.9627,E,2,10,0.79,4.5,M,47.0,M,0000,0000*68

$GPGGA,171647.000,5212.0875,N,00005.9627,E,2,10,0.79,4.5,M,47.0,M,0000,0000*61
$GPGGA,171647.200,5212.0875,N,00005.9627,E,2,10,0.79,4.5,M,47.0,M,0000,0000*63
$GPGGA,171647.400,5212.0875,N,00005.9627,E,2,10,0.79,4.5,M,47.0,M,0000,0000*65
$PMTKLOG,0,1,a,31,15,0,0,1,0,0*11
$PMTK001,183,3*3A
$PMTK869,2,0*37
$GPGGA,171647.600,5212.0875,N,00005.9627,E,2,10,0.79,4.5,M,47.0,M,0000,0000*67
$GPGGA,171647.800,5212.0875,N,00005.9627,E,2,10,0.79,4.5,M,47.0,M,0000,0000*69

$GPGGA,171648.000,5212.0875,N,00005.9627,E,2,10,0.79,4.5,M,47.0,M,0000,0000*6E
$GPGGA,171648.200,5212.0875,N,00005.9627,E,2,10,0.79,4.5,M,47.0,M,0000,0000*6C
$GPGGA,171648.400,5212.0875,N,00005.9627,E,2,10,0.79,4.5,M,47.0,M,0000,0000*6A
$PMTKLOG,0,1,a,31,15,0,0,1,0,0*11
$PMTK001,183,3*3A
$PMTK869,2,0*37
$GPGGA,171648.600,5212.0875,N,00005.9627,E,2,10,0.79,4.5,M,47.0,M,0000,0000*68
$GPGGA,171648.800,5212.0875,N,00005.9627,E,2,10,0.79,4.5,M,47.0,M,0000,0000*66

$GPGGA,171649.000,5212.0875,N,00005.9627,E,2,10,0.79,4.5,M,47.0,M,0000,0000*6F
$GPGGA,171649.200,5212.0875,N,00005.9627,E,2,10,0.79,4.5,M,47.0,M,0000,0000*6D
$GPGGA,171649.400,5212.0875,N,00005.9627,E,2,10,0.79,4.5,M,47.0,M,0000,0000*6B
$PMTKLOG,0,1,a,31,15,0,0,1,0,0*11
$PMTK001,183,3*3A
$PMTK869,2,0*37
$GPGGA,171649.600,5212.0875,N,00005.9627,E,2,10,0.79,4.5,M,47.0,M,0000,0000*69
$GPGGA,171649.800,5212.0875,N,00005.9627,E,2,10,0.79,4.5,M,47.0,M,0000,0000*67

$GPGGA,171650.000,5212.0875,N,00005.9627,E,2,10,0.79,4.5,M,47.0,M,0000,0000*67
$GPGGA,171650.200,5212.0875,N,00005.9627,E,2,10,0.79,4.5,M,47.0,M,0000,0000*65
$GPGGA,171650.400,5212.0875,N,00005.9627,E,2,10,0.79,4.5,M,47.0,M,0000,0000*63
$PMTKLOG,0,1,a,31,15,0,0,1,0,0*11
$PMTK001,183,3*3A
$PMTK869,2,0*37
$GPGGA,171650.600,5212.0875,N,00005.9627,E,2,10,0.79,4.5,M,47.0,M,0000,0000*61
$GPGGA,171650.800,5212.0875,N,00005.9627,E,2,10,0.79,4.5,M,47.0,M,0000,0000*6F

$GPGGA,171651.000,5212.0875,N,00005.9627,E,2,10,0.79,4.5,M,47.0,M,0000,0000*66
$GPGGA,171651.200,5212.0875,N,00005.9627,E,2,10,0.79,4.5,M,47.0,M,0000,0000*64
$GPGGA,171651.400,5212.0875,N,00005.9627,E,2,10,0.79,4.5,M,47.0,M,0000,0000*62
$PMTKLOG,0,1,a,31,15,0,0,1,0,0*11
$PMTK001,183,3*3A
$PMTK869,2,0*37
$GPGGA,171651.600,5212.0875,N,00005.9627,E,2,10,0.79,4.5,M,47.0,M,0000,0000*60
$GPGGA,171651.800,5212.0875,N,00005.9627,E,2,10,0.79,4.5,M,47.0,M,0000,0000*6E

$GPGGA,171652.000,5212.0875,N,00005.9627,E,2,10,0.79,4.5,M,47.0,M,0000,0000*65
$GPGGA,171652.200,5212.0875,N,00005.9627,E,2,10,0.79,4.5,M,47.0,M,0000,0000*67
$GPGGA,171652.400,5212.0875,N,00005.9627,E,2,10,0.79,4.5,M,47.0,M,0000,0000*61
$PMTKLOG,0,1,a,31,15,0,0,1,0,0*11
$PMTK001,183,3*3A
$PMTK869,2,0*37
$GPGGA,171652.600,5212.0875,N,00005.9627,E,2,10,0.79,4.5,M,47.0,M,0000,0000*63
$GPGGA,171652.800,5212.0875,N,00005.9627,E,2,10,0.79,4.5,M,47.0,M,0000,0000*6D

$GPGGA,171653.000,5212.0875,N,00005.9627,E,2,10,0.79,4.5,M,47.0,M,0000,0000*64
$GPGGA,171653.200,5212.0875,N,00005.9627,E,2,10,0.79,4.5,M,47.0,M,0000,0000*66
$GPGGA,171653.400,5212.0875,N,00005.9627,E,2,10,0.79,4.5,M,47.0,M,0000,0000*60
$PMTKLOG,0,1,a,31,15,0,0,1,0,0*11
$PMTK001,183,3*3A
$PMTK869,2,0*37
$GPGGA,171653.600,5212.0875,N,00005.9627,E,2,10,0.79,4.5,M,47.0,M,0000,0000*62
$GPGGA,171653.800,5212.0875,N,00005.9627,E,2,10,0.79,4.5,M,47.0,M,0000,0000*6C

$GPGGA,171654.000,5212.0875,N,00005.9627,E,2,10,0.79,4.5,M,47.0,M,0000,0000*63
$GPGGA,171654.200,5212.0875,N,00005.9627,E,2,10,0.79,4.5,M,47.0,M,0000,0000*61
$GPGGA,171654.400,5212.0875,N,00005.9627,E,2,10,0.79,4.5,M,47.0,M,0000,0000*67
$PMTKLOG,0,1,a,31,15,0,0,1,0,0*11
$PMTK001,183,3*3A
$PMTK869,2,0*37
$GPGGA,171654.600,5212.0875,N,00005.9627,E,2,10,0.79,4.5,M,47.0,M,0000,0000*65
$GPGGA,171654.800,5212.0875,N,00005.9627,E,2,10,0.79,4.5,M,47.0,M,0000,0000*6B

$GPGGA,171655.000,5212.0875,N,00005.9627,E,2,10,0.79,4.5,M,47.0,M,0000,0000*62
$GPGGA,171655.200,5212.0875,N,00005.9627,E,2,10,0.79,4.5,M,47.0,M,0000,0000*60
$GPGGA,171655.400,5212.0875,N,00005.9627,E,2,10,0.79,4.5,M,47.0,M,0000,0000*66
$PMTKLOG,0,1,a,31,15,0,0,1,0,0*11
$PMTK001,183,3*3A
$PMTK869,2,0*37
$GPGGA,171655.600,5212.0875,N,00005.9627,E,2,10,0.79,4.5,M,47.0,M,0000,0000*64
$GPGGA,171655.800,5212.0875,N,00005.9627,E,2,10,0.79,4.5,M,47.0,M,0000,0000*6A

$GPGGA,171656.000,5212.0875,N,00005.9627,E,2,10,0.79,4.5,M,47.0,M,0000,0000*61
$GPGGA,171656.200,5212.0875,N,00005.9627,E,2,10,0.79,4.5,M,47.0,M,0000,0000*63
$GPGGA,171656.400,5212.0875,N,00005.9627,E,2,10,0.79,4.5,M,47.0,M,0000,0000*65
$PMTKLOG,0,1,a,31,15,0,0,1,0,0*11
$PMTK001,183,3*3A
$PMTK869,2,0*37
$GPGGA,171656.600,5212.0875,N,00005.9627,E,2,10,0.79,4.5,M,47.0,M,0000,0000*67
$GPGGA,171656.800,5212.0875,N,00005.9627,E,2,10,0.79,4.5,M,47.0,M,0000,0000*69

$GPGGA,171657.000,5212.0875,N,00005.9627,E,2,10,0.79,4.5,M,47.0,M,0000,0000*60
$GPGGA,171657.200,5212.0875,N,00005.9627,E,2,10,0.79,4.5,M,47.0,M,0000,0000*62
$GPGGA,171657.400,5212.0875,N,00005.9627,E,2,10,0.79,4.5,M,47.0,M,0000,0000*64
$PMTKLOG,0,1,a,31,15,0,0,1,0,0*11
$PMTK001,183,3*3A
$PMTK869,2,0*37
$GPGGA,171657.600,5212.0875,N,00005.9627,E,2,10,0.79,4.5,M,47.0,M,0000,0000*66
$GPGGA,171657.800,5212.0875,N,00005.9627,E,2,10,0.79,4.5,M,47.0,M,0000,0000*68

$GPGGA,171658.000,5212.0875,N,00005.9627,E,2,10,0.79,4.5,M,47.0,M,0000,0000*6F
$GPGGA,171658.200,5212.0875,N,00005.9627,E,2,10,0.79,4.5,M,47.0,M,0000,0000*6D
$GPGGA,171658.400,5212.0875,N,00005.9627,E,2,10,0.79,4.5,M,47.0,M,0000,0000*6B
$PMTKLOG,0,1,a,31,15,0,0,1,0,0*11
$PMTK001,183,3*3A
$PMTK869,2,0*37
$GPGGA,171658.600,5212.0875,N,00005.9627,E,2,10,0.79,4.5,M,47.0,M,0000,0000*69
$GPGGA,171658.800,5212.0875,N,00005.9627,E,2,10,0.79,4.5,M,47.0,M,0000,0000*67

$GPGGA,171659.000,5212.0875,N,00005.9627,E,2,10,0.79,4.5,M,47.0,M,0000,0000*6E
$GPGGA,171659.200,5212.0875,N,00005.9627,E,2,10,0.79,4.5,M,47.0,M,0000,0000*6C
$GPGGA,171659.400,5212.0875,N,00005.9627,E,2,10,0.79,4.5,M,47.0,M,0000,0000*6A
$PMTKLOG,0,1,a,31,15,0,0,1,0,0*11
$PMTK001,183,3*3A
$PMTK869,2,0*37
$GPGGA,171659.600,5212.0875,N,00005.9627,E,2,10,0.79,4.5,M,47.0,M,0000,0000*68
$GPGGA,171659.800,5212.0875,N,00005.9627,E,2,10,0.79,4.5,M,47.0,M,0000,0000*66

$GPGGA,171700.000,5212.0875,N,00005.9627,E,2,10,0.79,4.5,M,47.0,M,0000,0000*63
