$GPGGA,172605.300,5212.0885,N,00005.9617,E,2,10,0.79,5.9,M,47.0,M,0000,0000*66
$GPGGA,172605.400,5212.0885,N,00005.9617,E,2,10,0.79,5.9,M,47.0,M,0000,0000*61
$GPGGA,172605.500,5212.0885,N,00005.9617,E,2,10,0.79,5.9,M,47.0,M,0000,0000*60
$PMTKLOG,0,1,a,31,15,0,0,1,0,0*11
$PMTK001,183,3*3A
$PMTK869,2,0*37

$GPGGA,172605.600,5212.0885,N,00005.9617,E,2,10,0.79,5.9,M,47.0
,M,0000,0000*63
$PMTKLOG,0,1,a,31,15,0,0,1,0,0*11
$PMTK001,183,3*3A
$PMTK869,2,0*37
$GPGGA,172605.700,5212.0886,N,00005.9617,E,2,10,0.79,5.9,M,47.0,M,0000,0000*61
$PMTKLOG,0,1,a,31,15,0,0,1,0,0*11
$PMTK001,183,3*3A
$PMTK869,2,0*37

$GPGGA,172605.800,5212.0886,N,00005.9617,E,2,10,0.79,5.9,M,47.0,M,0000,0000*6E
$PMTKLOG,0,1,a,31,15,0,0,1,0,0*11
$PMTK001,183,3*3A
$PMTK869,2,0*37

$GPGGA,172605.900,5212.0886,N,00005.9617,E,2,10,0.79,5.9,M,47.0,M,0000,0000*6F
$PMTKLOG,0,1,a,31,15,0,0,1,0,0*11
$PMTK001,183,3*3A
$PMTK869,2,0*37

$GPGGA,172606.000,5212.0886,N,00005.9617,E,2,10,0.79,5.9,M,47.0,M,0000,0000*65
$PMTKLOG,0,1,a,31,15,0,0,1,0,0*11
$PMTK001,183,3*3A
$PMTK869,2,0*37

$GPGGA,172606.100,5212.0886,N,00005.9617,E,2,10,0.79,5.9,M,47.0,M,0000,0000*64
$PMTKLOG,0,1,a,31,15,0,0,1,0,0*11
$PMTK001,183,3*3A
$PMTK869,2,0*37

$GPGGA,172606.200,5212.0886,N,00005.9617,E,2,10,0.79,5.9,M,47.0,M,0000,0000*67
$PMTKLOG,0,1,a,31,15,0,0,1,0,0*11
$PMTK001,183,3*3A
$PMTK869,2,0*37

$GPGGA,172606.300,5212.0886,N,00005.9617,E,2,10,0.79,5.9,M,47.0,M,0000,0000*66
$PMTKLOG,0,1,a,31,15,0,0,1,0,0*11
$PMTK001,183,3*3A
$PMTK869,2,0*37

$GPGGA,172606.400,5212.0886,N,00005.9617,E,2,10,0.79,5.9,M,47.0,M,0000,0000*61

$GPGGA,172606.500,5212.0886,N,00005.9617,E,2,10,0.79,6.0,M,47.0,M,0000,0000*6A
$PMTKLOG,0,1,a,31,15,0,0,1,0,0*11
$PMTK001,183,3*3A
$PMTK869,2,0*37

$GPGGA,172606.600,5212.0886,N,00005.9617,E,2,10,0.79,6.0,M,47.0,M,0000,0000*69
$PMTKLOG,0,1,a,31,15,0,0,1,0,0*11
$PMTK001,183,3*3A
$PMTK869,2,0*37

$GPGGA,172606.700,5212.0886,N,00005.9617,E,2,10,0.79,6.0,M,47.0,M,0000,0000*68
$PMTKLOG,0,1,a,31,15,0,0,1,0,0*11
$PMTK001,183,3*3A
$PMTK869,2,0*37
$GPGGA,172606.800,5212.0886,N,00005.9617,E,2,10,0.79,6.0,M,47.0,M,0000,0000*67
$PMTKLOG,0,1,a,31,15,0,0,1,0,0
*11
$PMTK001,183,3*3A
$PMTK869,2,0*37
$GPGGA,172606.900,5212.0886,N,00005.9617,E,2,10,0.79,6.0,M,47.0,M,0000,0000*66
$PMTKLOG,0,1,a,31,15,0,0,1,0,0*11
$PMTK001,183,3*3A
$PMTK869,2,0*37

$GPGGA,172607.000,5212.0886,N,00005.9617,E,2,10,0.79,6.0,M,47.0,M,0000,0000*6E
$PMTKLOG,0,1,a,31,15,0,0,1,0,0*11
$PMTK001,183,3*3A
$PMTK869,2,0*37

$GPGGA,172607.100,5212.0886,N,00005.9617,E,2,10,0.79,6.0,M,47.0,M,0000,0000*6F
$PMTKLOG,0,1,a,31,15,0,0,1,0,0*11
$PMTK001,183,3*3A
$PMTK869,2,0*37

$GPGGA,172607.200,5212.0886,N,00005.9617,E,2,10,0.79,6.0,M,47.0,M,0000,0000*6C
$PMTKLOG,0,1,a,31,15,0,0,1,0,0*11
$PMTK001,183,3*3A
$PMTK869,2,0*37

$GPGGA,172607.300,5212.0886,N,00005.9617,E,2,10,0.79,6.0,M,47.0,M,0000,0000*6D
$PMTKLOG,0,1,a,31,15,0,0,1,0,0*11
$PMTK001,183,3*3A
$PMTK869,2,0*37

$GPGGA,172607.400,5212.0886,N,00005.9617,E,2,10,0.79,6.0,M,47.0,M,0000,0000*6A
$PMTKLOG,0,1,a,31,15,0,0,1,0,0*11
$PMTK001,183,3*3A
$PMTK869,2,0*37

$GPGGA,172607.500,5212.0886,N,00005.9617,E,2,10,0.79,6.0,M,47.0,M,0000,0000*6B
$PMTKLOG,0,1,a,31,15,0,0,1,0,0*11
$PMTK001,183,3*3A
$PMTK869,2,0*37

$GPGGA,172607.600,5212.0886,N,00005.9617,E,2,10,0.79,6.0,M,47.0,M,0000,0000*68

$GPGGA,172607.700,5212.0886,N,00005.9617,E,2,10,0.79,6.0,M,47.0,M,0000,0000*69
$PMTKLOG,0,1,a,31,15,0,0,1,0,0*11
$PMTK001,183,3*3A
$PMTK869,2,0*37

$GPGGA,172607.800,5212.0886,N,00005.9617,E,2,10,0.79,6.0,M,47.0,M,0000,0000*66
$PMTKLOG,0,1,a,31,15,0,0,1,0,0*11
$PMTK001,183,3*3A
$PMTK869,2,0*37
$GPGGA,172607.900,5212.0886,N,00005.9
617,E,2,10,0.79,6.0,M,47.0,M,0000,0000*67
$PMTKLOG,0,1,a,31,15,0,0,1,0,0*11
$PMTK001,183,3*3A
$PMTK869,2,0*37
$GPGGA,172608.000,5212.0886,N,00005.9617,E,2,10,0.79,6.0,M,47.0,M,0000,0000*61
$PMTKLOG,0,1,a,31,1
5,0,0,1,0,0*11
$PMTK001,183,3*3A
$PMTK869,2,0*37
$GPGGA,172608.100,5212.0886,N,00005.9617,E,2,10,0.79,6.0,M,47.0,M,0000,0000*60
$PMTKLOG,0,1,a,31,15,0,0,1,0,0*11
$PMTK001,183,3*3A
$PMTK869,2,0*37

$GPGGA,172608.200,5212.0886,N,00005.9617,E,2,10,0.79,6.0,M,47.0,M,0000,0000*63
$PMTKLOG,0,1,a,31,15,0,0,1,0,0*11
$PMTK001,183,3*3A
$PMTK869,2,0*37

$GPGGA,172608.300,5212.0886,N,00005.9617,E,2,10,0.79,6.0,M,47.0,M,0000,0000*62
$PMTKLOG,0,1,a,31,15,0,0,1,0,0*11
$PMTK001,183,3*3A
$PMTK869,2,0*37

$GPGGA,172608.400,5212.0886,N,00005.9617,E,2,10,0.79,6.0,M,47.0,M,0000,0000*65
$PMTKLOG,0,1,a,31,15,0,0,1,0,0*11
$PMTK001,183,3*3A
$PMTK869,2,0*37

$GPGGA,172608.500,5212.0886,N,00005.9617,E,2,10,0.79,6.0,M,47.0,M,0000,0000*64
$PMTKLOG,0,1,a,31,15,0,0,1,0,0*11
$PMTK001,183,3*3A
$PMTK869,2,0*37

$GPGGA,172608.600,5212.0886,N,00005.9617,E,2,10,0.79,6.0,M,47.0,M,0000,0000*67
$PMTKLOG,0,1,a,31,15,0,0,1,0,0*11
$PMTK001,183,3*3A
$PMTK869,2,0*37

$GPGGA,172608.700,5212.0886,N,00005.9617,E,2,10,0.79,6.0,M,47.0,M,0000,0000*66
$PMTKLOG,0,1,a,31,15,0,0,1,0,0*11
$PMTK001,183,3*3A
$PMTK869,2,0*37

$GPGGA,172608.800,5212.0886,N,00005.9617,E,2,10,0.79,6.1,M,47.0,M,0000,0000*68

$GPGGA,172608.900,5212.0886,N,00005.9617,E,2,10,0.79,6.1,M,47.0,M,0000,0000*69
$PMTKLOG,0,1,a,31,15,0,0,1,0,0*11
$PMTK001,183,3*3A
$PMTK869,2,0*37

$GPGGA,172609.000,5212.0886,N,00005.9617,E,2,10,0.79,6.1,M,47.0,M,0000,0000*61
$PMTKLOG,0,1,a,31,15,0,0,1,0,0*11
$PMTK001,183,3*3A
$PMTK869,2,0*37
$GPGGA,172609.100,5212.0886
,N,00005.9617,E,2,10,0.79,6.1,M,47.0,M,0000,0000*60
$PMTKLOG,0,1,a,31,15,0,0,1,0,0*11
$PMTK001,183,3*3A
$PMTK869,2,0*37
$GPGGA,172609.200,5212.0886,N,00005.9617,E,2,10,0.79,6.1,M,47.0,M,0000,0000*63
$PMTKLOG,0,1,a,31,15,0,0,1,0,0*11
$PMTK001,183,3*3A
$PMTK869,2,0*37

$GPGGA,172609.300,5212.0886,N,00005.9617,E,2,10,0.79,6.1,M,47.0,M,0000,0000*62
$PMTKLOG,0,1,a,31,15,0,0,1,0,0*11
$PMTK001,183,3*3A
$PMTK869,2,0*37

$GPGGA,172609.400,5212.0886,N,00005.9617,E,2,10,0.79,6.1,M,47.0,M,0000,0000*65
$PMTKLOG,0,1,a,31,15,0,0,1,0,0*11
$PMTK001,183,3*3A
$PMTK869,2,0*37

$GPGGA,172609.500,5212.0886,N,00005.9617,E,2,10,0.79,6.1,M,47.0,M,0000,0000*64
$PMTKLOG,0,1,a,31,15,0,0,1,0,0*11
$PMTK001,183,3*3A
$PMTK869,2,0*37

$GPGGA,172609.600,5212.0886,N,00005.9617,E,2,10,0.79,6.1,M,47.0,M,0000,0000*67
$PMTKLOG,0,1,a,31,15,0,0,1,0,0*11
$PMTK001,183,3*3A
$PMTK869,2,0*37

$GPGGA,172609.700,5212.0886,N,00005.9617,E,2,10,0.79,6.1,M,47.0,M,0000,0000*66
$PMTKLOG,0,1,a,31,15,0,0,1,0,0*11
$PMTK001,183,3*3A
$PMTK869,2,0*37

$GPGGA,172609.800,5212.0886,N,00005.9617,E,2,10,0.79,6.1,M,47.0,M,0000,0000*69
$PMTKLOG,0,1,a,31,15,0,0,1,0,0*11
$PMTK001,183,3*3A
$PMTK869,2,0*37

$GPGGA,172609.900,5212.0886,N,00005.9617,E,2,10,0.79,6.1,M,47.0,M,0000,0000*68

$GPGGA,172610.000,5212.0886,N,00005.9617,E,2,10,0.79,6.1,M,47.0,M,0000,0000*69
$PMTKLOG,0,1,a,31,15,0,0,1,0,0*11
$PMTK001,183,3*3A
$PMTK869,2,0*37

$GPGGA,172610.100,5212.0886,N,00005.9617,E,2,10,0.79,6.1,M,47.0,M,0000,0000*68
$PMTKLOG,0,1,a,31,15,0,0,1,0,0*11
$PMTK001,183,3*3A
$PMTK869,2,0*37

$GPGGA,172610.200,5212.0886,N,00005.9617,E,2,10,0.79,6.1,M,47.0,M,0000,0000*6B
$PMTKLOG,0,1,a,31,15,0,0,1,0,0*11
$PMTK001,183,3*3A
$PMTK869,2,0*37
$GPGGA,172610.300,5212.0886,N,00005.9617,E,2,10,0.79,6.1,M,47.0,M,0000,0000*6A
$PMTK
LOG,0,1,a,31,15,0,0,1,0,0*11
$PMTK001,183,3*3A
$PMTK869,2,0*37
$GPGGA,172610.400,5212.0886,N,00005.9617,E,2,10,0.79,6.1,M,47.0,M,0000,0000*6D
$PMTKLOG,0,1,a,31,15,0,0,1,0,0*11
$PMTK001,183,3*3A
$PMTK869,2,0*37

$GPGGA,172610.500,5212.0886,N,00005.9617,E,2,10,0.79,6.1,M,47.0,M,0000,0000*6C
$PMTKLOG,0,1,a,31,15,0,0,1,0,0*11
$PMTK001,183,3*3A
$PMTK869,2,0*37

$GPGGA,172610.600,5212.0886,N,00005.9617,E,2,10,0.79,6.1,M,47.0,M,0000,0000*6F
$PMTKLOG,0,1,a,31,15,0,0,1,0,0*11
$PMTK001,183,3*3A
$PMTK869,2,0*37

$GPGGA,172610.700,5212.0886,N,00005.9617,E,2,10,0.79,6.1,M,47.0,M,0000,0000*6E
$PMTKLOG,0,1,a,31,15,0,0,1,0,0*11
$PMTK001,183,3*3A
$PMTK869,2,0*37

$GPGGA,172610.800,5212.0886,N,00005.9617,E,2,10,0.79,6.1,M,47.0,M,0000,0000*61
$PMTKLOG,0,1,a,31,15,0,0,1,0,0*11
$PMTK001,183,3*3A
$PMTK869,2,0*37

$GPGGA,172610.900,5212.0886,N,00005.9617,E,2,10,0.79,6.1,M,47.0,M,0000,0000*60
$PMTKLOG,0,1,a,31,15,0,0,1,0,0*11
$PMTK001,183,3*3A
$PMTK869,2,0*37

$GPGGA,172611.000,5212.0886,N,00005.9617,E,2,10,0.79,6.1,M,47.0,M,0000,0000*68
$PMTKLOG,0,1,a,31,15,0,0,1,0,0*11
$PMTK001,183,3*3A
$PMTK869,2,0*37

$GPGGA,172611.100,5212.0886,N,00005.9617,E,2,10,0.79,6.1,M,47.0,M,0000,0000*69

$GPGGA,172611.200,5212.0886,N,00005.9617,E,2,10,0.79,6.2,M,47.0,M,0000,0000*69
$PMTKLOG,0,1,a,31,15,0,0,1,0,0*11
$PMTK001,183,3*3A
$PMTK869,2,0*37

$GPGGA,172611.300,5212.0886,N,00005.9617,E,2,10,0.79,6.2,M,47.0,M,0000,0000*68
$PMTKLOG,0,1,a,31,15,0,0,1,0,0*11
$PMTK001,183,3*3A
$PMTK869,2,0*37
$GPGGA,172611.400,5212.0886,N,00005.9617,E,2,10,0.79,6.2,M,47.0,M,0000
,0000*6F
$PMTKLOG,0,1,a,31,15,0,0,1,0,0*11
$PMTK001,183,3*3A
$PMTK869,2,0*37
$GPGGA,172611.500,5212.0886,N,00005.9617,E,2,10,0.79,6.2,M,47.0,M,0000,0000*6E
$PMTKLOG,0,1,a,31,15,0,0,1,0,0*11
$PMTK001,183,3*3A
$PMTK869,
2,0*37
$GPGGA,172611.600,5212.0886,N,00005.9617,E,2,10,0.79,6.2,M,47.0,M,0000,0000*6D
$PMTKLOG,0,1,a,31,15,0,0,1,0,0*11

$PMTK001,183,3*3A
$PMTK869,2,0*37
$GPGGA,172611.700,5212.0886,N,00005.9617,E,2,10,0.79,6.2,M,47.0,M,0000,0000*6C
$PMTKLOG,0,1,a,31,15,0,0,1,0,0*11
$PMTK001,183,3*3A
$PMTK869,2,0*37

$GPGGA,172611.800,5212.0886,N,00005.9617,E,2,10,0.79,6.2,M,47.0,M,0000,0000*63
$PMTKLOG,0,1,a,31,15,0,0,1,0,0*11
$PMTK001,183,3*3A
$PMTK869,2,0*37

$GPGGA,172611.900,5212.0886,N,00005.9617,E,2,10,0.79,6.2,M,47.0,M,0000,0000*62
$PMTKLOG,0,1,a,31,15,0,0,1,0,0*11
$PMTK001,183,3*3A
$PMTK869,2,0*37

$GPGGA,172612.000,5212.0886,N,00005.9617,E,2,10,0.79,6.2,M,47.0,M,0000,0000*68
$PMTKLOG,0,1,a,31,15,0,0,1,0,0*11
$PMTK001,183,3*3A
$PMTK869,2,0*37

$GPGGA,172612.100,5212.0886,N,00005.9616,E,2,10,0.79,6.2,M,47.0,M,0000,0000*68
$PMTKLOG,0,1,a,31,15,0,0,1,0,0*11
$PMTK001,183,3*3A
$PMTK869,2,0*37

$GPGGA,172612.200,5212.0886,N,00005.9616,E,2,10,0.79,6.2,M,47.0,M,0000,0000*6B

$GPGGA,172612.300,5212.0886,N,00005.9616,E,2,10,0.79,6.2,M,47.0,M,0000,0000*6A
$PMTKLOG,0,1,a,31,15,0,0,1,0,0*11
$PMTK001,183,3*3A
$PMTK869,2,0*37

$GPGGA,172612.400,5212.0886,N,00005.9617,E,2,10,0.79,6.2,M,47.0,M,0000,0000*6C
$PMTKLOG,0,1,a,31,15,0,0,1,0,0*11
$PMTK001,183,3*3A
$PMTK869,2,0*37

$GPGGA,172612.500,5212.0886,N,00005.9617,E,2,10,0.79,6.2,M,47.0,M,0000,0000*6D
$PMTKLOG,0,1,a,31,15,0,0,1,0,0*11
$PMTK001,183,3*3A
$PMTK869,2,0*37

$GPGGA,172612.600,5212.0886,N,00005.9616,E,2,10,0.79,6.2,M,47.0,M,0000,0000*6F
$PMTKLOG,0,1,a,31,15,0,0,1,0,0*11
$PMTK001,183,3*3A
$PMTK869,2,0*37
$GPGGA,172612.700,5212.0886,N,00005.9616,E,
2,10,0.79,6.2,M,47.0,M,0000,0000*6E
$PMTKLOG,0,1,a,31,15,0,0,1,0,0*11
$PMTK001,183,3*3A
$PMTK869,2,0*37
$GPGGA,172612.800,5212.0886,N,00005.9616,E,2,10,0.79,6.2,M,47.0,M,0000,0000*61
$PMTKLOG,0,1,a,31,15,0,0,1,0,0*11
$PMTK001,183,3*3A
$PMTK869,2,0*37

$GPGGA,172612.900,5212.0886,N,00005.9616,E,2,10,0.79,6.2,M,47.0,M,0000,0000*60
$PMTKLOG,0,1,a,31,15,0,0,1,0,0*11
$PMTK001,183,3*3A
$PMTK869,2,0*37

$GPGGA,172613.000,5212.0886,N,00005.9616,E,2,10,0.79,6.2,M,47.0,M,0000,0000*68
$PMTKLOG,0,1,a,31,15,0,0,1,0,0*11
$PMTK001,183,3*3A
$PMTK869,2,0*37

$GPGGA,172613.100,5212.0886,N,00005.9616,E,2,10,0.79,6.2,M,47.0,M,0000,0000*69
$PMTKLOG,0,1,a,31,15,0,0,1,0,0*11
$PMTK001,183,3*3A
$PMTK869,2,0*37

$GPGGA,172613.200,5212.0886,N,00005.9616,E,2,10,0.79,6.2,M,47.0,M,0000,0000*6A
$PMTKLOG,0,1,a,31,15,0,0,1,0,0*11
$PMTK001,183,3*3A
$PMTK869,2,0*37

$GPGGA,172613.300,5212.0886,N,00005.9616,E,2,10,0.79,6.2,M,47.0,M,0000,0000*6B
$PMTKLOG,0,1,a,31,15,0,0,1,0,0*11
$PMTK001,183,3*3A
$PMTK869,2,0*37

$GPGGA,172613.400,5212.0886,N,00005.9616,E,2,10,0.79,6.2,M,47.0,M,0000,0000*6C

$GPGGA,172613.500,5212.0886,N,00005.9616,E,2,10,0.79,6.2,M,47.0,M,0000,0000*6D
$PMTKLOG,0,1,a,31,15,0,0,1,0,0*11
$PMTK001,183,3*3A
$PMTK869,2,0*37

$GPGGA,172613.600,5212.0886,N,00005.9616,E,2,10,0.79,6.2,M,47.0,M,0000,0000*6E
$PMTKLOG,0,1,a,31,15,0,0,1,0,0*11
$PMTK001,183,3*3A
$PMTK869,2,0*37

$GPGGA,172613.700,5212.0886,N,00005.9616,E,2,10,0.79,6.2,M,47.0,M,0000,0000*6F
$PMTKLOG,0,1,a,31,15,0,0,1,0,0*11
$PMTK001,183,3*3A
$PMTK869,2,0*37
$GPGGA,172613
.800,5212.0886,N,00005.9616,E,2,10,0.79,6.2,M,47.0,M,0000,0000*60
$PMTKLOG,0,1,a,31,15,0,0,1,0,0*11
$PMTK001,183,3*3A
$PMTK869,2,0*37
$GPGGA,172613.900,5212.0886,N,00005.9616,E,2,10,0.79,6.2,M,47.0,M,0000,0000*61

$PMTKLOG,0,1,a,31,15,0,0,1,0,0*11
$PMTK001,183,3*3A
$PMTK869,2,0*37
$GPGGA,172614.000,5212.0886,N,00005.9616,E,2,10,0.79,6.2,M,47.0,M,0000,0000*6F
$PMTKLOG,0,1,a,31,15,0,0,1,0,0*11
$PMTK001,183,3*3A
$PMTK869,2,0*37

$GPGGA,172614.100,5212.0886,N,00005.9616,E,2,10,0.79,6.2,M,47.0,M,0000,0000*6E
$PMTKLOG,0,1,a,31,15,0,0,1,0,0*11
$PMTK001,183,3*3A
$PMTK869,2,0*37

$GPGGA,172614.200,5212.0886,N,00005.9616,E,2,10,0.79,6.2,M,47.0,M,0000,0000*6D
$PMTKLOG,0,1,a,31,15,0,0,1,0,0*11
$PMTK001,183,3*3A
$PMTK869,2,0*37

$GPGGA,172614.300,5212.0886,N,00005.9616,E,2,10,0.79,6.2,M,47.0,M,0000,0000*6C
$PMTKLOG,0,1,a,31,15,0,0,1,0,0*11
$PMTK001,183,3*3A
$PMTK869,2,0*37

$GPGGA,172614.400,5212.0886,N,00005.9616,E,2,10,0.79,6.2,M,47.0,M,0000,0000*6B
$PMTKLOG,0,1,a,31,15,0,0,1,0,0*11
$PMTK001,183,3*3A
$PMTK869,2,0*37

$GPGGA,172614.500,5212.0886,N,00005.9616,E,2,10,0.79,6.2,M,47.0,M,0000,0000*6A

$GPGGA,172614.600,5212.0886,N,00005.9616,E,2,10,0.79,6.2,M,47.0,M,0000,0000*69
$PMTKLOG,0,1,a,31,15,0,0,1,0,0*11
$PMTK001,183,3*3A
$PMTK869,2,0*37

$GPGGA,172614.700,5212.0886,N,00005.9616,E,2,10,0.79,6.2,M,47.0,M,0000,0000*68
$PMTKLOG,0,1,a,31,15,0,0,1,0,0*11
$PMTK001,183,3*3A
$PMTK869,2,0*37

$GPGGA,172614.800,5212.0886,N,00005.9616,E,2,10,0.79,6.2,M,47.0,M,0000,0000*67
$PMTKLOG,0,1,a,31,15,0,0,1,0,0*11
$PMTK001,183,3*3A
$PMTK869,2,0*37

$GPGGA,172614.900,5212.0886,N,00005.9616,E,2,10,0.79,6.2,M,47.0,M,0000,0000*66
$PMTKLOG,0,1,a,31,15,0,0,1,0,0*11
$PMTK001,183,3*3A
$PMTK869,2,0*37
$GPGGA,172615.000,5212.0886,N,00005.9616,E,2,10,0.79,6.2,M,47.0,
M,0000,0000*6E
$PMTKLOG,0,1,a,31,15,0,0,1,0,0*11
$PMTK001,183,3*3A
$PMTK869,2,0*37
$GPGGA,172615.100,5212.0886,N,00005.9616,E,2,10,0.79,6.2,M,47.0,M,0000,0000*6F
$PMTKLOG,0,1,a,31,15,0,0,1,0,0*11
$PMTK001,183,3*3A
$PMTK869,2,0*37

$GPGGA,172615.200,5212.0886,N,00005.9616,E,2,10,0.79,6.2,M,47.0,M,0000,0000*6C
$GPGGA,172615.300,5212.0886,N,00005.9616,E,2,10,0.79,6.2,M,47.0,M,0000,0000*6D
$PMTKLOG,0,1,a,31,15,0,0,1,0,0*11
$PMTK001,183,3*3A
$PMTK869,2,0*37
$PMTKLOG,0,1,a,31,15,0,0,1,0,0*11
$PMTK001,183,3*3A
$PMTK869,2,0*37

$GPGGA,172615.400,5212.0886,N,00005.9616,E,2,10,0.79,6.2,M,47.0,M,0000,0000*6A
$PMTKLOG,0,1,a,31,15,0,0,1,0,0*11
$PMTK001,183,3*3A
$PMTK869,2,0*37

$GPGGA,172615.500,5212.0886,N,00005.9616,E,2,10,0.79,6.2,M,47.0,M,0000,0000*6B

$GPGGA,172615.600,5212.0886,N,00005.9616,E,2,10,0.79,6.2,M,47.0,M,0000,0000*68
$PMTKLOG,0,1,a,31,15,0,0,1,0,0*11
$PMTK001,183,3*3A
$PMTK869,2,0*37
$GPGGA,172615.700,5212.0886,N,00005.9616,E,2,10,0.79,6.2,M,47.0,M,0000,0000*69
$PMTKLOG,0,1,a,31,15,0,0,1,0,0*11
$PMTK001,183,3*3A
$PMTK869,2,0*37

$GPGGA,172615.800,5212.0886,N,00005.9616,E,2,10,0.79,6.2,M,47.0,M,0000,0000*66
$PMTKLOG,0,1,a,31,15,0,0,1,0,0*11
$PMTK001,183,3*3A
$PMTK869,2,0*37

$GPGGA,172615.900,5212.0886,N,00005.9616,E,2,10,0.79,6.2,M,47.0,M,0000,0000*67
$PMTKLOG,0,1,a,31,15,0,0,1,0,0*11
$PMTK001,183,3*3A
$PMTK869,2,0*37
$GPGGA,172616.000,5212.0886,N,00005.9616,E,2,10,0.79,6.2,
M,47.0,M,0000,0000*6D
$PMTKLOG,0,1,a,31,15,0,0,1,0,0*11
$PMTK001,183,3*3A
$PMTK869,2,0*37
$GPGGA,172616.100,5212.0886,N,00005.9616,E,2,10,0.79,6.2,M,47.0,M,0000,0000*6C
$PMTKLOG,0,1,a,31,15,0,0,1,0,0*11
$PMTK001,183,3*3A
$PMTK869,2,0*37

$GPGGA,172616.200,5212.0886,N,00005.9616,E,2,10,0.79,6.2,M,47.0,M,0000,0000*6F
$PMTKLOG,0,1,a,31,15,0,0,1,0,0*11
$PMTK001,183,3*3A
$PMTK869,2,0*37

$GPGGA,172616.300,5212.0886,N,00005.9616,E,2,10,0.79,6.2,M,47.0,M,0000,0000*6E
$PMTKLOG,0,1,a,31,15,0,0,1,0,0*11
$PMTK001,183,3*3A
$PMTK869,2,0*37

$GPGGA,172616.400,5212.0886,N,00005.9616,E,2,10,0.79,6.2,M,47.0,M,0000,0000*69
$PMTKLOG,0,1,a,31,15,0,0,1,0,0*11
$PMTK001,183,3*3A
$PMTK869,2,0*37

$GPGGA,172616.500,5212.0887,N,00005.9616,E,2,10,0.79,6.2,M,47.0,M,0000,0000*69
$PMTKLOG,0,1,a,31,15,0,0,1,0,0*11
$PMTK001,183,3*3A
$PMTK869,2,0*37

$GPGGA,172616.600,5212.0887,N,00005.9616,E,2,10,0.79,6.2,M,47.0,M,0000,0000*6A
$PMTKLOG,0,1,a,31,15,0,0,1,0,0*11
$PMTK001,183,3*3A
$PMTK869,2,0*37

$GPGGA,172616.700,5212.0887,N,00005.9616,E,2,10,0.79,6.2,M,47.0,M,0000,0000*6B

$GPGGA,172616.800,5212.0887,N,00005.9616,E,2,10,0.79,6.2,M,47.0,M,0000,0000*64
$PMTKLOG,0,1,a,31,15,0,0,1,0,0*11
$PMTK001,183,3*3A
$PMTK869,2,0*37
$PMTKLOG,0,1,a,31,15,0,0,1,0,0*11
$PMTK001,183,3*3A
$PMTK869,2,0*37

$GPGGA,172616.900,5212.0887,N,00005.9616,E,2,10,0.79,6.2,M,47.0,M,0000,0000*65
$PMTKLOG,0,1,a,31,15,0,0,1,0,0*11
$PMTK001,183,3*3A
$PMTK869,2,0*37

$GPGGA,172617.000,5212.0887,N,00005.9616,E,2,10,0.79,6.2,M,47.0,M,0000,0000*6D

$GPGGA,172617.100,5212.0886,N,00005.9616,E,2,10,0.79,6.2,M,47.0,M,0000,0000*6D
$PMTKLOG,0,1,a,31,15,0,0,1,0,0*11
$PMTK001,183,3*3A
$PMTK869,2,0*37

$GPGGA,172617.200,5212.0886,N,00005.9616,E,2,10,0.79,6.2,M,47.0,M,0000,0000*6E
$PMTKLOG,0,1,a,31,15,0,0,1,0,0*11
$PMTK001,183,3*3A
$PMTK869,2,0*37
$GPGGA,172617.300,5212.0886,N,00005.9616,E,2,10,0.79,6.2,M,47.0,M,0000,0000*6F
$PMTKLOG,0,1,a,31,15,0,0,1,0,0*11
$PMTK001,183,3*3A
$PMTK869,2,0*37
$GPGGA,172617.400,5212.0886,N,00005.9616,E,2,10,0.79,6.2,M,47.0,M,0000,0000*68
$PMTKLOG,0,1,a,31,15,0,0,1,0,0*11
$PM
TK001,183,3*3A
$PMTK869,2,0*37
$GPGGA,172617.500,5212.0886,N,00005.9616,E,2,10,0.79,6.2,M,47.0,M,0000,0000*69
$PMTKLOG,0,1,a,31,15,0,0,1,0,0*11
$PMTK001,183,3*3A
$PMTK869,2,0*37

$GPGGA,172617.600,5212.0886,N,00005.9616,E,2,10,0.79,6.2,M,47.0,M,0000,0000*6A
$PMTKLOG,0,1,a,31,15,0,0,1,0,0*11
$PMTK001,183,3*3A
$PMTK869,2,0*37

$GPGGA,172617.700,5212.0886,N,00005.9616,E,2,10,0.79,6.2,M,47.0,M,0000,0000*6B
$PMTKLOG,0,1,a,31,15,0,0,1,0,0*11
$PMTK001,183,3*3A
$PMTK869,2,0*37

$GPGGA,172617.800,5212.0886,N,00005.9616,E,2,10,0.79,6.2,M,47.0,M,0000,0000*64
$PMTKLOG,0,1,a,31,15,0,0,1,0,0*11
$PMTK001,183,3*3A
$PMTK869,2,0*37

$GPGGA,172617.900,5212.0886,N,00005.9616,E,2,10,0.79,6.2,M,47.0,M,0000,0000*65
$PMTKLOG,0,1,a,31,15,0,0,1,0,0*11
$PMTK001,183,3*3A
$PMTK869,2,0*37

$GPGGA,172618.000,5212.0886,N,00005.9616,E,2,10,0.79,6.2,M,47.0,M,0000,0000*63
$PMTKLOG,0,1,a,31,15,0,0,1,0,0*11
$PMTK001,183,3*3A
$PMTK869,2,0*37

$GPGGA,172618.100,5212.0886,N,00005.9616,E,2,10,0.79,6.2,M,47.0,M,0000,0000*62

$GPGGA,172618.200,5212.0886,N,00005.9616,E,2,10,0.79,6.2,M,47.0,M,0000,0000*61
$PMTKLOG,0,1,a,31,15,0,0,1,0,0*11
$PMTK001,183,3*3A
$PMTK869,2,0*37

$GPGGA,172618.300,5212.0886,N,00005.9616,E,2,10,0.79,6.2,M,47.0,M,0000,0000*60
$PMTKLOG,0,1,a,31,15,0,0,1,0,0*11
$PMTK001,183,3*3A
$PMTK869,2,0*37

$GPGGA,172618.400,5212.0886,N,00005.9616,E,2,10,0.79,6.2,M,47.0,M,0000,0000*67
$PMTKLOG,0,1,a,31,15,0,0,1,0,0*11
$PMTK001,183,3*3A
$PMTK869,2,0*37
$GPGGA,172618.500,5212.0886,N,00005.9616
,E,2,10,0.79,6.2,M,47.0,M,0000,0000*66
$PMTKLOG,0,1,a,31,15,0,0,1,0,0*11
$PMTK001,183,3*3A
$PMTK869,2,0*37
$GPGGA,172618.600,5212.0886,N,00005.9616,E,2,10,0.79,6.2,M,47.0,M,0000,0000*65
$PMTKLOG,0,1,a,31,15,0,0,1,0,0*1
1
$PMTK001,183,3*3A
$PMTK869,2,0*37
$GPGGA,172618.700,5212.0886,N,00005.9616,E,2,10,0.79,6.2,M,47.0,M,0000,0000*64
$PMTKLOG,0,1,a,31,15,0,0,1,0,0*11
$PMTK001,183,3*3A
$PMTK869,2,0*37

$GPGGA,172618.800,5212.0886,N,00005.9616,E,2,10,0.79,6.2,M,47.0,M,0000,0000*6B
$PMTKLOG,0,1,a,31,15,0,0,1,0,0*11
$PMTK001,183,3*3A
$PMTK869,2,0*37

$GPGGA,172618.900,5212.0886,N,00005.9616,E,2,10,0.79,6.2,M,47.0,M,0000,0000*6A
$PMTKLOG,0,1,a,31,15,0,0,1,0,0*11
$PMTK001,183,3*3A
$PMTK869,2,0*37

$GPGGA,172619.000,5212.0886,N,00005.9616,E,2,10,0.79,6.2,M,47.0,M,0000,0000*62
$PMTKLOG,0,1,a,31,15,0,0,1,0,0*11
$PMTK001,183,3*3A
$PMTK869,2,0*37

$GPGGA,172619.100,5212.0886,N,00005.9616,E,2,10,0.79,6.2,M,47.0,M,0000,0000*63

$GPGGA,172619.200,5212.0886,N,00005.9616,E,2,10,0.79,6.2,M,47.0,M,0000,0000*60
$PMTKLOG,0,1,a,31,15,0,0,1,0,0*11
$PMTK001,183,3*3A
$PMTK869,2,0*37

$GPGGA,172619.300,5212.0886,N,00005.9616,E,2,10,0.79,6.2,M,47.0,M,0000,0000*61
$PMTKLOG,0,1,a,31,15,0,0,1,0,0*11
$PMTK001,183,3*3A
$PMTK869,2,0*37
$GPGGA,172619.400,5212.0886,N,00005.9616,E,2,10,0.79,6.2,M,47.0,M,0000,0000*66
$PMTKLOG,0,1,a,31,15,0,0,1,0,0*11
$PMTK001,183,3*3A
$PMTK869,2,0*37

$GPGGA,172619.500,5212.0886,N,00005.9616,E,2,10,0.79,6.2,M,47.0,M,0000,0000*67

$PMTKLOG,0,1,a,31,15,0,0,1,0,0*11
$PMTK001,183,3*3A
$PMTK869,2,0*37

$GPGGA,172619.600,5212.0886,N,00005.9616,E,2,10,0.79,6.2,M,47.0,M,0000,0000*64
$PMTKLOG,0,1,a,31,15,0,0,1,0,0*11
$PMTK001,183,3*3A
$PMTK869,2,0*37
$GPGGA,172619.700,5212.0886,N,00005.9616,E,2,10,0.79,6.2,M,47.0,M,0000,0000*65
$PMTKLO
G,0,1,a,31,15,0,0,1,0,0*11
$PMTK001,183,3*3A
$PMTK869,2,0*37
$GPGGA,172619.800,5212.0886,N,00005.9616,E,2,10,0.79,6.2,M,47.0,M,0000,0000*6A
$PMTKLOG,0,1,a,31,15,0,0,1,0,0*11
$PMTK001,183,3*3A
$PMTK869,2,0*37

$GPGGA,172619.900,5212.0886,N,00005.9616,E,2,10,0.79,6.2,M,47.0,M,0000,0000*6B
$PMTKLOG,0,1,a,31,15,0,0,1,0,0*11
$PMTK001,183,3*3A
$PMTK869,2,0*37

$GPGGA,172620.000,5212.0886,N,00005.9616,E,2,10,0.79,6.2,M,47.0,M,0000,0000*68
$PMTKLOG,0,1,a,31,15,0,0,1,0,0*11
$PMTK001,183,3*3A
$PMTK869,2,0*37

$GPGGA,172620.100,5212.0886,N,00005.9616,E,2,10,0.79,6.2,M,47.0,M,0000,0000*69
$PMTKLOG,0,1,a,31,15,0,0,1,0,0*11
$PMTK001,183,3*3A
$PMTK869,2,0*37

$GPGGA,172620.200,5212.0886,N,00005.9616,E,2,10,0.79,6.2,M,47.0,M,0000,0000*6A
$PMTKLOG,0,1,a,31,15,0,0,1,0,0*11
$PMTK001,183,3*3A
$PMTK869,2,0*37

$GPGGA,172620.300,5212.0886,N,00005.9616,E,2,10,0.79,6.2,M,47.0,M,0000,0000*6B
$PMTKLOG,0,1,a,31,15,0,0,1,0,0*11
$PMTK001,183,3*3A
$PMTK869,2,0*37

$GPGGA,172620.400,5212.0886,N,00005.9616,E,2,10,0.79,6.2,M,47.0,M,0000,0000*6C

$GPGGA,172620.500,5212.0886,N,00005.9616,E,2,10,0.79,6.2,M,47.0,M,0000,0000*6D
$PMTKLOG,0,1,a,31,15,0,0,1,0,0*11
$PMTK001,183,3*3A
$PMTK869,2,0*37

$GPGGA,172620.600,5212.0886,N,00005.9616,E,2,10,0.79,6.2,M,47.0,M,0000,0000*6E
$PMTKLOG,0,1,a,31,15,0,0,1,0,0*11
$PMTK001,183,3*3A
$PMTK869,2,0*37

$GPGGA,172620.700,5212.0886,N,00005.9616,E,2,10,0.79,6.2,M,47.0,M,0000,0000*6F
$PMTKLOG,0,1,a,31,15,0,0,1,0,0*11
$PMTK001,183,3*3A
$PMTK869,2,0*37
$GPGGA,172620.
800,5212.0886,N,00005.9616,E,2,10,0.79,6.2,M,47.0,M,0000,0000*60
$PMTKLOG,0,1,a,31,15,0,0,1,0,0*11
$PMTK001,183,3*3A
$PMTK869,2,0*37
$GPGGA,172620.900,5212.0886,N,00005.9616,E,2,10,0.79,6.2,M,47.0,M,0000,0000*61
$PMTKLOG,0,1,a,31,15,0,0,1,0,0*11
$PMTK001,183,3*3A

$PMTK869,2,0*37
$GPGGA,172621.000,5212.0886,N,00005.9616,E,2,10,0.79,6.2,M,47.0,M,0000,0000*69
$PMTKLOG,0,1,a,31,15,0,0,1,0,0*11
$PMTK001,183,3*3A
$PMTK869,2,0*37

$GPGGA,172621.100,5212.0886,N,00005.9616,E,2,10,0.79,6.2,M,47.0,M,0000,0000*68
$PMTKLOG,0,1,a,31,15,0,0,1,0,0*11
$PMTK001,183,3*3A
$PMTK869,2,0*37

$GPGGA,172621.200,5212.0886,N,00005.9616,E,2,10,0.79,6.2,M,47.0,M,0000,0000*6B
$PMTKLOG,0,1,a,31,15,0,0,1,0,0*11
$PMTK001,183,3*3A
$PMTK869,2,0*37

$GPGGA,172621.300,5212.0886,N,00005.9616,E,2,10,0.79,6.2,M,47.0,M,0000,0000*6A

$GPGGA,172621.400,5212.0886,N,00005.9616,E,2,10,0.79,6.2,M,47.0,M,0000,0000*6D
$PMTKLOG,0,1,a,31,15,0,0,1,0,0*11
$PMTK001,183,3*3A
$PMTK869,2,0*37
$PMTKLOG,0,1,a,31,15,0,0,1,0,0*11
$PMTK001,183,3*3A
$PMTK869,2,0*37

$GPGGA,172621.500,5212.0886,N,00005.9616,E,2,10,0.79,6.2,M,47.0,M,0000,0000*6C

$GPGGA,172621.600,5212.0886,N,00005.9616,E,2,10,0.79,6.2,M,47.0,M,0000,0000*6F
$PMTKLOG,0,1,a,31,15,0,0,1,0,0*11
$PMTK001,183,3*3A
$PMTK869,2,0*37

$GPGGA,172621.700,5212.0886,N,00005.9616,E,2,10,0.79,6.2,M,47.0,M,0000,0000*6E
$PMTKLOG,0,1,a,31,15,0,0,1,0,0*11
$PMTK001,183,3*3A
$PMTK869,2,0*37
$GPGGA,172621.800,5212.0886,N,00005.9616,E,2,10,0.79,6.2,M,47.0,M,0000,0000*61
$PMTKLOG,0,1,a,31,15,0,0,1,0,0*11
$PMTK001,183,3*3A
$PMTK869,2,0*37

$GPGGA,172621.900,5212.0886,N,00005.9616,E,2,10,0.79,6.2,M,47.0,M,0000,0000*60
$PMTKLOG,0,1,a,31,15,0,0,1,0,0*11
$PMTK001,183,3*3A
$PMTK869,2,0*37
$GPGGA,172622.000,5212.0886,N,00005.9616,E,2,10,0.
79,6.2,M,47.0,M,0000,0000*6A
$PMTKLOG,0,1,a,31,15,0,0,1,0,0*11
$PMTK001,183,3*3A
$PMTK869,2,0*37
$GPGGA,172622.100,5212.0886,N,00005.9616,E,2,10,0.79,6.2,M,47.0,M,0000,0000*6B
$PMTKLOG,0,1,a,31,15,0,0,1,0,0*11
$PMTK001,183,3*3A

$PMTK869,2,0*37
$GPGGA,172622.200,5212.0886,N,00005.9616,E,2,10,0.79,6.2,M,47.0,M,0000,0000*68
$PMTKLOG,0,1,a,31,15,0,0,1,0,0*11
$PMTK001,183,3*3A
$PMTK869,2,0*37

$GPGGA,172622.300,5212.0886,N,00005.9616,E,2,10,0.79,6.2,M,47.0,M,0000,0000*69
$PMTKLOG,0,1,a,31,15,0,0,1,0,0*11
$PMTK001,183,3*3A
$PMTK869,2,0*37

$GPGGA,172622.400,5212.0886,N,00005.9616,E,2,10,0.79,6.2,M,47.0,M,0000,0000*6E
$PMTKLOG,0,1,a,31,15,0,0,1,0,0*11
$PMTK001,183,3*3A
$PMTK869,2,0*37

$GPGGA,172622.500,5212.0886,N,00005.9616,E,2,10,0.79,6.2,M,47.0,M,0000,0000*6F
$PMTKLOG,0,1,a,31,15,0,0,1,0,0*11
$PMTK001,183,3*3A
$PMTK869,2,0*37

$GPGGA,172622.600,5212.0886,N,00005.9616,E,2,10,0.79,6.2,M,47.0,M,0000,0000*6C
$PMTKLOG,0,1,a,31,15,0,0,1,0,0*11
$PMTK001,183,3*3A
$PMTK869,2,0*37

$GPGGA,172622.700,5212.0886,N,00005.9616,E,2,10,0.79,6.2,M,47.0,M,0000,0000*6D

$GPGGA,172622.800,5212.0886,N,00005.9616,E,2,10,0.79,6.2,M,47.0,M,0000,0000*62
$PMTKLOG,0,1,a,31,15,0,0,1,0,0*11
$PMTK001,183,3*3A
$PMTK869,2,0*37

$GPGGA,172622.900,5212.0886,N,00005.9616,E,2,10,0.79,6.2,M,47.0,M,0000,0000*63
$PMTKLOG,0,1,a,31,15,0,0,1,0,0*11
$PMTK001,183,3*3A
$PMTK869,2,0*37

$GPGGA,172623.000,5212.0886,N,00005.9616,E,2,10,0.79,6.2,M,47.0,M,0000,0000*6B
$PMTKLOG,0,1,a,31,15,0,0,1,0,0*11
$PMTK001,183,3*3A
$PMTK869,2,0*37

$GPGGA,172623.100,5212.0886,N,00005.9616,E,2,10,0.79,6.2,M,47.0,M,0000,0000*6A
$PMTKLOG,0,1,a,31,15,0,0,1,0,0*11
$PMTK001,183,3*3A
$PMTK869,2,0*37
$GPGGA,172623.200,5212.0886,N,00005.9616,E,2,10,0.79,6.2,M,47.0,M,0000,0000*69
$PMTKLOG,0,1,a,31,15,0,0,1,0,0*11
$PMTK001,183,3*3A
$PMTK869,2,0*37

$GPGGA,172623.300,5212.0886,N,00005.9616,E,2,10,0.79,6.2,M,47.0,M,0000,0000*68
$PMTKLOG,0,1,a,31,15,0,0,1,0,0*11
$PMTK001,183,3*3A
$PMTK869,2,0*37

$GPGGA,172623.400,5212.0886,N,00005.9616,E,2,10,0.79,6.2,M,47.0,M,0000,0000*6F
$PMTKLOG,0,1,a,31,15,0,0,1,0,0*11
$PMTK001,183,3*3A
$PMTK869,2,0*37

$GPGGA,172623.500,5212.0886,N,00005.9616,E,2,10,0.79,6.2,M,47.0,M,0000,0000*6E
$PMTKLOG,0,1,a,31,15,0,0,1,0,0*11
$PMTK001,183,3*3A
$PMTK869,2,0*37

$GPGGA,172623.600,5212.0886,N,00005.9616,E,2,10,0.79,6.2,M,47.0,M,0000,0000*6D

$GPGGA,172623.700,5212.0886,N,00005.9616,E,2,10,0.79,6.2,M,47.0,M,0000,0000*6C
$PMTKLOG,0,1,a,31,15,0,0,1,0,0*11
$PMTK001,183,3*3A
$PMTK869,2,0*37
$GPG
GA,172623.800,5212.0886,N,00005.9616,E,2,10,0.79,6.3,M,47.0,M,0000,0000*62
$PMTKLOG,0,1,a,31,15,0,0,1,0,0*11
$PMTK001,183,3*3A
$PMTK869,2,0*37
$PMTKLOG,0,1,a,31,15,0,0,1,0,0*11
$PMTK001,183,3*3A
$PMTK869,2,0*37

$GPGGA,172623.900,5212.0886,N,00005.9616,E,2,10,0.79,6.3,M,47.0,M,0000,0000*63

$GPGGA,172624.000,5212.0886,N,00005.9616,E,2,10,0.79,6.3,M,47.0,M,0000,0000*6D
$PMTKLOG,0,1,a,31,15,0,0,1,0,0*11
$PMTK001,183,3*3A
$PMTK869,2,0*37
$GPGGA,172624.100,5212.0887,N,00005.9616,E,2,10,0.79,6.3,M,47.0,M,0000,0000*6D
$GPGG
A,172624.200,5212.0887,N,00005.9616,E,2,10,0.79,6.3,M,47.0,M,0000,0000*6E
$PMTKLOG,0,1,a,31,15,0,0,1,0,0*11
$PMTK001,183,3*3A
$PMTK869,2,0*37
$PMTKLOG,0,1,a,31,15,0,0,1,0,0*11
$PMTK001,183,3*3A
$PMTK869,2,0*37
$GPGGA,172624.300,5212.0887,N,00005.9616,E,2,10,0.79,6.3,M,47.0,M,0000,0000*6F
$PMTKLOG,0,1,a,31,15,0,0,1,0,0*11
$PMTK001,183,3*3A
$PMTK869,2,0*37

$GPGGA,172624.400,5212.0887,N,00005.9616,E,2,10,0.79,6.3,M,47.0,M,0000,0000*68
$PMTKLOG,0,1,a,31,15,0,0,1,0,0*11
$PMTK001,183,3*3A
$PMTK869,2,0*37

$GPGGA,172624.500,5212.0887,N,00005.9616,E,2,10,0.79,6.3,M,47.0,M,0000,0000*69
$PMTKLOG,0,1,a,31,15,0,0,1,0,0*11
$PMTK001,183,3*3A
$PMTK869,2,0*37

$GPGGA,172624.600,5212.0887,N,00005.9616,E,2,10,0.79,6.3,M,47.0,M,0000,0000*6A
$PMTKLOG,0,1,a,31,15,0,0,1,0,0*11
$PMTK001,183,3*3A
$PMTK869,2,0*37

$GPGGA,172624.700,5212.0887,N,00005.9616,E,2,10,0.79,6.3,M,47.0,M,0000,0000*6B
$PMTKLOG,0,1,a,31,15,0,0,1,0,0*11
$PMTK001,183,3*3A
$PMTK869,2,0*37

$GPGGA,172624.800,5212.0887,N,00005.9616,E,2,10,0.79,6.3,M,47.0,M,0000,0000*64
$PMTKLOG,0,1,a,31,15,0,0,1,0,0*11
$PMTK001,183,3*3A
$PMTK869,2,0*37

$GPGGA,172624.900,5212.0887,N,00005.9616,E,2,10,0.79,6.3,M,47.0,M,0000,0000*65
$GPGGA,172625.000,5212.0887,N,00005.9616,E,2,10,0.79,6.3,M,47.0,M,0000,0000*6D
$PMTKLOG,0,1,a,31,15,0,0,1,0,0*11
$PMTK001,183,3*3A
$PMTK869,2,0*37
$PMTKLOG,0,1,a,31,15,0,0,1,0,0*11
$PMTK001,183,3*3A
$PMTK869,2,0*37

$GPGGA,172625.100,5212.0887,N,00005.9616,E,2,10,0.79,6.3,M,47.0,M,0000,0000*6C
$GPGGA,172625.200,5212.0887,N,00005.9617,E,2,10,0.79,6.3,M,47.0,M,0000,0000*6E
$PMTKLOG,0,1,a,31,15,0,0,1,0,0*11
$PMTK001,183,3*3A
$PMTK869,2,0*37

$GPGGA,172625.300,5212.0887,N,00005.9617,E,2,10,0.79,6.3,M,47.0,M,0000,0000*6F
$PMTKLOG,0,1,a,31,15,0,0,1,0,0*11
$PMTK001,183,3*3A
$PMTK869,2,0*37
$GPGGA,172625.400,5212.0887,N,00005.9617,E,2,10,0.79,6.3,M,47.0,M,0000,0000*68
$PMTKLOG,0,1,a,31,15,0,0,1,0,0*11
$PMTK001,183,3*3A
$PMTK869,2,0*37

$GPGGA,172625.500,5212.0887,N,00005.9617,E,2,10,0.79,6.3,M,47.0,M,0000,0000*69
$PMTKLOG,0,1,a,31,15,0,0,1,0,0*11
$PMTK001,183,3*3A
$PMTK869,2,0*37

$GPGGA,172625.600,5212.0887,N,00005.9617,E,2,10,0.79,6.3,M,47.0,M,0000,0000*6A
$GPGGA,172625.700,5212.0887,N,00005.9617,E,2,10,0.79,6.3,M,47.0,M,0000,0000*6B
$PMTKLOG,0,1,a,31,15,0,0,1,0,0*11
$PMTK001,183,3*3A
$PMTK869,2,0*37
$PMTKLOG,0,1,a,31,15,0,0,1,0,0*11
$PMTK001,183,3*3A
$PMTK869,2,0*37

$GPGGA,172625.800,5212.0887,N,00005.9617,E,2,10,0.79,6.3,M,47.0,M,0000,0000*64
$PMTKLOG,0,1,a,31,15,0,0,1,0,0*11
$PMTK001,183,3*3A
$PMTK869,2,0*37

$GPGGA,172625.900,5212.0887,N,00005.9617,E,2,10,0.79,6.3,M,47.0,M,0000,0000*65

$GPGGA,172626.000,5212.0887,N,00005.9617,E,2,10,0.79,6.3,M,47.0,M,0000,0000*6F
$PMTKLOG,0,1,a,31,15,0,0,1,0,0*11
$PMTK001,183,3*3A
$PMTK869,2,0*37
$GPGGA,172626.100,5212.0887,N,00005.9617,E,2,10,0.79,6.3,M,47.0,M,0000,0000*6E
$GPGGA,172626.200,5212.0887,N,00005.9617,E,2,10,0.79,6.3,M,47.0,M,0000,0000*6D
$PMTKLOG,0,1,a,31,15,0,0,1,0,0*11
$PMTK001,183,3*3A
$PMTK869,2,0*37

$GPGGA,172626.300,5212.0887,N,00005.9617,E,2,10,0.79,6.3,M,47.0,M,0000,0000*6C
$PMTKLOG,0,1,a,31,15,0,0,1,0,0*11
$PMTK001,183,3*3A
$PMTK869,2,0*37
$GPGGA,172626.400,5212.0887,N,00005.9617,E,2,10,0.79,6.3,M,47.0,M,0000,0000*6B
$PMTKLOG,0,1,a,31,15,0,0,1,0,0*11
$PMTK001,183,3*3A
$PMTK869,2,0*37

$GPGGA,172626.500,5212.0887,N,00005.9617,E,2,10,0.79,6.3,M,47.0,M,0000,0000*6A
$PMTKLOG,0,1,a,31,15,0,0,1,0,0*11
$PMTK001,183,3*3A
$PMTK869,2,0*37

$GPGGA,172626.600,5212.0887,N,00005.9617,E,2,10,0.79,6.3,M,47.0,M,0000,0000*69
$PMTKLOG,0,1,a,31,15,0,0,1,0,0*11
$PMTK001,183,3*3A
$PMTK869,2,0*37
$G
PGGA,172626.700,5212.0887,N,00005.9617,E,2,10,0.79,6.3,M,47.0,M,0000,0000*68
$PMTKLOG,0,1,a,31,15,0,0,1,0,0*11
$PMTK001,183,3*3A
$PMTK869,2,0*37

$GPGGA,172626.800,5212.0887,N,00005.9617,E,2,10,0.79,6.3,M,47.0,M,0000,0000*67
$PMTKLOG,0,1,a,31,15,0,0,1,0,0*11
$PMTK001,183,3*3A
$PMTK869,2,0*37

$GPGGA,172626.900,5212.0887,N,00005.9617,E,2,10,0.79,6.3,M,47.0,M,0000,0000*66
$PMTKLOG,0,1,a,31,15,0,0,1,0,0*11
$PMTK001,183,3*3A
$PMTK869,2,0*37

$GPGGA,172627.000,5212.0887,N,00005.9617,E,2,10,0.79,6.3,M,47.0,M,0000,0000*6E
$PMTKLOG,0,1,a,31,15,0,0,1,0,0*11
$PMTK001,183,3*3A
$PMTK869,2,0*37

$GPGGA,172627.100,5212.0887,N,00005.9617,E,2,10,0.79,6.3,M,47.0,M,0000,0000*6F
$GPGGA,172627.200,5212.0887,N,00005.9617,E,2,10,0.79,6.3,M,47.0,M,0000,0000*6C
$PMTKLOG,0,1,a,31,15,0,0,1,0,0*11
$PMTK001,183,3*3A
$PMTK869,2,0*37
$PMTKLOG,0,1,a,31,15,0,0,1,0,0*11
$PMTK001,183,3*3A
$PMTK869,2,0*37

$GPGGA,172627.300,5212.0887,N,00005.9617,E,2,10,0.79,6.3,M,47.0,M,0000,0000*6D
$GPGGA,172627.400,5212.0887,N,00005.9617,E,2,10,0.79,6.3,M,47.0,M,0000,0000*6A
$PMTKLOG,0,1,a,31,15,0,0,1,0,0*11
$PMTK001,183,3*3A
$PMTK869,2,0*37

$GPGGA,172627.500,5212.0887,N,00005.9617,E,2,10,0.79,6.3,M,47.0,M,0000,0000*6B
$PMTKLOG,0,1,a,31,15,0,0,1,0,0*11
$PMTK001,183,3*3A
$PMTK869,2,0*37
$GPGGA,172627.600,5212.0887,N,00005.9617,E,2,10,0.79,6.3,M,47.0,M,0000,0000*68
$PMTKLOG,0,1,a
,31,15,0,0,1,0,0*11
$PMTK001,183,3*3A
$PMTK869,2,0*37
$GPGGA,172627.700,5212.0887,N,00005.9617,E,2,10,0.79,6.3,M,47.0,M,0000,0000*69
$GPGGA,172627.800,5212.0887,N,00005.9617,E,2,10,0.79,6.3,M,47.0,M,0000,0000*66
$PMTKLOG,0,1,a,31,15,0,0,1,0,0*11
$PMTK001,183,3*3A
$PMTK869,2,0*37

$GPGGA,172627.900,5212.0887,N,00005.9617,E,2,10,0.79,6.3,M,47.0,M,0000,0000*67
$GPGGA,172628.000,5212.0887,N,00005.9617,E,2,10,0.79,6.3,M,47.0,M,0000,0000*61
$PMTKLOG,0,1,a,31,15,0,0,1,0,0*11
$PMTK001,183,3*3A
$PMTK869,2,0*37
$PMTKLOG,0,1,a,31,15,0,0,1,0,0*11
$PMTK
001,183,3*3A
$PMTK869,2,0*37
$GPGGA,172628.100,5212.0887,N,00005.9617,E,2,10,0.79,6.3,M,47.0,M,0000,0000*60
$GPGGA,172628.200,5212.0887,N,00005.9617,E,2,10,0.79,6.3,M,47.0,M,0000,0000*63
$PMTKLOG,0,1,a,31,15,0,0,1,0,0*11
$PMTK001,183,3*3A
$PMTK869,2,0*37
$PMTKLOG,0,1,a,31,15,0,0,1,0,0*11
$PMTK001,183,3*3A
$PMTK869,2,0*37

$GPGGA,172628.300,5212.0887,N,00005.9617,E,2,10,0.79,6.3,M,47.0,M,0000,0000*62

$GPGGA,172628.400,5212.0887,N,00005.9617,E,2,10,0.79,6.4,M,47.0,M,0000,0000*62
$PMTKLOG,0,1,a,31,15,0,0,1,0,0*11
$PMTK001,183,3*3A
$PMTK869,2,0*37
$PMTKLOG,0,1,a,31,15,0,0,1,0,0*11
$PMTK001,183,3*3A
$PMTK869,2,0*37

$GPGGA,172628.500,5212.0887,N,00005.9617,E,2,10,0.79,6.4,M,47.0,M,0000,0000*63
$GPGGA,172628.600,5212.0887,N,00005.9617,E,2,10,0.79,6.4,M,47.0,M,0000,0000*60
$GPGGA,172628.700,5212.0887,N,00005.9617,E,2,10,0.79,6.4,M,47.0,M,0000,0000*61
$PMTKLOG,0,1,a,31,15,0,0,1,0,0*11
$PMTK001,183,3*3A
$PMTK869,2,0*37

$GPGGA,172628.800,5212.0887,N,00005.9617,E,2,10,0.79,6.4,M,47.0,M,0000,0000*6E
$PMTKLOG,0,1,a,31,15,0,0,1,0,0*11
$PMTK001,183,3*3A
$PMTK869,2,0*37
$GPGGA,172628.900,5212.0887,N,00005.9617,E,2,10,0.79,6.4,M,47.0,M,0000,0000*6F
$PMTKLOG,0,1,a,31,15,0,0,1,0,0*11
$PMTK001,183,3*3A
$
PMTK869,2,0*37
$GPGGA,172629.000,5212.0887,N,00005.9617,E,2,10,0.79,6.4,M,47.0,M,0000,0000*67
$PMTKLOG,0,1,a,31,15,0,0,1,0,0*11
$PMTK001,183,3*3A
$PMTK869,2,0*37

$GPGGA,172629.100,5212.0887,N,00005.9617,E,2,10,0.79,6.4,M,47.0,M,0000,0000*66
$PMTKLOG,0,1,a,31,15,0,0,1,0,0*11
$PMTK001,183,3*3A
$PMTK869,2,0*37

$GPGGA,172629.200,5212.0887,N,00005.9617,E,2,10,0.79,6.4,M,47.0,M,0000,0000*65
$PMTKLOG,0,1,a,31,15,0,0,1,0,0*11
$PMTK001,183,3*3A
$PMTK869,2,0*37
$GPGGA,172629.300,5212.0887,N,00005.9617,E,2,10,0.79,6.4,M,47.0,M,0000,0000*64

$GPGGA,172629.400,5212.0887,N,00005.9617,E,2,10,0.79,6.4,M,47.0,M,0000,0000*63
$PMTKLOG,0,1,a,31,15,0,0,1,0,0*11
$PMTK001,183,3*3A
$PMTK869,2,0*37
$PMTKLOG,0,1,a,31,15,0,0,1,0,0*11
$PMTK001,183,3*3A
$PMTK869,2,0*37

$GPGGA,172629.500,5212.0887,N,00005.9617,E,2,10,0.79,6.4,M,47.0,M,0000,0000*62
$GPGGA,172629.600,5212.0887,N,00005.9617,E,2,10,0.79,6.4,M,47.0,M,0000,0000*61
$PMTKLOG,0,1,a,31,15,0,0,1,0,0*11
$PMTK001,183,3*3A
$PMTK869,2,0*37
$PMTKLOG,0,1,a,31,15,0,0,1,0,0*11
$PMTK001,183,3*3A
$PMTK869,2,0*37

$GPGGA,172629.700,5212.0887,N,00005.9617,E,2,10,0.79,6.4,M,47.0,M,0000,0000*60
$GPGGA,172629.800,5212.0887,N,00005.9617,E,2,10,0.79,6.4,M,47.0,M,0000,0000*6F
$PMTKLOG,0,1,a,31,15,0,0,1,0,0*11
$PMTK001,183,3*3A
$PMTK869,2,0*37

$GPGGA,172629.900,5212.0887,N,00005.9617,E,2,10,0.79,6.4,M,47.0,M,0000,0000*6E
$PMTKLOG,0,1,a,31,15,0,0,1,0,0*11
$PMTK001,183,3*3A
$PMTK869,2,0*37
$GPGGA,172630.000,5212.0887,N,00005.9617,E,2,10,0.79,6.4,M,47.0,M,0000,0000*6F
$PMTKLOG,0,1,a,31,15,0,0,1,0,0*11
$PMTK001,183,3*3A
$PMTK869,2,0*37

$GPGGA,172630.100,5212.0887,N,00005.9617,E,2,10,0.79,6.4,M,47.0,M,0000,0000*6E
$PMTKLOG,0,1,a,31,15,0,0,1,0,0*11
$PMTK001,183,3*3A
$PMTK869,2,0*37
$GPGGA,172630.200,5212.0887,N,00005.9617,E,2,10,0.79,6.4,M,47.0,M,0000,0000*6D

$GPGGA,172630.300,5212.0887,N,00005.9617,E,2,10,0.79,6.4,M,47.0,M,0000,0000*6C
$PMTKLOG,0,1,a,31,15,0,0,1,0,0*11
$PMTK001,183,3*3A
$PMTK869,2,0*37
$GPGGA,172630.400,5212.0887,N,00005.9617,E,2,10,0.79,6.4,M,47.0,M,0000,0000*6B
$PMTKLOG,0,1,a,31,15,0,0,1,0,0*11
$PMTK001,183,3*3A
$PMTK869,2,0*37
$PMTKLOG,0,1,a,31,15,0,0,1,0,0*11
$PMTK001,183,3*3A
$PMTK869,2,0*37

$GPGGA,172630.500,5212.0887,N,00005.9617,E,2,10,0.79,6.4,M,47.0,M,0000,0000*6A
$GPGGA,172630.600,5212.0887,N,00005.9617,E,2,10,0.79,6.4,M,47.0,M,0000,0000*69
$PMTKLOG,0,1,a,31,15,0,0,1,0,0*11
$PMTK001,183,3*3A
$PMTK869,2,0*37
$PMTKLOG,0,1,a,31,15,0,0,1,0,0*11
$PMTK001,183,3*3A
$PMTK869,2,0*37

$GPGGA,172630.700,5212.0887,N,00005.9617,E,2,10,0.79,6.4,M,47.0,M,0000,0000*68
$GPGGA,172630.800,5212.0887,N,00005.9617,E,2,10,0.79,6.4,M,47.0,M,0000,0000*67
$PMTKLOG,0,1,a,31,15,0,0,1,0,0*11
$PMTK001,183,3*3A
$PMTK869,2,0*37
$PMTKLOG,0,1,a,31,15,0,0,1,0,0*11
$PMTK001,183,3*3A
$PMTK869,2,0*37

$GPGGA,172630.900,5212.0887,N,00005.9617,E,2,10,0.79,6.4,M,47.0,M,0000,0000*66
$GPGGA,172631.000,5212.0887,N,00005.9617,E,2,10,0.79,6.4,M,47.0,M,0000,0000*6E
$PMTKLOG,0,1,a,31,15,0,0,1,0,0*11
$PMTK001,183,3*3A
$PMTK869,2,0*37

$GPGGA,172631.100,5212.0887,N,00005.9617,E,2,10,0.79,6.4,M,47.0,M,0000,0000*6F
$PMTKLOG,0,1,a,31,15,0,0,1,0,0*11
$PMTK001,183,3*3A
$PMTK869,2,0*37
$GPGGA,172631.200,5212.0887,N,00005.9617,E,2,10,0.79,6.4,M,47.0,M,0000,0000*6C
$PMTKLOG,0,1,a,31,15,0,0,1,0,0*11
$PMTK001,183,3*3A
$PMTK869,2,0*37

$GPGGA,172631.300,5212.0887,N,00005.9617,E,2,10,0.79,6.4,M,47.0,M,0000,0000*6D
$GPGGA,172631.400,5212.0887,N,00005.9617,E,2,10,0.79,6.4,M,47.0,M,0000,0000*6A
$PMTKLOG,0,1,a,31,15,0,0,1
,0,0*11
$PMTK001,183,3*3A
$PMTK869,2,0*37
$PMTKLOG,0,1,a,31,15,0,0,1,0,0*11
$PMTK001,183,3*3A
$PMTK869,2,0*37
$GPGGA,172631.500,5212.0887,N,00005.9617,E,2,10,0.79,6.5,M,47.0,M,0000,0000*6A
$GPGGA,172631.600,5212.0887,N,00005.9617,E,2,10,0.79,6.5,M,47.0,M,0000,0000*69
$PMTKLOG,0,1,a,31,15,0,0,1,0,0*11
$PMTK001,183,3*3A
$PMTK869,2,0*37
$PMTKLOG,0,1,a,31,15,0,0,1,0,0*11
$PMTK001,183,3*3A
$PMTK869,2,0*37

$GPGGA,172631.700,5212.0887,N,00005.9617,E,2,10,0.79,6.5,M,47.0,M,0000,0000*68
$GPGGA,172631.800,5212.0887,N,00005.9617,E,2,10,0.79,6.5,M,47.0,M,0000,0000*67
$PMTKLOG,0,1,a,31,15,0,0,1,0,0*11
$PMTK001,183,3*3A
$PMTK869,2,0*37
$PMTKLOG,0,1,a,31,15,0,0,1,0,0*11
$PMTK001,183,3*3A
$PMTK869,2,0*37

$GPGGA,172631.900,5212.0887,N,00005.9617,E,2,10,0.79,6.5,M,47.0,M,0000,0000*66
$GPGGA,172632.000,5212.0887,N,00005.9617,E,2,10,0.79,6.5,M,47.0,M,0000,0000*6C

$GPGGA,172632.100,5212.0887,N,00005.9617,E,2,10,0.79,6.5,M,47.0,M,0000,0000*6D
$PMTKLOG,0,1,a,31,15,0,0,1,0,0*11
$PMTK001,183,3*3A
$PMTK869,2,0*37
$GPGGA,172632.200,5212.0887,N,00005.9617,E,2,10,0.79,6.5,M,47.0,M,0000,0000*6E

$GPGGA,172632.300,5212.0887,N,00005.9617,E,2,10,0.79,6.5,M,47.0,M,0000,0000*6F
$PMTKLOG,0,1,a,31,15,0,0,1,0,0*11
$PMTK001,183,3*3A
$PMTK869,2,0*37
$PMTKLOG,0,1,a,31,15,0,0,1,0,0*11
$PMTK001,183,3*3A
$PMTK869,2,0*37
$GPGGA,172632.400,5212.0887,N,00005.9617,E,2,10,0.79,6.5,M,47.0,M,0000,0000*68
$PMTKLOG,0,1,a,31,15,0,0,1,0,0*11
$PMTK001,183,3*3A
$PMTK869,2,0*37

$GPGGA,172632.500,5212.0887,N,00005.9617,E,2,10
,0.79,6.5,M,47.0,M,0000,0000*69
$PMTKLOG,0,1,a,31,15,0,0,1,0,0*11
$PMTK001,183,3*3A
$PMTK869,2,0*37
$GPGGA,172632.600,5212.0887,N,00005.9617,E,2,10,0.79,6.5,M,47.0,M,0000,0000*6A
$PMTKLOG,0,1,a,31,15,0,0,1,0,0*11
$PMTK001,183,3*3A
$PMTK869,2,0*37

$GPGGA,172632.700,5212.0887,N,00005.9617,E,2,10,0.79,6.5,M,47.0,M,0000,0000*6B
$GPGGA,172632.800,5212.0887,N,00005.9617,E,2,10,0.79,6.5,M,47.0,M,0000,0000*64
$PMTKLOG,0,1,a,31,15,0,0,1,0,0*11
$PMTK001,183,3*3A
$PMTK869,2,0*37
$PMTKLOG,0,1,a,31,15,0,0,1,0,0*11
$PMTK001,183,3*3A
$PMTK869,2,0*37

$GPGGA,172632.900,5212.0887,N,00005.9617,E,2,10,0.79,6.5,M,47.0,M,0000,0000*65
$GPGGA,172633.000,5212.0887,N,00005.9617,E,2,10,0.79,6.5,M,47.0,M,0000,0000*6D
$PMTKLOG,0,1,a,31,15,0,0,1,0,0*11
$PMTK001,183,3*3A
$PMTK869,2,0*37
$PMTKLOG,0,1,a,31,15,0,0,1,0,0*11
$PMTK001,183,3*3A
$PMTK869,2,0*37

$GPGGA,172633.100,5212.0888,N,00005.9617,E,2,10,0.79,6.5,M,47.0,M,0000,0000*63
$GPGGA,172633.200,5212.0888,N,00005.9617,E,2,10,0.79,6.5,M,47.0,M,0000,0000*60
$PMTKLOG,0,1,a,31,15,0,0,1,0,0*11
$PMTK001,183,3*3A
$PMTK869,2,0*37

$GPGGA,172633.300,5212.0888,N,00005.9617,E,2,10,0.79,6.5,M,47.0,M,0000,0000*61
$PMTKLOG,0,1,a,31,15,0,0,1,0,0*11
$PMTK001,183,3*3A
$PMTK869,2,0*37
$GPGGA,172633.400,5212.0888,N,00005.9617,E,2,10,0.79,6.5,M,47.0,M,0000,0000*66
$GPGGA,172633.500,5212.0888,N,00005.9
617,E,2,10,0.79,6.5,M,47.0,M,0000,0000*67
$PMTKLOG,0,1,a,31,15,0,0,1,0,0*11
$PMTK001,183,3*3A
$PMTK869,2,0*37
$GPGGA,172633.600,5212.0888,N,00005.9617,E,2,10,0.79,6.5,M,47.0,M,0000,0000*64
$PMTKLOG,0,1,a,31,15,0,0,1,0,0*11
$PMTK001,183,3*3A
$PMTK869,2,0*37
$GPGGA,172633.700,5212.0888,N,00005.9617,E,2,10,0.79,6.5,M,47.0,M,0000,0000*65
$
PMTKLOG,0,1,a,31,15,0,0,1,0,0*11
$PMTK001,183,3*3A
$PMTK869,2,0*37
$GPGGA,172633.800,5212.0888,N,00005.9617,E,2,10,0.79,6.5,M,47.0,M,0000,0000*6A
$PMTKLOG,0,1,a,31,15,0,0,1,0,0*11
$PMTK001,183,3*3A
$PMTK869,2,0*37

$GPGGA,172633.900,5212.0888,N,00005.9617,E,2,10,0.79,6.6,M,47.0,M,0000,0000*68
$PMTKLOG,0,1,a,31,15,0,0,1,0,0*11
$PMTK001,183,3*3A
$PMTK869,2,0*37

$GPGGA,172634.000,5212.0888,N,00005.9617,E,2,10,0.79,6.6,M,47.0,M,0000,0000*66
$GPGGA,172634.100,5212.0888,N,00005.9617,E,2,10,0.79,6.6,M,47.0,M,0000,0000*67

$GPGGA,172634.200,5212.0888,N,00005.9617,E,2,10,0.79,6.6,M,47.0,M,0000,0000*64
$PMTKLOG,0,1,a,31,15,0,0,1,0,0*11
$PMTK001,183,3*3A
$PMTK869,2,0*37
$GPGGA,172634.300,5212.0888,N,00005.9617,E,2,10,0.79,6.6,M,47.0,M,0000,0000*65
$PMTKLOG,0,1,a,31,15,0,0,1,0,0*11
$PMTK001,183,3*3A
$PMTK869,2,0*37
$PMTKLOG,0,1,a,31,15,0,0,1,0,0*11
$PMTK001,183,3*3A
$PMTK869,2,0*37

$GPGGA,172634.400,5212.0888,N,00005.9617,E,2,10,0.79,6.6,M,47.0,M,0000,0000*62
$GPGGA,172634.500,5212.0888,N,00005.9617,E,2,10,0.79,6.6,M,47.0,M,0000,0000*63
$PMTKLOG,0,1,a,31,15,0,0,1,0,0*11
$PMTK001,183,3*3A
$PMTK869,2,0*37

$
GPGGA,172634.600,5212.0888,N,00005.9617,E,2,10,0.79,6.6,M,47.0,M,0000,0000*60
$PMTKLOG,0,1,a,31,15,0,0,1,0,0*11
$PMTK001,183,3*3A
$PMTK869,2,0*37
$GPGGA,172634.700,5212.0888,N,00005.9617,E,2,10,0.79,6.6,M,47.0,M,0000,0000*61
$PMTKLOG,0,1,a,31,15,0,0,1,0,0*11
$PMTK001,183,3*3A
$PMTK869,2,0*37

$GPGGA,172634.800,5212.0888,N,00005.9617,E,2,10,0.79,6.6,M,47.0,M,0000,0000*6E
$PMTKLOG,0,1,a,31,15,0,0,1,0,0*11
$PMTK001,183,3*3A
$PMTK869,2,0*37

$GPGGA,172634.900,5212.0888,N,00005.9617,E,2,10,0.79,6.6,M,47.0,M,0000,0000*6F
$PMTKLOG,0,1,a,31,15,0,0,1,0,0*11
$PMTK001,183,3*3A
$PMTK869,2,0*37

$GPGGA,172635.000,5212.0888,N,00005.9617,E,2,10,0.79,6.6,M,47.0,M,0000,0000*67
$GPGGA,172635.100,5212.0888,N,00005.9617,E,2,10,0.79,6.6,M,47.0,M,0000,0000*66
$PMTKLOG,0,1,a,31,15,0,0,1,0,0*11
$PMTK001,183,3*3A
$PMTK869,2,0*37

$GPGGA,172635.200,5212.0888,N,00005.9617,E,2,10,0.79,6.6,M,47.0,M,0000,0000*65
$GPGGA,172635.300,5212.0888,N,00005.9617,E,2,10,0.79,6.6,M,47.0,M,0000,0000*64
$PMTKLOG,0,1,a,31,15,0,0,1,0,0*11
$PMTK001,183,3*3A
$PMTK869,2,0*37

$GPGGA,172635.400,5212.0888,N,00005.9617,E,2,10,0.79,6.6,M,47.0,M,0000,0000*63
$GPGGA,172635.500,5212.0888,N,00005.9617,E,2,10,0.79,6.6,M,47.0,M,0000,0000*62
$PMTKLOG,0,1,a,31,15,0,0,1,0,0*11
$PMTK001,183,3*3A
$PMTK869,2,0*37

$GPGGA,172635.600,5212.0888,N,00005.9617,E,2,10,0.79,6.6,M,47.0,M,0000,0000*61
$PMTKLOG,0,1,a,31,15,0,0,1,0,0*11
$PMTK001,183,3*3A
$PMTK869,2,0*37
$GPGGA,172635.700,5212.0888,N,00005.9617,E,2,10,0.79,6.6,M,47.0,M,0000,0000*60
$PMTKLOG,0,1,a,31,15,0,0,1,0,0*11
$PMTK001,183,3*3A
$PMTK869,2,0*37

$GPGGA,172635.800,5212.0888,N,00005.9617,E,2,10,0.79,6.6,M,47.0,M,0000,0000*6F
$PMTKLOG,0,1,a,31,15,0,0,1,0,0*11
$PMTK001,183,3*3A
$PMTK869,2,0*37

$GPGGA,172635.900,5212.0888,N,00005.9617,E,2,10,0.79,6.6,M,47.0,M,0000,0000*6E
$PMTKLOG,0,1,a,31,15,0,0,1,0,0*11
$PMTK001,183,3*3A
$PMTK869,2,0*37
$GPGGA,172636.000,5212.0888,N,00005.9617,E,2,10,0.79,6.7,M,47.0,M,0000,0000*65
$GPGGA,172636.100,5212.0888,N,00005.9617,E,2,10,0.79,6.7,M,47.0,M,0000,0000*64
$PMTKLOG,0,1,a,31,15,0,0,1,0,0*11
$PMTK001,183,3*3A
$PMTK869,2,0*37
$PMTKLOG,0,1
,a,31,15,0,0,1,0,0*11
$PMTK001,183,3*3A
$PMTK869,2,0*37
$GPGGA,172636.200,5212.0888,N,00005.9617,E,2,10,0.79,6.7,M,47.0,M,0000,0000*67
$GPGGA,172636.300,5212.0888,N,00005.9617,E,2,10,0.79,6.7,M,47.0,M,0000,0000*66
$PMTKLOG,0,1,a,31,15,0,0,1,0,0*11
$PMTK001,183,3*3A
$PMTK869,2,0*37
$PMTKLOG,0,1,a,31,15,0,0,1,0,0*11
$PMTK001,183,3*3A
$PMTK869,2,0*37

$GPGGA,172636.400,5212.0888,N,00005.9617,E,2,10,0.79,6.7,M,47.0,M,0000,0000*61
$GPGGA,172636.500,5212.0888,N,00005.9617,E,2,10,0.79,6.7,M,47.0,M,0000,0000*60
$PMTKLOG,0,1,a,31,15,0,0,1,0,0*11
$PMTK001,183,3*3A
$PMTK869,2,0*37
$PMTKLOG,0,1,a,31,15,0,0,1,0,0*11
$PMTK001,183,3*3A
$PMTK869,2,0*37

$GPGGA,172636.600,5212.0888,N,00005.9617,E,2,10,0.79,6.7,M,47.0,M,0000,0000*63
$GPGGA,172636.700,5212.0888,N,00005.9617,E,2,10,0.79,6.7,M,47.0,M,0000,0000*62
$PMTKLOG,0,1,a,31,15,0,0,1,0,0*11
$PMTK001,183,3*3A
$PMTK869,2,0*37
$PMTKLOG,0,1,a,31,15,0,0,1,0,0*11
$PMTK001,183,3*3A
$PMTK869,2,0*37

$GPGGA,172636.800,5212.0888,N,00005.9617,E,2,10,0.79,6.7,M,47.0,M,0000,0000*6D
$GPGGA,172636.900,5212.0888,N,00005.9617,E,2,10,0.79,6.7,M,47.0,M,0000,0000*6C

$GPGGA,172637.000,5212.0888,N,00005.9617,E,2,10,0.79,6.7,M,47.0,M,0000,0000*64
$PMTKLOG,0,1,a,31,15,0,0,1,0,0*11
$PMTK001,183,3*3A
$PMTK869,2,0*37
$PMTKLOG,0,1,a,31,15,0,0,1,0,0*11
$PMTK001,183,3*3A
$PMTK869,2,0*37
$GPGGA,172637.100,5212.0888,N,00005.9617,E,2,10,0.79,6.7,M,47.0,M,0000,0000*65
$GPGGA,172637.200,5212.0888,N,00005.9617,E,2,10,0.79
,6.7,M,47.0,M,0000,0000*66
$PMTKLOG,0,1,a,31,15,0,0,1,0,0*11
$PMTK001,183,3*3A
$PMTK869,2,0*37
$PMTKLOG,0,1,a,31,15,0,0,1,0,0*11
$PMTK001,183,3*3A
$PMTK869,2,0*37
$GPGGA,172637.300,5212.0888,N,00005.9617,E,2,10,0.79,6.7,M,47.0,M,0000,0000*67
$GPGGA,172637.400,5212.0888,N,00005.9617,E,2,10,0.79,6.7,M,47.0,M,0000,0000*60
$PMTKLOG,0,1,a,31,15,0,0,1,0,0*11
$PMTK001,183,3*3A
$PMTK869,2,0*37
$PMTKLOG,0,1,a,31,15,0,0,1,0,0*11
$PMTK001,183,3*3A
$PMTK869,2,0*37

$GPGGA,172637.500,5212.0888,N,00005.9617,E,2,10,0.79,6.7,M,47.0,M,0000,0000*61
$PMTKLOG,0,1,a,31,15,0,0,1,0,0*11
$PMTK001,183,3*3A
$PMTK869,2,0*37

$GPGGA,172637.600,5212.0888,N,00005.9617,E,2,10,0.79,6.7,M,47.0,M,0000,0000*62
$GPGGA,172637.700,5212.0888,N,00005.9617,E,2,10,0.79,6.7,M,47.0,M,0000,0000*63
$PMTKLOG,0,1,a,31,15,0,0,1,0,0*11
$PMTK001,183,3*3A
$PMTK869,2,0*37
$PMTKLOG,0,1,a,31,15,0,0,1,0,0*11
$PMTK001,183,3*3A
$PMTK869,2,0*37

$GPGGA,172637.800,5212.0888,N,00005.9617,E,2,10,0.79,6.7,M,47.0,M,0000,0000*6C
$GPGGA,172637.900,5212.0888,N,00005.9617,E,2,10,0.79,6.7,M,47.0,M,0000,0000*6D
$PMTKLOG,0,1,a,31,15,0,0,1,0,0*11
$PMTK001,183,3*3A
$PMTK869,2,0*37

$GPGGA,172638.000,5212.0888,N,00005.9617,E,2,10,0.79,6.7,M,47.0,M,0000,0000*6B
$PMTKLOG,0,1,a,31,15,0,0,1,0,0*11
$PMTK001,183,3*3A
$PMTK869,2,0*37
$GPGGA,172638.100,5212.0888,N,00005.9617,E,2,10,0.79,6.7,M,47.0,M,0000,0000*6A

$GPGGA,172638.200,5212.0888,N,00005.9617,E,2,10,0.79,6.7,M,47.0,M,0000,0000*69
$PMTKLOG,0,1,a,31,15,0,0,1,0,0*11
$PMTK001,183,3*3A
$PMTK869,2,0*37
$GPGGA,172638.300,5212.0888,N,00005.9617,E,2,10,0.79,6.7,M,47.0,M,0000,0000*68
$GPGGA,172638.400,5212.0888,N,00005.9617,E,2,10,0.79,6.7,M,47.0,M,0000,0000*6F
$PMTKLOG,0,1,a,31,15,0,0
,1,0,0*11
$PMTK001,183,3*3A
$PMTK869,2,0*37
$PMTKLOG,0,1,a,31,15,0,0,1,0,0*11
$PMTK001,183,3*3A
$PMTK869,2,0*37
$GPGGA,172638.500,5212.0888,N,00005.9617,E,2,10,0.79,6.7,M,47.0,M,0000,0000*6E
$GPGGA,172638.600,5212.0888,N,00005.9617,E,2,10,0.79,6.7,M,47.0,M,0000,0000*6D
$PMTKLOG,0,1,a,31,15,0,0,1,0,0*11
$PMTK001,183,3*3A
$PMTK869,2,0*37
$PMTKLOG,0,1,a,31,15,0,0,1,0,0*11
$PMTK001,183,3*3A
$PMTK869,2,0*37

$GPGGA,172638.700,5212.0888,N,00005.9617,E,2,10,0.79,6.7,M,47.0,M,0000,0000*6C
$GPGGA,172638.800,5212.0888,N,00005.9617,E,2,10,0.79,6.7,M,47.0,M,0000,0000*63
$PMTKLOG,0,1,a,31,15,0,0,1,0,0*11
$PMTK001,183,3*3A
$PMTK869,2,0*37

$GPGGA,172638.900,5212.0888,N,00005.9617,E,2,10,0.79,6.7,M,47.0,M,0000,0000*62
$GPGGA,172639.000,5212.0888,N,00005.9617,E,2,10,0.79,6.7,M,47.0,M,0000,0000*6A
$PMTKLOG,0,1,a,31,15,0,0,1,0,0*11
$PMTK001,183,3*3A
$PMTK869,2,0*37
$PMTKLOG,0,1,a,31,15,0,0,1,0,0*11
$PMTK001,183,3*3A
$PMTK869,2,0*37

$GPGGA,172639.100,5212.0888,N,00005.9617,E,2,10,0.79,6.7,M,47.0,M,0000,0000*6B
$GPGGA,172639.200,5212.0888,N,00005.9617,E,2,10,0.79,6.7,M,47.0,M,0000,0000*68

$GPGGA,172639.300,5212.0888,N,00005.9617,E,2,10,0.79,6.7,M,47.0,M,0000,0000*69
$PMTKLOG,0,1,a,31,15,0,0,1,0,0*11
$PMTK001,183,3*3A
$PMTK869,2,0*37
$GPGGA,172639.400,5212.0888,N,00005.9617,E,2,10,0.79,6.7,M,47.0,M,0000,0000*6E
$PMTKLOG,0,1,a,31,15,0,0,1,0,0*11
$PMTK001,183,3*3A
$PMTK869,2,0*37

$GPGGA,172639.500,5212.0888,N,00005.9617,E,2,10,0.79,6.7,M,47.0,M,0000,0000*6F
$PMTKLOG,0,1,a,31,15,0,0,1,0,0*11
$PMTK001,183,3*3A
$PMTK869,2,0*37
$GPGGA,172639.600,5212.0888,N,00005.9617,E,2,10,0.79,6.7,M,47.0,M,0000,0000*6C
$PMTKLOG,0,1,a,31,15,0,0,1,0,0*11
$PMTK001,183,3*3A
$PMTK869,2,0*37

$GPGGA,172639.700,5212.0888,N,00005.9617,E,2,10,0.79,6.7,M,47.0,M,0000,0000*6D
$GPGGA,172639.800,5212.0888,N,00005.9617,E,2,10,0.79,6.7,M,47.0,M,0000,0000*62
$PMTKLOG,0,1,a,31,15,0,0,1,0,0*11
$PMTK001,183,3*3A
$PMTK869,2,0*37

$GPGGA,172639.900,5212.0888,N,00005.9617,E,2,10,0.79,6.7,M,47.0,M,0000,0000*63
$GPGGA,172640.000,5212.0888,N,00005.9617,E,2,10,0.79,6.7,M,47.0,M,0000,0000*64
$GPGGA,1
72640.100,5212.0888,N,00005.9617,E,2,10,0.79,6.7,M,47.0,M,0000,0000*65
$PMTKLOG,0,1,a,31,15,0,0,1,0,0*11
$PMTK001,183,3*3A
$PMTK869,2,0*37
$PMTKLOG,0,1,a,31,15,0,0,1,0,0*11
$PMTK001,183,3*3A
$PMTK869,2,0*37
$GPGGA,172640.200,5212.0888,N,00005.9617,E,2,10,0.79,6.7,M,47.0,M,0000,0000*66

$GPGGA,172640.300,5212.0888,N,00005.9617,E,2,10,0.79,6.7,M,47.0,M,0000,0000*67
$PMTKLOG,0,1,a,31,15,0,0,1,0,0*11
$PMTK001,183,3*3A
$PMTK869,2,0*37

$GPGGA,172640.400,5212.0888,N,00005.9617,E,2,10,0.79,6.7,M,47.0,M,0000,0000*60
$PMTKLOG,0,1,a,31,15,0,0,1,0,0*11
$PMTK001,183,3*3A
$PMTK869,2,0*37

$GPGGA,172640.500,5212.0888,N,00005.9617,E,2,10,0.79,6.7,M,47.0,M,0000,0000*61
$PMTKLOG,0,1,a,31,15,0,0,1,0,0*11
$PMTK001,183,3*3A
$PMTK869,2,0*37

$GPGGA,172640.600,5212.0888,N,00005.9617,E,2,10,0.79,6.7,M,47.0,M,0000,0000*62
$PMTKLOG,0,1,a,31,15,0,0,1,0,0*11
$PMTK001,183,3*3A
$PMTK869,2,0*37
$GPGGA,172640.700,5212.0888,N,00005.9617,E,2,10,0.79,6.7,M,47.0,M,0000,0000*63

$PMTKLOG,0,1,a,31,15,0,0,1,0,0*11
$PMTK001,183,3*3A
$PMTK869,2,0*37
$GPGGA,172640.800,5212.0888,N,00005.9617,E,2,10,0.79,6.7,M,47.0,M,0000,0000*6C
$GPGGA,172640.900,5212.0888,N,00005.9617,E,2,10,0.79,6.7,M,47.0,M,0000,0000*6D
$PMTKLOG,0,1,a,31,15,0,0,1,0,0*11
$PMTK001,183,3*3A
$PMTK869,2,0*37
$PMTKLOG,0,1,a,31,15,0,0,1,0,0*11
$PMTK001,183,3*3A
$PMTK869,2,0*37

$GPGGA,172641.000,5212.0888,N,00005.9617,E,2,10,0.79,6.7,M,47.0,M,0000,0000*65
$GPGGA,172641.100,5212.0888,N,00005.9617,E,2,10,0.79,6.7,M,47.0,M,0000,0000*64
$PMTKLOG,0,1,a,31,15,0,0,1,0,0*11
$PMTK001,183,3*3A
$PMTK869,2,0*37
$PMTKLOG,0,1,a,31,15,0,0,1,0,0*11
$PMTK001,183,3*3A
$PMTK869,2,0*37

$GPGGA,172641.200,5212.0888,N,00005.9617,E,2,10,0.79,6.7,M,47.0,M,0000,0000*67
$GPGGA,172641.300,5212.0888,N,00005.9617,E,2,10,0.79,6.7,M,47.0,M,0000,0000*66
$PMTKLOG,0,1,a,31,15,0,0,1,0,0*11
$PMTK001,183,3*3A
$PMTK869,2,0*37
$PMTKLOG,0,1,a,31,15,0,0,1,0,0*11
$PMTK001,183,3*3A
$PMTK869,2,0*37

$GPGGA,172641.400,5212.0888,N,00005.9617,E,2,10,0.79,6.7,M,47.0,M,0000,0000*61
$GPGGA,172641.500,5212.0888,N,00005.9617,E,2,10,0.79,6.7,M,47.0,M,0000,0000*60
$GPGGA,172641.600,5212.0888,N,00005.9617,E,2,10,0.79,6.7,M,47.0,M,0000,0000*63
$PMTKLOG,0,1,a,31,15,0,0,1,0,0*11
$PMTK001,183,3*3A
$PMTK869,2,0*37

$GPGGA,172641.700,5212.0888,N,00005.9617,E,2,10,0.79,6.7,M,47.0,M,0000,0000*62
$PMTKLOG,0,1,a,31,15,0,0,1,0,0*11
$PMTK001,183,3*3A
$PMTK869,2,0*37

$GPGGA,172641.800,5212.0888,N,00005.9617,E,2,10,0.79,6.7,M,47.0,M,0000,0000*6D
$PMTKLOG,0,1,a,31,15,0,0,1,0,0*11
$PMTK001,183,3*3A
$PMTK869,2,0*37
$GPGGA,172641.900,5212.0888,N,000
05.9617,E,2,10,0.79,6.7,M,47.0,M,0000,0000*6C
$PMTKLOG,0,1,a,31,15,0,0,1,0,0*11
$PMTK001,183,3*3A
$PMTK869,2,0*37
$GPGGA,172642.000,5212.0888,N,00005.9617,E,2,10,0.79,6.7,M,47.0,M,0000,0000*66

$GPGGA,172642.100,5212.0888,N,00005.9617,E,2,10,0.79,6.7,M,47.0,M,0000,0000*67
$PMTKLOG,0,1,a,31,15,0,0,1,0,0*11
$PMTK001,183,3*3A
$PMTK869,2,0*37
$GPGGA,172642.200,5212.0888,N,00005.9617,E,2,10,0.79,6.7,M,47.0,M,0000,0000*64
$PMTKLOG,0,1,a,31,15,0,0,1,0,0*11
$PMTK001,183,3*3A
$PMTK869,2,0*37
$PMTKLOG,0,1,a,31,15,0,0,1,0,0*11
$PMTK001,183,3*3A
$PMTK869,2,0*37

$GPGGA,172642.300,5212.0888,N,00005.9617,E,2,10,0.79,6.7,M,47.0,M,0000,0000*65
$GPGGA,172642.400,5212.0888,N,00005.9617,E,2,10,0.79,6.7,M,47.0,M,0000,0000*62
$PMTKLOG,0,1,a,31,15,0,0,1,0,0*11
$PMTK001,183,3*3A
$PMTK869,2,0*37
$PMTKLOG,0,1,a,31,15,0,0,1,0,0*11
$PMTK001,183,3*3A
$PMTK869,2,0*37

$GPGGA,172642.500,5212.0888,N,00005.9617,E,2,10,0.79,6.7,M,47.0,M,0000,0000*63

$GPGGA,172642.600,5212.0888,N,00005.9617,E,2,10,0.79,6.7,M,47.0,M,0000,0000*60
$PMTKLOG,0,1,a,31,15,0,0,1,0,0*11
$PMTK001,183,3*3A
$PMTK869,2,0*37
$GPGGA,172642.700,5212.0888,N,00005.9617,E,2,10,0.79,6.7,M,47.0,M,0000,0000*61
$PMTKLOG,0,1,a,31,15,0,0,1,0,0*11
$PMTK001,183,3*3A
$PMTK869,2,0*37

$GPGGA,172642.800,5212.0888,N,00005.9617,E,2,10,0.79,6.7,M,47.0,M,0000,0000*6E
$PMTKLOG,0,1,a,31,15,0,0,1,0,0*11
$PMTK001,183,3*3A
$PMTK869,2,0*37
$GPGGA,172642.900,5212.0888,N,00005.9617,E,2,10,0.79,6.7,M,47.0,M,0000,0000*6F
$PMTKLOG,0,1,a,31,15,0,0,1,0,0*11
$PMTK001,183,3*3A
$PMTK869,2,0*37
$GPGGA,172643.000,5212.0888,N,00005.9617,E,2,10,0.79,
6.7,M,47.0,M,0000,0000*67
$PMTKLOG,0,1,a,31,15,0,0,1,0,0*11
$PMTK001,183,3*3A
$PMTK869,2,0*37
$GPGGA,172643.100,5212.0888,N,00005.9617,E,2,10,0.79,6.7,M,47.0,M,0000,0000*66
$PMTKLOG,0,1,a,31,15,0,0,1,0,0*11
$PMTK001,183,3*3A
$PMTK869,2,0*37

$GPGGA,172643.200,5212.0888,N,00005.9617,E,2,10,0.79,6.7,M,47.0,M,0000,0000*65
$GPGGA,172643.300,5212.0888,N,00005.9617,E,2,10,0.79,6.7,M,47.0,M,0000,0000*64
$PMTKLOG,0,1,a,31,15,0,0,1,0,0*11
$PMTK001,183,3*3A
$PMTK869,2,0*37
$PMTKLOG,0,1,a,31,15,0,0,1,0,0*11
$PMTK001,183,3*3A
$PMTK869,2,0*37

$GPGGA,172643.400,5212.0888,N,00005.9617,E,2,10,0.79,6.7,M,47.0,M,0000,0000*63
$GPGGA,172643.500,5212.0888,N,00005.9617,E,2,10,0.79,6.7,M,47.0,M,0000,0000*62
$PMTKLOG,0,1,a,31,15,0,0,1,0,0*11
$PMTK001,183,3*3A
$PMTK869,2,0*37
$PMTKLOG,0,1,a,31,15,0,0,1,0,0*11
$PMTK001,183,3*3A
$PMTK869,2,0*37

$GPGGA,172643.600,5212.0888,N,00005.9617,E,2,10,0.79,6.7,M,47.0,M,0000,0000*61
$GPGGA,17
2643.700,5212.0888,N,00005.9617,E,2,10,0.79,6.7,M,47.0,M,0000,0000*60
$PMTKLOG,0,1,a,31,15,0,0,1,0,0*11
$PMTK001,183,3*3A
$PMTK869,2,0*37
$GPGGA,172643.800,5212.0888,N,00005.9617,E,2,10,0.79,6.7,M,47.0,M,0000,0000*6F
$PMTKLOG,0,1,a,31,15,0,0,1,0,0*11
$PMTK001,183,3*3A
$PMTK869,2,0*37

$GPGGA,172643.900,5212.0888,N,00005.9617,E,2,10,0.79,6.7,M,47.0,M,0000,0000*6E
$PMTKLOG,0,1,a,31,15,0,0,1,0,0*11
$PMTK001,183,3*3A
$PMTK869,2,0*37

$GPGGA,1726
44.000,5212.0888,N,00005.9617,E,2,10,0.79,6.7,M,47.0,M,0000,0000*60
$PMTKLOG,0,1,a,31,15,0,0,1,0,0*11
$PMTK001,183,3*3A
$PMTK869,2,0*37
$GPGGA,172644.100,5212.0888,N,00005.9617,E,2,10,0.79,6.7,M,47.0,M,0000,0000*61
$PMTKLOG,0,1,a,31,15,0,0,1,0,0*11
$PMTK001,183,3*3A
$PMTK869,2,0*37

$GPGGA,172644.200,5212.0888,N,00005.9617,E,2,10,0.79,6.7,M,47.0,M,0000,0000*62
$GPGGA,172644.300,5212.0888,N,00005.9617,E,2,10,0.79,6.7,M,47.0,M,0000,0000*63
$PMTKLOG,0,1,a,31,15,0,0,1,0,0*11
$PMTK001,183,3*3A
$PMTK869,2,0*37
$PMTKLOG,0,1,a,31,15,0
,0,1,0,0*11
$PMTK001,183,3*3A
$PMTK869,2,0*37
$GPGGA,172644.400,5212.0888,N,00005.9617,E,2,10,0.79,6.7,M,47.0,M,0000,0000*64

$GPGGA,172644.500,5212.0888,N,00005.9617,E,2,10,0.79,6.7,M,47.0,M,0000,0000*65
$PMTKLOG,0,1,a,31,15,0,0,1,0,0*11
$PMTK001,183,3*3A
$PMTK869,2,0*37
$PMTKLOG,0,1,a,31,15,0,0,1,0,0*11
$PMTK001,183,3*3A
$PMTK869,2,0*37
$GPGGA,172644.600,5212.0888,N,00005.9617,E,2,10,0.79,6.7,M,47.0,M,0000,0000*66

$GPGGA,172644.70
0,5212.0888,N,00005.9617,E,2,10,0.79,6.7,M,47.0,M,0000,0000*67
$PMTKLOG,0,1,a,31,15,0,0,1,0,0*11
$PMTK001,183,3*3A
$PMTK869,2,0*37
$PMTKLOG,0,1,a,31,15,0,0,1,0,0*11
$PMTK001,183,3*3A
$PMTK869,2,0*37

$GPGGA,172644.800,5212.0888,N,00005.9617,E,2,10,0.79,6.7,M,47.0,M,0000,0000*68

$GPGGA,172644.900,5212.0888,N,00005.9617,E,2,10,0.79,6.7,M,47.0,M,0000,0000*69
$PMTKLOG,0,1,a,31,15,0,0,1,0,0*11
$PMTK001,183,3*3A
$PMTK869,2,0*37
$GPGGA,172645.000,5212.0888,N,00005.9617,E,2,10,0.79,6.8,M,47.0,M,0000,0000*6E
$PMTKLOG,0,1,a,31,15,0,0,1,0,0*11
$PMTK001,183,3*3A
$PMTK869,2,0*37

$GPGGA,172645.100,5212.0888,N,00005.9617,E,2,10,0.79,6.8,M,47.0,M,0000,0000*6F
$PMTKLOG,0,1,a,31,15,0,0,1,0,0*11
$PMTK001,183,3*3A
$PMTK869,2,0*37
$GPGGA,172645.200,5212.0888,N,00005.9617,E,2,10,0.79,6.8,M,47.0,M,0000,0000*6C

$GPGGA,172645.300,5212.0888,N,00005.9617,E,2,10,0.79,6.8,M,47.0,M,0000,0000*6D
$PMTKLOG,0,1,a,31,15,0,0,1,0,0*11
$PMTK001,183,3*3A
$PMTK869,2,0*37
$PMTKLOG,0,1,a,31,15,0,0,1,0,0*11
$PMTK001,183,3*3A
$PMTK869,2,0*37
$GPGGA,172645.400,5212.0888,N,00005.9617,E,2,10,0.79,6.8,M,47.0,M,0000,0000*6A
$PMTKLOG,0,1,a,31,15,0,0,1,0,0*11
$PMTK001,183,3*3A
$PMTK869,2,0*37

$GPGGA,172645.500,5212.0888,N,00005.9617,E,2,10,0.79,6.8,M,47.0,M,0000,0000*6B
$PMTKLOG,0,1,a,31,15,0,0,1,0,0*11
$PMTK001,183,3*3A
$PMTK869,2,0*37

$GPGGA,172645.600,5212.0888,N,00005.9617,E,2,10,0.79,6.8,M,47.0,M,0000,0000*68
$GPGGA,172645.700,5212.0888,N,00005.9617,E,2,10,0.79,6.8,M,47.0,M,0000,0000*69
$PMTKLOG,0,1,a,31,15,0,0,1,0,0*11
$PMTK001,183,3*3A
$PMTK869,2,0*37

$GPGGA,172645.800,5212.0888,N,00005.9617,E,2,10,0.79,6.8,M,47.0,M,0000,0000*66

$GPGGA,172645.900,5212.0888,N,00005.9617,E,2,10,0.79,6.8,M,47.0,M,0000,0000*67
$PMTKLOG,0,1,a,31,15,0,0,1,0,0*11
$PMTK001,183,3*3A
$PMTK869,2,0*37
$GPGGA,172646.000,5212.0888,N,00005.9617,E,2,10,0.79,6.8,M,47.0,M,0000,0000*6D
$PMTKLOG,0,1,a,31,15,0,0,1,0,0*11
$PMTK001,183,3*3A
$PMTK869,2,0*37
$PMTKLOG,0,1,a,31,15,0,0,1,0,0*11
$PMTK001,183,3*3A
$PMTK869,2,0*37

$GPGGA,172646.100,5212.0888,N,00005.9617,E,2,10,0.79,6.8,M,47.0,M,0000,0000*6C
$GPGGA,172646.200,5212.0888,N,00005.9617,E,2,10,0.79,6.8,M,47.0,M,0000,0000*6F
$PMTKLOG,0,1,a,31,15,0,0,1,0,0*11
$PMTK001,183,3*3A
$PMTK869,2,0*37

$GPGGA,172646.300,5212.0888,N,00005.9617,E,2,10,0.79,6.8,M,47.0,M,0000,0000*6E
$PMTKLOG,0,1,a,31,15,0,0,1,0,0*11
$PMTK001,183,3*3A
$PMTK869,2,0*37
$GPGGA,172646.400,5212.0888,N,00005.9617,E,2,10,0.79,6.8,M,47.0,M,0000,0000*69
$PMTKLOG,0,1,a,31,15,0,0,1,0,0*11
$PMTK001,183,3*3A
$PMTK869,2,0*37
$GPGGA,172646.500,5212.0888,N,00005.9617,E,2,10,0.79,6.8,M,47.0,M,0000,0000*68
$PMTKLOG,0,1,a,31,15,0,0,1,0,0*11
$PMTK001,183,3*
3A
$PMTK869,2,0*37
$GPGGA,172646.600,5212.0888,N,00005.9617,E,2,10,0.79,6.8,M,47.0,M,0000,0000*6B
$PMTKLOG,0,1,a,31,15,0,0,1,0,0*11
$PMTK001,183,3*3A
$PMTK869,2,0*37

$GPGGA,172646.700,5212.0888,N,00005.9617,E,2,10,0.79,6.8,M,47.0,M,0000,0000*6A
$PMTKLOG,0,1,a,31,15,0,0,1,0,0*11
$PMTK001,183,3*3A
$PMTK869,2,0*37

$GPGGA,172646.800,5212.0888,N,00005.9617,E,2,10,0.79,6.8,M,47.0,M,0000,0000*65
$PMTKLOG,0,1,a,31,15,0,0,1,0,0*11
$PMTK001,183,3*3A
$PMTK869,2,0*37

$GPGGA,172646.900,5212.0888,N,00005.9617,E,2,10,0.79,6.8,M,47.0,M,0000,0000*64
$PMTKLOG,0,1,a,31,15,0,0,1,0,0*11
$PMTK001,183,3*3A
$PMTK869,2,0*37

$GPGGA,172647.000,5212.0888,N,00005.9617,E,2,10,0.79,6.8,M,47.0,M,0000,0000*6C

