$GPGGA,170224.000,5212.0879,N,00005.9619,E,1,09,0.89,8.7,M,47.0,M,,*6A
$PMTKLOG,0,1,a,31,15,0,0,1,0,0*11
$PMTK001,183,3*3A
$PMTK869,2,1*36

$GPGGA,170225.000,5212.0879,N,00005.9619,E,1,09,0.89,8.7,M,47.0,M,,*6B
$PMTKLOG,0,1,a,31,15,0,0,1,0,0*11
$PMTK001,183,3*3A

$PMTK869,2,1*36

$GPGGA,170226.000,5212.0879,N,00005.9619,E,1,09,0.89,8.7,M,47.0,M,,*68
$PMTKLOG,0,1,a,31,15,0,0,1,0,0*11
$PMTK001,183,3*3A
$PMTK869,2,1*36

$GPGGA,170227.000,5212.0879,N,00005.9619,E,1,09,0.89,8.7,M,47.0,M,,*69

$PMTKLOG,0,1,a,31,15,0,0,1,0,0*11
$PMTK001,183,3*3A
$PMTK869,2,1*36

$GPGGA,170228.000,5212.0879,N,00005.96
19,E,1,09,0.89,8.7,M,47.0,M,,*66
$PMTKLOG,0,1,a,31,15,0,0,1,0,0*11
$PMTK001,183,3*3A
$PMTK869,2,1*36

$GPGGA,170229.000,5212.0879,N,00005.9619,E,1,09,0.89,8.
7,M,47.0,M,,*67
$PMTKLOG,0,1,a,31,15,0,0,1,0,0*11
$PMTK001,183,3*3A
$PMTK869,2,1*36

$GPGGA,170230.000,5212.0879,N,00005.9619,E,1,09,0.89,8.7,M,47.0,M,,*6F
$PMTKLOG,0,1,a,31,15,0,0,1,0,0*11
$PMTK001,183,3*3A
$PMTK869,2,1*36

$GPGGA,170231.000,5212.0879,N,00005.9619,E,1,09,0.89,8.7,M,47.0,M,,*6E

$PMTKLOG,0,1,a,31,15,0,0,1,0,0*11
$PMTK001,183,3*3A
$PMTK869,2,1*36

$GPGGA,170232.000,5212.0879,N,00005.9619,E,1,09,0.89,8.7,M,47.0,M,,*6D

$PMTKLOG,0,1,a,31,15,0,0,1,0,0*11
$PMTK001,183,3*3A
$PMTK869,2,1*36

$GPGGA,170233.000,5212.0879,N,
00005.9619,E,1,09,0.89,8.7,M,47.0,M,,*6C
$PMTKLOG,0,1,a,31,15,0,0,1,0,0*11
$PMTK001,183,3*3A
$PMTK869,2,1*36

$GPGGA,170234.000,5212.0879,N,00005.9619,E,1,09,0.89,8.7,M,47.0,M,,*6B
$PMTKLOG,0,1,a,31,15,0,0,1,0,0*11
$PMTK001,183,3*3A
$PMTK869,2,1*36

$GPGGA,170235.000,5212.0879,N,00005.9619,E,1,09,0.89,8.7,M,47.0,M,,*6A
$PMTKLOG,0,1,a,31,15,0,0,1,0,0*11
$PMTK001,183,3*3A
$PMTK869,2,1*36

$GPGGA,170236.000,5212.0879,N,00005.9619,E,1,09,0.89,8.7,M,47.0,M,,*69

$PMTKLOG,0,1,a,31,15,0,0,1,0,0*11
$PMTK001,183,3*3A
$PMTK869,2,1*36

$GPGGA,170237.000,5212.0879,N,00005.9619,E,1,09,0.89,8.7,M,47.0,M,,*68

$PMTKLOG,0,1,a,31,15,0,0,1,0,0*11
$PMTK001,183,3*3A
$PMTK869,2,1*36

$GPGGA,170238.000,5212.0879,N,00005.9619,E,1,09,0.89,8.7,M,47.0,M,,*67

$PMTKLOG,0,1,a,31,15,0,0,1,0,0*11
$PMTK001,183,3*3A
$PMTK869,2,1*36

$GPGGA,170239.000,5212.0879,N,00005.9619,E,1,09,0.89,8.7,M,47.0,M,,*66

$PMTKLOG,0,1,a,31,15,0,0,1,0,0*11
$PMTK001,183,3*3A
$PMTK869,2,1*36

$GPGGA,170240.000,5212.0879,N,00005.9619,E,1,09,0.89,8.7,M,47.0,M,,*68

$PMTKLOG,0,1,a,31,15,0,0,1,0,0*11
$PMTK001,183,3*3A
$PMTK869,2,1*36

$GPGGA,170241.000,5212.0879,N,00005.9619,E,1,09,0.89,8.7,M,47.0,M,,*69

$PMTKLOG,0,1,a,31,15,0,0,1,0,0*11
$PMTK001,183,3*3A
$PMTK869,2,1*36

$GPGGA,170242.000,5212.0879,N,00005.9619,E,1,09,0.89,8.7,M,47.0,M,,*6A

$PMTKLOG,0,1,a,31,15,0,0,1,0,0*11
$PMTK001,183,3*3A
$PMTK869,2,1*36

$GPGGA,170243.000,5212.0879,N,00005.9619,E,1,09,0.89,8.7,M,47.0,M,,*6B

$PMTKLOG,0,1,a,31,15,0,0,1,0,0*11
$PMTK001,183,3*3A
$PMTK869,2,1*36

$GPGGA,170244.000,5212.0879,N,00005.9619,E,1,09,0.89,8.7,M,47.0,M,,*6C
$PMTKLOG,0,1,a,31,15,0,0,1,0,0*11
$PMTK001,183,3*3A
$PMTK869,2,1*36

$GPGGA,170245.000,5212.0879,N,00005.9619,E,1,09,0.89,8.7,M,47.0,M,,*6D

$PMTKLOG,0,1,a,31,15,0,0,1,0,0*11
$PMTK001,183,3*3A
$PMTK869,2,1*36

$GPGGA,170246.000,5212.0879,N,00005.9619,E,1,09,0.89,8.7,M,47.0,M,,*6E

$PMTKLOG,0,1,a,31,15,0,0,1,0,0*11
$PMTK001,183,3*3A
$PMTK869,2,1*36

$GPGGA,170247.000,5212.0879,N,00005.9619,E,1,09,0.89,8.7,M,47.
0,M,,*6F
$PMTKLOG,0,1,a,31,15,0,0,1,0,0*11
$PMTK001,183,3*3A
$PMTK869,2,1*36

$GPGGA,170248.000,5212.0879,N,00005.9619,E,1,09,0.89,8.7,M,47.0,M,,*60

$PMTKLOG,0,1,a,31,15,0,0,1,0,0*11
$PMTK001,183,3*3A
$PMTK869,2,1*36

$GPGGA,170249.000,5212.0879,N,00005.9619
,E,1,09,0.89,8.7,M,47.0,M,,*61
$PMTKLOG,0,1,a,31,15,0,0,1,0,0*11
$PMTK001,183,3*3A
$PMTK869,2,1*36

$GPGGA,170250.000,5212.0879,N,00005.9619,E,1,09,0.
89,8.7,M,47.0,M,,*69
$PMTKLOG,0,1,a,31,15,0,0,1,0,0*11
$PMTK001,183,3*3A
$PMTK869,2,1*36

$GPGGA,170251.000,5212.0879,N,00005.9619,E,1,09,0.89,8.7,M,47.0,M,,*68
$PMTKLOG,0,1,a,31,15,0,0,1,0,0*11
$PMTK001,183,3*3A
$PMTK869,2,1*36

$GPGGA,170252.000,5212.0879,N,00005.9619,E,2,09,0.86,8.6,M,47.0,M,0000,0000*66

$PMTKLOG,0,1,a,31,15,0,0,1,0,0*11
$PMTK001,183,3*3A
$PMTK869,2,1*36

$GPGGA,170253.000,5212.0879,N,00005.9619,E,2,09,0.86,8.5,M,47.0,M,000
0,0000*64
$PMTKLOG,0,1,a,31,15,0,0,1,0,0*11
$PMTK001,183,3*3A
$PMTK869,2,1*36

$GPGGA,170254.000,5212.0879,N,00005.9619,E,2,09,0.86,8.4,M,47.0,M,0000,0000*62
$PMTKLOG,0,1,a,31,15,0,0,1,0,0*11
$PMTK001,183,3*3A
$PMTK869,2,1*36

$GPGGA,170255.000,5212.0878,N,00005.9619,E,2,09,0.86,8.3,M,47.0,M,0000,0000*65
$PMTKLOG,0,1,a,31,15,0,0,1,0,0*11
$PMTK001,183,3*3A
$PMTK869,2,1*36

$GPGGA,170256.000,5212.0878,N,00005.9619,E,2,09,0.86,8.3,M,47.0,M,0000,0000*66
$PMTKLOG,0,1,a,31,15,0,0,1,0,0*11
$PMTK001,183,3*3A
$PMTK869,2,1*36

$GPGGA,170257.000,5212.0878,N,00005.9619,E,2,09,0.86,8.2,M,47.0,M,0000,0000*66
$PMTKLOG,0,1,a,31,15,0,0,1,0,0*11
$PMTK001,183,3*3A

$PMTK869,2,1*36

$
GPGGA,170258.000,5212.0878,N,00005.9619,E,2,09,0.86,8.1,M,47.0,M,0000,0000*6A
$PMTKLOG,0,1,a,31,15,0,0,1,0,0*11
$PMTK001,183,3*3A
$PMTK869,2,1*36

$GPGGA,170259.000,5212.0878,N,00
005.9619,E,2,09,0.86,8.0,M,47.0,M,0000,0000*6A
$PMTKLOG,0,1,a,31,15,0,0,1,0,0*11
$PMTK001,183,3*3A
$PMTK869,2,1*36

$GPGGA,170300.000,5212.0878,N,00005.9619,E,2,09,0.86,7.9,M,47.0,M,0000,0000*61

$PMTKLOG,0,1,a,31,15,0,0,1,0,0*11
$PMTK001,183,3*3A
$PMTK869,2,1*36

$GPGGA,170301.000,5212.0878,N,00005.9620,E,2,09,0.86,7.9,M,47.0,M,0000,0000*6A

$PMTKLOG,0,1,a,31,15,0,0,1,0,0*11
$PMTK001,183,3*3A
$PMTK869,2,1*36

$GPGGA,170302.000,5212.0877,N,00005.9620,E,2,09,0.86,7.8,M,47.0,M,0000,0000*67

$PMTKLOG,0,1,a,31,15,0,0,1,0,0*11
$PMTK001,183,3*3A
$PMTK869,2,1*36

$GPGGA,170303.000,5212.0877,N,00005.9620,E,2,09,0.86,7.7,M,47.0,M,0000,0000*69

$PMTKLOG,0,1,a,31,15,0,0,1,0,0*11
$PMTK001,183,3*3A
$PMTK869,2,1*36

$GPGGA,170304.000,5212.0877,N,00005.9620,E,2,09,0.86,7.6,M,47.0,M,0000,0000*6F
$PMTKLOG,0,1,a,31,15,0,0
,1,0,0*11
$PMTK001,183,3*3A
$PMTK869,2,1*36

$GPGGA,170305.000,5212.0877,N,00005.9620,E,2,09,0.86,7.6,M,47.0,M,0000,0000*6E
$PMTKLOG,0,1,a,31,15,0,0,1,0,0*11
$PMTK001,183,3*3A
$PMTK869,2,1*36

$GPGGA,170306.000,5212.0877,N,00005.9620,E,2,09,0.86,7.5,M,47.0,M,0000,0000*6E

$PMTKLOG,0,1,a,31,15,0,0,1,0,0*11
$PMTK001,183,3*3A
$PMTK869,2,1*36

$GPGGA,170307.000,5212.0876,N,00005.9621,E,2,09,0.86,7.5,M,47.0,M,0000,0000*6F
$PMTKLOG,0,1,a,31,15,0,0,1,0,0*11
$PMTK
001,183,3*3A
$PMTK869,2,1*36

$GPGGA,170308.000,5212.0876,N,00005.9621,E,2,09,0.86,7.4,M,47.0,M,0000,0000*61

$PMTKLOG,0,1,a,31,15,0,0,1,0,0*11
$PMTK001,183,3*3A
$PMTK869,2,1*36

$GPGGA,170309.000,5212.0876,N,00005.9622,E,2,09,0.86,7.4,M,47.0,M,0000,0000*63

$PMTKLOG,0,1,a,31,15,0,0,1,0,0*11
$PMTK001,183,3*3A
$PMTK869,2,1*36

$GPGGA,170310.000,5212.0876,N,00005.9622,E,2,09,0.86,7.3,M,47.0,M,0000,0000*6C
$PMTKLOG,0,1,a,31,15,0,0,1,0,0*11
$PMTK001,
183,3*3A
$PMTK869,2,1*36

$GPGGA,170311.000,5212.0876,N,00005.9622,E,2,09,0.86,7.2,M,47.0,M,0000,0000*6C

$PMTKLOG,0,1,a,31,15,0,0,1,0,0*11
$PMTK001,183,3*3A
$PMTK869,2,1*36

$GPGGA,170312.000,5212.0875,N,00005.9623,E,2,09,0.86,7.2,M,47.0,M,0000,0000*6D
$PMTKLOG,0,1,a,31,15,0,0,1,0,0*11
$PMTK001,183,3*3A
$PMTK869,2,1*36

$GPGGA,170313.000,5212.0875,N,00005.9623,E,2,09,0.86,7.1,M,47.0,M,0000,0000*6F
$PMTKLOG,0,1,a,31,15,0,0,1,0,0*11
$PMTK001,183,3*3A
$PMTK869,2,1*36

$GPGGA,170314.000,5212.0875,N,00005.9624,E,2,09,0.86,7.1,M,47.0,M,0000,0000*6F
$PMTKLOG,0,1,a,31,15,0,0,1,0,0*11
$PMTK001,183,3*3A
$PMTK869,2,1*36

$GPGGA,170315.000,5212.0875,N,00005.9624,E,2,09,0.86,7.0,M,47.0,M,0000,0000*6F

$PMTKLOG,0,1,a,31,15,0,0,1,0,0*11
$PMTK001,183,3*3A
$PMTK869,2,1*36

$GPGGA,170316.000,5212.0875,N,00005.9624,E,2,09,0.86,7.0,M,47.0,M,0000,0000*6C
$PMTKLOG,0,1,a,31,15,0,0,1,0,0*11
$PMTK001,183,3*3A
$PMTK869,2,1*36

$GPGGA,170317.000,5212.0875,N,00005.9624,E,2,09,0.86,7.0,M,47.0,M,0000,0000*6D
$PMTKLOG,0,1,a,31,15,0,0,1,0,0*11
$PMTK001,183,3*3A
$PMTK869,2,1*36

$GPGGA,170318.000,5212.0875,N,00005.9625,E,2,09,0.86,6.9,M,47.0,M,0000,0000*6B

$PMTKLOG,0,1,a,31,15,0,0,1,0,0*11
$PMTK001,183,3*3A
$PMTK869,2,1*36

$GPGGA,170319.000,5212.0875,N,00005.9625,E,2,09,0.86,6.9,M,47.0,M,0000,0000*6A
$PMTKLOG,0,1,a,31,15,0,0,1,0,0*11
$PMTK001,183,3*3A
$PMTK869,2,1*36

$GPGGA,170320.000,5212.0875,N,00005.9625,E,2,09,0.86,6.9,M,47.0,M,0000,0000*60
$PMTKLOG,0,1,a,31,15,0,0,1,0,0*11
$PMTK001,183,3*3A
$PMTK869,2,1*36

$GPGGA,170321.000,5212.0875,N,00005.9625,E,2,09,0.86,6.9,M,47.0,M,0000,0000*61

$PMTKLOG,0,1,a,31,15,0,0,1,0,0*11
$PMTK001,183,3*3A
$PMTK869,2,1*36

$GPGGA,170322.000,5212.0875,N,00005.9625,E,2,09,0.86,6.9,M,47.0,M,0000,0000*62
$PMTKLOG,0,1,a,31,15,0,0,1,0,0*11
$PMTK001,183,3*3A
$PMTK869,2,1*36

$GPGGA,170323.000,5212.0874,N,00005.9625,E,2,09,0.86,6.8,M,47.0,M,0000,0000*63

$PMTKLOG,0,1,a,31,15,0,0,1,0,0*11
$PMTK001,183,3*3A
$PMTK869,2,1*36

$GPGGA,170324.000,5212.0874,N,00005.9625,E,2,09,0.86,6.8,M,47.0,M,0000,0000*64

$PMTKLOG,0,1,a,31,15,0,0,1,0,0*11
$PMTK001,183,3*3A
$PMTK869,2,1*36

$GPGGA,170325.000,5212.0874,N,00005.9625,E,2,09,0.86,6.8,M,47.0,M,0000,0000*65
$PMTKLOG,0,1,a,31,15,0,0,1,0,0*11
$PMTK001,183,3*3A
$PMTK869,2,1*36

$GPGGA,170326.000,5212.0874,N,00005.9625,E,2,09,0.86,6.8,M,47.0,M,0000,0000*66
$PMTKLOG,0,1,a,31,15,0,0,1,0,0*11
$PMTK001,183,3*3A
$PMTK869,2,1*36

$GPGGA,170327.000,5212.0874,N,00005.9625,E,2,09,0.86,6.8,M,47.0,M,0000,0000*67

$PMTKLOG,0,1,a,31,15,0,0,1,0,0*11
$PMTK001,183,3*3A
$PMTK869,2,1*36

$GPGGA,170328.000,5212.0874,N,00005.9625,E,2,09,0.86,6.8,M,47.0,M,0000,0000*68
$PMTKLOG,0,1,a,31,15,0,0,1,0,0*11
$PMTK001,183,3*3A
$PMTK869,2,1*36

$GPGGA,170329.000,5212.0874,N,00005.9625,E,2,09,0.86,6.8,M,47.0,M,0000,0000*69

$PMTKLOG,0,1,a,31,15,0,0,1,0,0*11
$PMTK001,183,3*3A
$PMTK869,2,1*36

$GPGGA,170330.000,5212.0873,N,00005.9625,E,2,09,0.86,6.8,M,47.0,M,0000,0000*66

$PMTKLOG,0,1,a,31,15,0,0,1,0,0*11
$PMTK001,183,3*3A
$PMTK869,2,1*36

$GPGGA,170331.000,5212.0873,N,00005.9625,E,2,09,0.86,6.8,M,47.0,M,0000,0000*67

$PMTKLOG,0,1,a,31,15,0,0,1,0,0*11
$PMTK001,183,3*3A
$PMTK869,2,1*36

$GPGGA,170332.000,5212.0873,N,00005.9625,E,2,09,0.86,6.8,M,47.0,M,0000,0000*64

$PMTKLOG,0,1,a,31,15,0,0,1,0,0*11
$PMTK001,183,3*3A
$PMTK869,2,1*36

$GPGGA,170333.000,5212.0873,N,00005.9625,E,2,09,0.86,6.8,M,47.0,M,0000,0000*65
$PMTKLOG,0,1,a,31,15,0,0,1,0,0*11
$PMTK001,183,3*3A
$PMTK869,2,1*36

$GPGGA,170334.000,5212.0873,N,00005.9625,E,2,09,0.86,6.7,M,47.0,M,0000,0000*6D
$PMTKLOG,0,1,a,31,15,0,0,1,0,0*11
$PMTK001,183,3*3A
$PMTK869,2,1*36

$GPGGA,170335.000,5212.0873,N,00005.9625,E,2,09,0.86,6.7,M,47.0,M,0000,0000*6C
$PMTKLOG,0,1,a,31,15,0,0,1,0,0*11
$PMTK001,183,3*3A
$PMTK869,2,1*36

$GPGGA,170336.000,5212.0873,N,00005.9625,E,2,09,0.86,6.7,M,47.0,M,0000,0000*6F
$PMTKLOG,0,1,a,31,15,0,0,1,0,0*11
$PMTK001,183,3*3A
$PMTK869,2,1*36

$GPGGA,170337.000,5212.0873,N,00005.9625,E,2,09,0.86,6.7,M,47.0,M,0000,0000*6E
$PMTKLOG,0,1,a,31,15,0,0,1,0,0*11
$PMTK001,183,3*3A
$PMTK869,2,1*36

$GPGGA,170338.000,5212.0873,N,00005.9625,E,2,09,0.86,6.7,M,47.0,M,0000,0000*61
$PMTKLOG,0,1,a,31,15,0,0,1,0,0*11
$PMTK001,183,3*3A
$PMTK869,2,1*36

$GPGGA,170339.000,5212.0873,N,00005.9625,E,2,09,0.86,6.7,M,47.0,M,0000,0000*60

$PMTKLOG,0,1,a,31,15,0,0,1,0,0*11
$PMTK001,183,3*3A
$PMTK869,2,1*36

$GPGGA,170340.000,5212.0873,N,00005.9625,E,2,09,0.86,6.7,M,47.0,M,0000,0000*6E
$PMTKLOG,0,1,a,31,15,0,0,1,0,0*11
$PMTK001,183,3*3A
$PMTK869,2,1*36

$GPGGA,170341.000,5212.0873,N,00005.9625,E,2,09,0.86,6.7,M,47.0,M,0000,0000*6F
$PMTKLOG,0,1,a,31,15,0,0,1,0,0*11
$PMTK001,183,3*3A
$PMTK869,2,1*36

$GPGGA,170342.000,5212.0873,N,00005.9625,E,2,09,0.86,6.7,M,47.0,M,0000,0000*6C

$PMTKLOG,0,1,a,31,15,0,0,1,0,0*11
$PMTK001,183,3*3A
$PMTK869,2,1*36

$GPGGA,170343.000,5212.0873,N,00005.9625,E,2,09,0.86,6.7,M,47.0,M,0000,0000*6D
$PMTKLOG,0,1,a,31,15,0,0,1,0,0*11
$PMTK001,183,3*3A
$PMTK869,2,1*36

$GPGGA,170344.000,5212.0873,N,00005.9625,E,2,09,0.86,6.7,M,47.0,M,0000,0000*6A
$PMTKLOG,0,1,a,31,15,0,0,1,0,0*11
$PMTK001,183,3*3A
$PMTK869,2,1*36

$GPGGA,170345.000,5212.0873,N,00005.9625,E,2,09,0.86,6.7,M,47.0,M,0000,0000*6B
$PMTKLOG,0,1,a,31,15,0,0,1,0,0*11
$PMTK001,183,3*3A
$PMTK869,2,1*36

$GPGGA,170346.000,5212.0873,N,00005.9625,E,2,09,0.86,6.7,M,47.0,M,0000,0000*68

$PMTKLOG,0,1,a,31,15,0,0,1,0,0*11
$PMTK001,183,3*3A
$PMTK869,2,1*36

$GPGGA,170347.000,5212.0873,N,00005.9626,E,2,09,0.86,6.7,M,47.0,M,0000,0000*6A

$PMTKLOG,0,1,a,31,15,0,0,1,0,0*11
$PMTK001,183,3*3A
$PMTK869,2,1*36

$GPGGA,170348.000,5212.0873,N,00005.9626,E,2,09,0.86,6.7,M,47.0,M,0000,0000*65

$PMTKLOG,0,1,a,31,15,0,0,1,0,0*11
$PMTK001,183,3*3A
$PMTK869,2,1*36

$GPGGA,170349.000,5212.0873,N,00005.9626,E,2,09,0.86,6.7,M,47.0,M,0000,0000*64
$PMTKLOG,0,1,a,31,15,0,0,1,0,0*11
$PMTK001,183,3*3A
$PMTK869,
2,1*36

$GPGGA,170350.000,5212.0873,N,00005.9626,E,2,09,0.86,6.7,M,47.0,M,0000,0000*6C

$PMTKLOG,0,1,a,31,15,0,0,1,0,0*11
$PMTK001,183,3*3A
$PMTK869,2,1*36

$GPGGA,170351.000,5212.0873,N,00005.9626,E,2,09,0.86,6.7,M,47.0,M,0000,0000*6D

$PMTKLOG,0,1,a,31,15,0,0,1,0,0*11
$PMTK001,183,3*3A
$PMTK869,2,1*36

$GPGGA,170352.000,5212.0873,N,00005.9626,E,2,09,0.86,6.7,M,47.0,M,0000,0000*6E

$PMTKLOG,0,1,a,31,15,0,0,1,0,0*11
$PMTK001,183,3*3A
$PMTK869,2,1*36

$GPGGA,170353.000,5212.0873,N,00005.9626,E,2,09,0.86,6.7,M,47.0,M,0000,0000*6F

$PMTKLOG,0,1,a,31,15,0,0,1,0,0*11
$PMTK001,183,3*3A
$PMTK869,2,1*36

$GPGGA,170354.000,5212.0873,N,00005.9626,E,2,09,0.86,6.7,M,47.0,M,0000,0000*68

$PMTKLOG,0,1,a,31,15,0,0,1,0,0*11
$PMTK001,183,3*3A
$PMTK869,2,1*36

$GPGGA,170355.000,5212.0873,N,00005.9626,E,2,09,0.86,6.7,M,47.0,M,0000,0000*69
$PMTKLOG,0,
1,a,31,15,0,0,1,0,0*11
$PMTK001,183,3*3A
$PMTK869,2,1*36

$GPGGA,170356.000,5212.0873,N,00005.9626,E,2,09,0.86,6.7,M,47.0,M,0000,0000*6A
$PMTKLOG,0,1,a,31,15,0,0,1,0,0*11
$PMTK001,183,3*3A
$PMTK
869,2,1*36

$GPGGA,170357.000,5212.0873,N,00005.9626,E,2,09,0.86,6.7,M,47.0,M,0000,0000*6B
$PMTKLOG,0,1,a,3
1,15,0,0,1,0,0*11
$PMTK001,183,3*3A
$PMTK869,2,1*36

$GPGGA,170358.000,5212.0873,N,00005.9626,E,2,09,0.86,6.7,M,47.0,M,0000,0000*64
$PMTKLOG,0,1,a,31,15,0,0,1,0,0*11
$PMTK001,183,3*3A
$PMTK869,2,1*36

$GPGGA,170359.000,5212.0873,N,00005.9626,E,2,09,0.86,6.7,M,47.0,M,0000,0000*65
$PMTKLOG,0,1,a,31,15,0,0,1,0,0*11
$PMTK001,183,3*3A
$PMTK869,2,1*36

$GPGGA,170400.000,5212.0873,N,00005.9626,E,2,
09,0.86,6.7,M,47.0,M,0000,0000*6E
$PMTKLOG,0,1,a,31,15,0,0,1,0,0*11
$PMTK001,183,3*3A
$PMTK869,2,1*36

$GPGGA,170401.000,5212.0873,N,00005.9626,E,2,09,0.86,6.7,M,47.0,M,0000,0000*6F
$PMTKLOG,0,1,a,31,15,0,0,1,0,0*11
$PMTK001,183,3*3A
$PMTK869,2,1*36

$GPGGA,170402.000,5212.0873,N,00005.9626,E,2,09,0.86,6.7,M,47.0,M,0000,0000*6C
$PMTKLOG,0,1,a,31,15,0,0,1,0,0*11
$PMTK001,183,3*3A
$PMTK869,2,1*36

$GPGGA,170403.000,5212.0873,N,00005.9626,E,2,09,0.86,6.7,M,47.0,M,0000,0000*6D

$PMTKLOG,0,1,a,31,15,0,0,1,0,0*11
$PMTK001,183,3*3A
$PMTK869,2,1*36

$GPGGA,170404.000,5212.0873,N,00005.9626,E,2,09,0.86,6.7,M,47.0,M,0000,0000*6A
$PMTKLOG,0,1,a,31,15,0,0,1,0,0*11
$PMTK001,183,3*3A
$PMTK869,2,1*36

$GPGGA,170405.000,5212.0873,N,00005.9626,E,2,09,0.86,6.7,M,47.0,M,0000,0000*6B

$PMTKLOG,0,1,a,31,15,0,0,1,0,0*11
$PMTK001,183,3*3A
$PMTK869,2,1*36

$GPGGA,170406.000,5212.0873,N,00005.9626,E,2,09,0.86,6.7,M,47.0,M,0000,0000*68
$PMTKLOG,0,1,a,31,15,0,0,1,0,0*11
$PMTK001,183,3*3A
$PMTK869,2,1*36

$GPGGA,170407.000,5212.0873,N,00005.9626,E,2,09,0.86,6.7,M,47.0,M,0000,0000*69
$PMTKLOG,0,1,a,31,15,0,0,1,0,
0*11
$PMTK001,183,3*3A
$PMTK869,2,1*36

$GPGGA,170408.000,5212.0873,N,00005.9626,E,2,09,0.86,6.7,M,47.0,M,0000,0000*66
$PMTKLOG,0,1,a,31,15,0,0,1,0,0*11
$PMTK001,183,3*3A
$PMTK869,2,1*36

$GPGGA,170409.000,5212.0873,N,00005.9626,E,2,09,0.86,6.7,M,47.0,M,0000,0000*67

$PMTKLOG,0,1,a,31,15,0,0,1,0,0*11
$PMTK001,183,3*3A
$PMTK869,2,1*36

$GPGGA,170410.000,5212.08
73,N,00005.9626,E,2,09,0.86,6.7,M,47.0,M,0000,0000*6F
$PMTKLOG,0,1,a,31,15,0,0,1,0,0*11
$PMTK001,183,3*3A
$PMTK869,2,1*36

$GPGGA,170411.000,5212.0873,N,00005.9626,E,2,09,0.86,6.7,M,47.0,M,0000,0000*6E

$PMTKLOG,0,1,a,31,15,0,0,1,0,0*11
$PMTK001,183,3*3A
$PMTK869,2,1*36

$GPGGA,170412.000,5212.0873,N,00005.9626,E,2,09,0.86,6.7,M,47.0,M,0000,0000*6D

$PMTKLOG,0,1,a,31,15,0,0,1,0,0*11
$PMTK001,183,3*3A
$PMTK869,2,1*36

$GPGGA,170413.000,5212.0873,N,00005.9626,E,2,09,0.86,6.7,M,47.0,M,0000,0000*6C

$PMTKLOG,0,1,a,31,15,0,0,1,0,0*11
$PMTK001,183,3*3A
$PMTK869,2,1*36

$GPGGA,170414.000,5212.0873
,N,00005.9626,E,2,09,0.86,6.7,M,47.0,M,0000,0000*6B
$PMTKLOG,0,1,a,31,15,0,0,1,0,0*11
$PMTK001,183,3*3A
$PMTK869,2,1*36

$GPGGA,170415.000,5212.0873,N,00005.9626,E,2,09,0.86,6.7,M,47.0,M,0000,0000*6A

$PMTKLOG,0,1,a,31,15,0,0,1,0,0*11
$PMTK001,183,3*3A
$PMTK869,2,1*36

$GPGGA,170416.000,5212.0873,N,00005.9626,E,2,09,0.86,6.7,M,47.0,M,0000,0000*69

$PMTKLOG,0,1,a,31,15,0,0,1,0,0*11
$PMTK001,183,3*3A
$PMTK869,2,1*36

$GPGGA,170417.000,5212.0873,N,00005.9626,E,2,09,0.86,6.7,M,47.0,M,0000,0000*68

$PMTKLOG,0,1,a,31,15,0,0,1,0,0*11
$PMTK001,183,3*3A
$PMTK869,2,1*36

$GPGGA,170418.000,5212.0873,N,00005.9626,E,2,09,0.86,6.7,M,47.0,M,0000,0000*67
$PMTKLOG,0,1,a,31,15,0,0,1,0,0*11
$PMTK001,183,3*3A
$PMTK869,2,1*36

$GPGGA,170419.000,5212.0873,N,00005.9626,E,2,09,0.86,6.7,M,47.0,M,0000,0000*66
$PMTKLOG,0,1,a,31,15,0,0,1,0,0*11
$PMTK001,183,3*3A
$PMTK869,2,1*36

$GPGGA,170420.000,5212.0873,N,00005.9626,E,2,09,0.86,6.7,M,47.0,M,0000,0000*6C
$PMTKLOG,0,1,a,31,15,0,0,1,0,0*11
$PMTK001,183,3*3A
$PMTK869,2,1*36

$GPGGA,170421.000,5212.0873,N,00005.9626,E,2,09,0.86,6.7,M,47.0,M,0000,0000*6D

$PMTKLOG,0,1,a,31,15,0,0,1,0,0*11
$PMTK001,183,3*3A
$PMTK869,2,1*36

$GPGGA,170422.000,5212.0873,N,00005.9626,E,2,09,0.86,6.7,M,47.0,M,0000,0000*6E

$PMTKLOG,0,1,a,31,15,0,0,1,0,0*11
$PMTK001,183,3*3A
$PMTK869,2,1*36

$GPGGA,170423.000,5212.0873,N,00005.9626,E,2,09,0.86,6.7,M,47.0,M,0000,0000*6F

$PMTKLOG,0,1,a,31,15,0,0,1,0,0*11
$PMTK001,183,3*3A
$PMTK869,2,1*36

$GPGGA,170424.000,5212.0873,N,00005.9626,E,2,09,0.86,6.7,M,47.0,M,0000,0000*68

$PMTKLOG,0,1,a,31,15,0,0,1,0,0*11
$PMTK001,183,3*3A
$PMTK869,2,1*36

$GPGGA,170425.000,5212.0873,N,00005.9626,E,2,09,0.86,6.7,M,47.0,M,0000,0000*69

$PMTKLOG,0,1,a,31,15,0,0,1,0,0*11
$PMTK001,183,3*3A
$PMTK869,2,1*36

$GPGGA,170426.000,5212.0873,N,00005.9626,E,2,09,0.86,6.7,M,47.0,M,0000,0000*6A

$PMTKLOG,0,1,a,31,15,0,0,1,0,0*11
$PMTK001,183,3*3A
$PMTK869,2,1*36

$GPGGA,170427.000,5212.0873,N,00005.9626,E,2,09,0.86,6.7,M,47.0,M,0000,0000*6B

$PMTKLOG,0,1,a,31,15,0,0,1,0,0*11
$PMTK001,183,3*3A
$PMTK869,2,1*36

$GPGGA,170428.000,5212.0873,N,00005.9626,E,2,09,0.86,6.7,M,47.0,M,0000,0000*64

$PMTKLOG,0,1,a,31,15,0,0,1,0,0*11
$PMTK001,183,3*3A
$PMTK869,2,1*36

$GPGGA,170429.000,5212.0873,N,00005.9626,E,2,09,0.86,6.7,M,47.0,M,0000,0000*65

$PMTKLOG,0,1,a,31,15,0,0,1,0,0*11
$PMTK001,183,3*3A
$PMTK869,2,1*36

$GPGGA,170430.000,5212.0873,N,00005.9626,E,2,09,0.86,6.7,M,47.0,M,0000,0000*6D

$PMTKLOG,0,1,a,31,15,0,0,1,0,0*11
$PMTK001,183,3*3A
$PMTK869,2,1*36

$GPGGA,170431.000,5212.0873,N,00005.9626,E,2,09,0.86,6.7,M,47.0,M,0000,0000*6C

$PMTKLOG,0,1,a,31,15,0,0,1,0,0*11
$PMTK001,183,3*3A
$PMTK869,2,1*36

$GPGGA,170432.000,5212.0873,N,00005.9626,E,2,09,0.86,6.7,M,47.0,M,0000,0000*6F

$PMTKLOG,0,1,a,31,15,0,0,1,0,0*11
$PMTK001,183,3*3A
$PMTK869,2,1*36

$GPGGA,170433.000,5212.0873,N,00005.9626,E,2,09,0.86,6.7,M,47.0,M,0000,0000*6E

$PMTKLOG,0,1,a,31,15,0,0,1,0,0*11
$PMTK001,183,3*3A
$PMTK869,2,1*36

$GPGGA,170434.000,5212.0873,N,00005.9626,E,2,09,0.86,6.7,M,47.0,M,0000,0000*69

$PMTKLOG,0,1,a,31,15,0,0,1,0,0*11
$PMTK001,183,3*3A
$PMTK869,2,1*36

$GPGGA,170435.000,5212.0873,N,00005.9626,E,2,09,0.86,6.7,M,47.0,M,0000,0000*68

$PMTKLOG,0,1,a,31,15,0,0,1,0,0*11
$PMTK001,183,3*3A
$PMTK869,2,1*36

$GPGGA,170436.000,5212.0873,N,00005.9626,E,2,09,0.86,6.7,M,47.0,M,0000,0000*6B

$PMTKLOG,0,1,a,31,15,0,0,1,0,0*11
$PMTK001,183,3*3A
$PMTK869,2,1*36

$GPGGA,170437.000,5212.0873,N,00005.9626,E,2,09,0.86,6.7,M,47.0,M,0000,0000*6A

$PMTKLOG,0,1,a,31,15,0,0,1,0,0*11
$PMTK001,183,3*3A
$PMTK869,2,1*36

$GPGGA,170438.000,5212.0873,N,00005.9626,E,2,09,0.86,6.7,M,47.0,M,0000,0000*65

$PMTKLOG,0,1,a,31,15,0,0,1,0,0*11
$PMTK001,183,3*3A
$PMTK869,2,1*36

$GPGGA,170439.000,5212.0873,N,00005.9626,E,2,09,0.86,6.7,M,47.0,M,0000,0000*64
$PMTKLOG,0,1,a,31,15,0,0,1,0,0*11
$PMTK001,183,3*3A
$PMTK869,2,1*36

$GPGGA,170440.000,5212.0873,N,00005.9626,E,2,09,0.86,6.7,M,47.0,M,0000,0000*6A
$PMTKLOG,0,1,a,31,15,0,0,1,0,0*11
$PMTK001,183,3*3A
$PMTK869,2,1*36

$GPGGA,170441.000,5212.0873,N,00005.9626,E,2,09,0.86,6.7,M,47.0,M,0000,0000*6B
$PMTKLOG,0,1,a,31,15,0,0,1,0,0*11
$PMTK001,183,3*3A
$PMTK869,2,1*36

$GPGGA,170442.000,5212.0873,N,00005.9626,E,2,09,0.86,6.7,M,47.0,M,0000,0000*68

$PMTKLOG,0,1,a,31,15,0,0,1,0,0*11
$PMTK001,183,3*3A
$PMTK869,2,1*36

$GPGGA,170443.000,5212.0873,N,00005.9626,E,2,09,0.86,6.7,M,47.0,M,0000,0000*69
$PMTKLOG,0,1,a,31,15,0,0,1,0,0*11
$PMTK001,183,3*3A
$PMTK869,2,1*36

$GPGGA,170444.000,5212.0873,N,00005.9626,E,2,09,0.86,6.7,M,47.0,M,0000,0000*6E
$PMTKLOG,0,1,a,31,15,0
,0,1,0,0*11
$PMTK001,183,3*3A
$PMTK869,2,1*36

$GPGGA,170445.000,5212.0873,N,00005.9626,E,2,09,0.86,6.7,M,47.0,M,0000,0000*6F

$PMTKLOG,0,1,a,31,15,0,0,1,0,0*11
$PMTK001,183,3*3A
$PMTK869,2,1*36

$GPGGA,170446.000,5212.0873,N,00005.9626,E,2,09,0.86,6.7,M,47.0,M,0000,0000*6C
$PMTKLOG,0,1,a,31,15,0,0,1,0,0*11
$PMTK001,183,3*3A
$PMTK869,2,1*36

$GPGGA,170447.000,5212.0873,N,00005.9626,E,2,09,0.86,6.7,M,47.0,M,0000,0000*6D
$PMTKLOG,0,1,a,31,15,0,0
,1,0,0*11
$PMTK001,183,3*3A
$PMTK869,2,1*36

$GPGGA,170448.000,5212.0873,N,00005.9626,E,2,09,0.86,6.7,M,47.0,M,0000,0000*62
$PMTKLOG,0,1,a,31,15,0,0,1,0,0*11
$PMTK001,183,3*3A
$PMTK869,2,1*36

$GPGGA,170449.000,5212.0873,N,00005.9626,E,2,09,0.86,6.7,M,47.0,M,0000,0000*63
$PMTKLOG,0,1,a,31,15,0,0,1,0,0*11
$PMTK001,183,3*3A
$PMTK869,2,1*36

$GPGGA,170450.000,5212.0873,N,00005.9626,E,2,09,0.86,6.7,M,47.0,M,0000,0000*6B
$PMTKLOG,0,1,a,31,15,0,0,1,0,0*11
$PMTK001,183,3*3A
$PMTK869,2,1*36

$GPGGA,170451.000,5212.0873,N,00005.9626,E,2,09,0.86,6.7,M,47.0,M,0000,0000*6A

$PMTKLOG,0,1,a,31,15,0,0,1,0,0*11
$PMTK001,183,3*3A
$PMTK869,2,1*36

$GPGGA,170452.000,5212.0873,N,00005.9626,E,2,09,0.86,6.7,M,47.0,M,0000,0000*69

$PMTKLOG,0,1,a,31,15,0,0,1,0,0*11
$PMTK001,183,3*3A
$PMTK869,2,1*36

$GPGGA,170453.000,5212.0873,N,00005.9626,E,2,09,0.86,6.7,M,47.0,M,0000,0000*68

$PMTKLOG,0,1,a,31,15,0,0,1,0,0*11
$PMTK001,183,3*3A
$PMTK869,2,1*36

$GPGGA,170454.000,5212.0873,N,00005.9626,E,2,09,0.86,6.7,M,47.0,M,0000,0000*6F

$PMTKLOG,0,1,a,31,15,0,0,1,0,0*11
$PMTK001,183,3*3A
$PMTK869,2,1*36

$GPGGA,170455.000,5212.0873,N,00005.9626,E,2,09,0.86,6.7,M,47.0,M,0000,0000*6E
$PM
TKLOG,0,1,a,31,15,0,0,1,0,0*11
$PMTK001,183,3*3A
$PMTK869,2,1*36

$GPGGA,170456.000,5212.0873,N,00005.9626,E,2,09,0.86,6.7,M,47.0,M,0000,0000*6D

$PMTKLOG,0,1,a,31,15,0,0,1,0,0*11
$PMTK001,183,3*3A
$PMTK869,2,1*36

$GPGGA,170457.000,5212.0873,N,00005.9626,E,2,09,0.86,6.7,M,47.0,M,0000,0000*6C

$PMTKLOG,0,1,a,31,15,0,0,1,0,0*11
$PMTK001,183,3*3A
$PMTK869,2,1*36

$GPGGA,170458.000,5212.0873,N,00005.9626,E,2,09,0.86,6.7,M,47.0,M,0000,0000*63

$PMTKLOG,0,1,a,31,15,0,0,1,0,0*11
$PMTK001,183,3*3A
$PMTK869,2,1*36

$GPGGA,170459.000,5212.0873,N,00005.9626,E,2,09,0.86,6.7,M,47.0,M,0000,0000*62
$PMTKLOG,0,1,a,31,15,0,0,1,0,0*11
$PMTK001,183,3*3A
$PMTK869,2,1*36

$GPGGA,170500.000,5212.0873,N,00005.9626,E,2,09,0.86,6.7,M,47.0,M,0000,0000*6F
$PMTKLOG,0,1,a,31,15,0,0,1,0,0*11
$PMTK001,183,3*3A
$PMTK869,2,1*36

$GPGGA,170501.000,5212.0873,N,00005.9626,E,2,09,0.86,6.7,M,47.0,M,0000,0000*6E

$PMTKLOG,0,1,a,31,15,0,0,1,0,0*11
$PMTK001,183,3*3A
$PMTK869,2,1*36

$GPGGA,170502.000,5212.0873,N,00005.9626,E,2,09,0.86,6.7,M,47.0,M,0000,0000*6D

$PMTKLOG,0,1,a,31,15,0,0,1,0,0*11
$PMTK001,183,3*3A
$PMTK869,2,1*36

$GPGGA,170503.000,5212.0873,N,00005.9626,E,2,09,0.86,6.7,M,47.0,M,0000,0000*6C

$PMTKLOG,0,1,a,31,15,0,0,1,0,0*11
$PMTK001,183,3*3A
$PMTK869,2,1*36

$GPGGA,170504.000,5212.0873,N,00005.9626,E,2,09,0.86,6.7,M,47.0,M,0000,0000*6B
$PMTKLOG,0,1,a,31,15,0,0,1,0,0*11
$PMTK001,183,3*3A
$PMTK869,2,1*36

$GPGGA,170505.000,5212.0873,N,00005.9626,E,2,09,0.86,6.7,M,47.0,M,0000,0000*6A
$PMTKLOG,0,1,a,31,15,0,0,1,0,0*11
$PMTK001,183,3*3A
$PMTK869,2,1*36

$GPGGA,170506.000,5212.0873,N,00005.9626,E,2,09,0.86,6.7,M,47.0,M,0000,0000*69

$PMTKLOG,0,1,a,31,15,0,0,1,0,0*11
$PMTK001,183,3*3A
$PMTK869,2,1*36

$GPGGA,170507.000,5212.0873,N,00005.9626,E,2,09,0.86,6.7,M,47.0,M,0000,0000*68
$PMTKLOG,0,1,a,31,15,0,0,1,0,0*11
$PMTK001,183,3*3A
$PMTK869,2,1*36

$GPGGA,170508.000,5212.0873,N,00005.9626,E,2,09,0.86,6.7,M,47.0,M,0000,0000*67
$PMTKLOG,0,1,a,31,15,0,0,1,0,0*11
$PMTK001,183,3*3A
$PMTK869,2,1*36

$GPGGA,170509.000,5212.0873,N,00005.9626,E,2,09,0.86,6.7,M,47.0,M,0000,0000*66
$PMTKLOG,0,1,a,31,15,0,0,1,0,0*11
$PMTK001,183,3*3A
$PMTK869,2,1*36

$GPGGA,170510.000,5212.0873,N,00005.9626,E,2,09,0.86,6.7,M,47.0,M,0000,0000*6E
$PMTKLOG,0,1,a,31,15,0,0,1,0,0*11
$PMTK001,183,3*3A
$PMTK869,2,1*36

$GPGGA,170511.000,5212.0873,N,00005.9626,E,2,09,0.86,6.7,M,47.0,M,0000,0000*6F
$PMTKLOG,0,1,a,31,15,0,0,1,0,0*11
$PMTK001,183,3*3A
$PMTK869,2,1*36

$GPGGA,170512.000,5212.0873,N,00005.9626,E,2,09,0.86,6.7,M,47.0,M,0000,0000*6C

$PMTKLOG,0,1,a,31,15,0,0,1,0,0*11
$PMTK001,183,3*3A
$PMTK869,2,1*36

$GPGGA,170513.000,5212.0873,N,00005.9626,E,2,09,0.86,6.7,M,47.0,M,0000,0000*6D
$PMTKLOG,0,1,a,31,15,0,0,1,0,0*11
$PMTK001,183,3*3A
$PMTK869,2,1*36

$GPGGA,170514.000,5212.0873,N,00005.9626,E,2,09,0.86,6.7,M,47.0,M,0000,0000*6A
$PMTKLOG,0,1,a,31,15,0,0,1,0,0*11
$PMTK001,183,3*3A
$PMTK869,2,1*36

$GPGGA,170515.000,5212.0873,N,00005.9626,E,2,09,0.86,6.7,M,47.0,M,0000,0000*6B
$PMTKLOG,0,1,a,31,15,0,0,1,0,0*11
$PMTK001,183,3*3A
$PMTK869,2,1*36

$GPGGA,170516.000,5212.0873,N,00005.9626,E,2,09,0.86,6.7,M,47.0,M,0000,0000*68

$PMTKLOG,0,1,a,31,15,0,0,1,0,0*11
$PMTK001,183,3*3A
$PMTK869,2,1*36

$GPGGA,170517.000,5212.0873,N,00005.9626,E,2,09,0.86,6.7,M,47.0,M,0000,0000*69

$PMTKLOG,0,1,a,31,15,0,0,1,0,0*11
$PMTK001,183,3*3A
$PMTK869,2,1*36

$GPGGA,170518.000,5212.0873,N,00005.9626,E,2,09,0.86,6.7,M,47.0,M,0000,0000*66

$PMTKLOG,0,1,a,31,15,0,0,1,0,0*11
$PMTK001,183,3*3A
$PMTK869,2,1*36

$GPGGA,170519.000,5212.0873,N,00005.9626,E,2,09,0.86,6.7,M,47.0,M,0000,0000*67

$PMTKLOG,0,1,a,31,15,0,0,1,0,0*11
$PMTK001,183,3*3A
$PMTK869,2,1*36

$GPGGA,170520.000,5212.0873,N,00005.9626,E,2,09,0.86,6.7,M,47.0,M,0000,0000*6D

$PMTKLOG,0,1,a,31,15,0,0,1,0,0*11
$PMTK001,183,3*3A
$PMTK869,2,1*36

$GPGGA,170521.000,5212.0873,N,00005.9626,E,2,09,0.86,6.7,M,47.0,M,0000,0000*6C

$PMTKLOG,0,1,a,31,15,0,0,1,0,0*11
$PMTK001,183,3*3A
$PMTK869,2,1*36

$GPGGA,170522.000,5212.0873,N,00005.9626,E,2,09,0.86,6.7,M,47.0,M,0000,0000*6F
$PMTKLOG,0,1,a,31,15,0,0,1,0,0*11
$PMTK001,183,3*3A
$PMTK869,2,1*36

$GPGGA,170523.000,5212.0873,N,00005.9626,E,2,09,0.86,6.7,M,47.0,M,0000,0000*6E
$PMTKLOG,0,1,a,31,15,0,0,1,0,0*11
$PMTK001,183,3*3A
$PMTK869,2,1*36

$GPGGA,170524.000,5212.0873,N,00005.9626,E,2,09,0.86,6.7,M,47.0,M,0000,0000*69

$PMTKLOG,0,1,a,31,15,0,0,1,0,0*11
$PMTK001,183,3*3A
$PMTK869,2,1*36

$GPGGA,170525.000,5212.0873,N,00005.9626,E,2,09,0.86,6.7,M,47.0,M,0000,0000*68
$PMTKLOG,0,1,a,31,15,0,0,1,0,0*11
$PMTK001,183,3*3A
$P
MTK869,2,1*36

$GPGGA,170526.000,5212.0873,N,00005.9626,E,2,09,0.86,6.7,M,47.0,M,0000,0000*6B
$PMTKLOG,0,1,a,31,15,0,0,1,0,0*11
$PMTK001,183,3*3A
$PMTK869,2,1*36

$GPGGA,170527.000,5212.0873,N,00005.9626,E,2,09,0.86,6.7,M,47.0,M,0000,0000*6A

$PMTKLOG,0,1,a,31,15,0,0,1,0,0*11
$PMTK001,183,3*3A
$PMTK869,2,1*36

$GPGGA,170528.000,5212.0873,N,00005.9626,E,2,09,0.86,6.7,M,47.0,M,0000,0000*65

$PMTKLOG,0,1,a,31,15,0,0,1,0,0*11
$PMTK001,183,3*3A
$PMTK869,2,1*36

$GPGGA,170529.000,5212.0873,N,00005.9626,E,2,09,0.86,6.7,M,47.0,M,0000,0000*64

$PMTKLOG,0,1,a,31,15,0,0,1,0,0*11
$PMTK001,183,3*3A
$PMTK869,2,1*36

$GPGGA,170530.000,5212.0873,N,00005.9626,E,2,09,0.86,6.7,M,47.0,M,0000,0000*6C
$PMTKLOG,0,1,a,31,15,0,0,1,0,0*11
$PMTK001,183,3*3A

$PMTK869,2,1*36

$GPGGA,170531.000,5212.0873,N,00005.9626,E,2,09,0.86,6.7,M,47.0,M,0000,0000*6D

$PMTKLOG,0,1,a,31,15,0,0,1,0,0*11
$PMTK001,183,3*3A
$PMTK869,2,1*36

$GPGGA,170532.000,5212.0873,N,00005.9626,E,2,09,0.86,6.7,M,47.0,M,0000,0000*6E

$PMTKLOG,0,1,a,31,15,0,0,1,0,0*11
$PMTK001,183,3*3A
$PMTK869,2,1*36

$GPGGA,170533.000,5212.0873,N,00005.9626,E,2,09,0.86,6.7,M,47.0,M,0000,0000*6F

$PMTKLOG,0,1,a,31,15,0,0,1,0,0*11
$PMTK001,183,3*3A
$PMTK869,2,1*36

$GPGGA,170534.000,5212.0873,N,00005.9626,E,2,09,0.86,6.7,M,47.0,M,0000,0000*68

$PMTKLOG,0,1,a,31,15,0,0,1,0,0*11
$PMTK001,183,3*3A
$PMTK869,2,1*36

$GPGGA,170535.000,5212.0873,N,00005.9626,E,2,09,0.86,6.7,M,47.0,M,0000,0000*69
$PMTKLOG,0,1,a,31,15,0,0,1,0,0*11
$PMTK001,183,3*3A
$PMTK869,2,1*36

$GPGGA,170536.000,5212.0873,N,00005.9626,E,2,09,0.86,6.7,M,47.0,M,0000,0000*6A
$PMTKLOG,0,1,a,31,15,0,0,1,0,0*11
$PMTK001,183,3*3A
$PMTK869,2,1*36

$GPGGA,170537.000,5212.0873,N,00005.9626,E,2,09,0.86,6.7,M,47.0,M,0000,0000*6B

$PMTKLOG,0,1,a,31,15,0,0,1,0,0*11
$PMTK001,183,3*3A
$PMTK869,2,1*36

$GPGGA,170538.000,5212.0873,N,00005.9626,E,2,09,0.86,6.7,M,47.0,M,0000,0000*64

$PMTKLOG,0,1,a,31,15,0,0,1,0,0*11
$PMTK001,183,3*3A
$PMTK869,2,1*36

$GPGGA,170539.000,5212.0873,N,00005.9626,E,2,09,0.86,6.7,M,47.0,M,0000,0000*65

$PMTKLOG,0,1,a,31,15,0,0,1,0,0*11
$PMTK001,183,3*3A
$PMTK869,2,1*36

$GPGGA,170540.000,5212.0873,N,00005.9626,E,2,09,0.86,6.7,M,47.0,M,0000,0000*6B

$PMTKLOG,0,1,a,31,15,0,0,1,0,0*11
$PMTK001,183,3*3A
$PMTK869,2,1*36

$GPGGA,170541.000,5212.0873,N,00005.9626,E,2,09,0.86,6.7,M,47.0,M,0000,0000*6A

$PMTKLOG,0,1,a,31,15,0,0,1,0,0*11
$PMTK001,183,3*3A
$PMTK869,2,1*36

$GPGGA,170542.000,5212.0873,N,00005.9626,E,2,09,0.86,6.7,M,47.0,M,0000,0000*69

$PMTKLOG,0,1,a,31,15,0,0,1,0,0*11
$PMTK001,183,3*3A
$PMTK869,2,1*36

$GPGGA,170543.000,5212.0873,N,00005.9626,E,2,09,0.86,6.7,M,47.0,M,0000,0000*68

$PMTKLOG,0,1,a,31,15,0,0,1,0,0*11
$PMTK001,183,3*3A
$PMTK869,2,1*36

$GPGGA,170544.000,5212.0873,N,00005.9626,E,2,09,0.86,6.7,M,47.0,M,0000,0000*6F
$PMTKLOG,0,1,a,31,15,0,0,1,0,0*11
$PMTK001,183,3*3A
$PMTK869,2,1*36

$GPGGA,170545.000,5212.0873,N,00005.9626,E,2,09,0.86,6.7,M,47.0,M,0000,0000*6E

$PMTKLOG,0,1,a,31,15,0,0,1,0,0*11
$PMTK001,183,3*3A
$PMTK869,2,1*36

$GPGGA,170546.000,5212.0873,N,00005.9626,E,2,09,0.86,6.7,M,47.0,M,0000,0000*6D

$PMTKLOG,0,1,a,31,15,0,0,1,0,0*11
$PMTK001,183,3*3A
$PMTK869,2,1*36

$GPGGA,170547.000,5212.0873,N,00005.9626,E,2,09,0.86,6.7,M,47.0,M,0000,0000*6C
$PMTKLOG,0,1,a,31,15,0,0,1,0,0*11
$PMTK001,183,3*3A
$PMTK869,2,1*36

$GPGGA,170548.000,5212.0873,N,00005.9626,E,2,09,0.86,6.7,M,47.0,M,0000,0000*63

$PMTKLOG,0,1,a,31,15,0,0,1,0,0*11
$PMTK001,183,3*3A
$PMTK869,2,1*36

$GPGGA,170549.000,5212.0873,N,00005.9626,E,2,09,0.86,6.7,M,47.0,M,0000,0000*62
$PMTKLOG,0,1,a,31,15,0,0,1,0,0*11
$PMTK001,183,3*3A
$PMTK869,2,1*36

$GPGGA,170550.000,5212.0873,N,00005.9626,E,2,09,0.86,6.7,M,47.0,M,0000,0000*6A
$PMTKLOG,0,1,a,31,15,0,0,1,0,0*11
$PMTK001,183,3*3A
$PMTK869,2,1*36

$GPGGA,170551.000,5212.0873,N,00005.9626,E,2,09,0.86,6.7,M,47.0,M,0000,0000*6B
$PMTKLOG,0,1,a,31,15,0,0,1,0,0*11
$PMTK001,183,3*3A
$PMTK869,2,1*36

$GPGGA,170552.000,5212.0873,N,00005.9626,E,2,09,0.86,6.7,M,47.0,M,0000,0000*68
$PMTKLOG,0,1,a,31,15,0,0,1,0,0*11
$PMTK001,183,3*3A
$PMTK869,2,1*36

$GPGGA,170553.000,5212.0873,N,00005.9626,E,2,09,0.86,6.7,M,47.0,M,0000,0000*69

$PMTKLOG,0,1,a,31,15,0,0,1,0,0*11
$PMTK001,183,3*3A
$PMTK869,2,1*36

$GPGGA,170554.000,5212.0873,N,00005.9626,E,2,09,0.86,6.7,M,47.0,M,0000,0000*6E

$PMTKLOG,0,1,a,31,15,0,0,1,0,0*11
$PMTK001,183,3*3A
$PMTK869,2,1*36

$GPGGA,170555.000,5212.0873,N,00005.9626,E,2,09,0.86,6.7,M,47.0,M,0000,0000*6F

$PMTKLOG,0,1,a,31,15,0,0,1,0,0*11
$PMTK001,183,3*3A
$PMTK869,2,1*36

$GPGGA,170556.000,5212.0873,N,00005.9626,E,2,09,0.86,6.7,M,47.0,M,0000,0000*6C

$PMTKLOG,0,1,a,31,15,0,0,1,0,0*11
$PMTK001,183,3*3A
$PMTK869,2,1*36

$GPGGA,170557.000,5212.0873,N,00005.9626,E,2,09,0.86,6.7,M,47.0,M,0000,0000*6D

$PMTKLOG,0,1,a,31,15,0,0,1,0,0*11
$PMTK001,183,3*3A
$PMTK869,2,1*36

$GPGGA,170558.000,5212.0873,N,0
0005.9626,E,2,09,0.86,6.7,M,47.0,M,0000,0000*62
$PMTKLOG,0,1,a,31,15,0,0,1,0,0*11
$PMTK001,183,3*3A
$PMTK869,2,1*36

$GPGGA,170559.000,5212.0873,N,00005.9626,E,2,09,0.86,6.7,M,47.0,M,0000,0000*63
$PMTKLOG,0,1,a,31,15,0,0,1,0,0*11
$PMTK001,183,3*3A
$PMTK869,2,1*36

$GPGGA,170600.000,5212.0873,N,00005.9626,E,2,09,0.86,6.7,M,47.0,M,0000,0000*6C

$PMTKLOG,0,1,a,31,15,0,0,1,0,0*11
$PMTK001,183,3*3A
$PMTK869,2,1*36

$GPGGA,170601
.000,5212.0873,N,00005.9626,E,2,09,0.86,6.7,M,47.0,M,0000,0000*6D
$PMTKLOG,0,1,a,31,15,0,0,1,0,0*11
$PMTK001,183,3*3A
$PMTK869,2,1*36

$GPGGA,170602.000,5212.0873,N,00005.9626,E,2,09,0.86,6.7,M,47.0,M,0000,0000*6E

$PMTKLOG,0,1,a,31,15,0,0,1,0,0*11
$PMTK001,183,3*3A
$PMTK869,2,1*36

$GPGGA,170603.000,5212.0873,N,00005.9626,E,2,09,0.86,6.7,M,47.0,M,0000,0000*6F

$PMTKLOG,0,1,a,31,15,0,0,1,0,0*11
$PMTK001,183,3*3A
$PMTK869,2,1*36

$GPGGA,170604.000,5212.0873,N,00005.9626,E,2,09,0.86,6.7,M,47.0,M,0000,0000*68

$PMTKLOG,0,1,a,31,15,0,0,1,0,0*11
$PMTK001,183,3*3A
$PMTK869,2,1*36

$GPGGA,170605.000,5212.0873,N,00005.9626,E,2,09,0.86,6.7,M,47.0,M,0000,0000*69

$PMTKLOG,0,1,a,31,15,0,0,1,0,0*11
$PMTK001,183,3*3A
$PMTK869,2,1*36

$GPGGA,170606.000,5212.0873,N,00005.9626,E,2,09,0.86,6.7,M,47.0,M,0000,0000*6A

$PMTKLOG,0,1,a,31,15,0,0,1,0,0*11
$PMTK001,183,3*3A
$PMTK869,2,1*36

$GPGGA,170607.000,5212.0873,N,00005.9626,E,2,09,0.86,6.7,M,47.0,M,0000,0000*6B

$PMTKLOG,0,1,a,31,15,0,0,1,0,0*11
$PMTK001,183,3*3A
$PMTK869,2,1*36

$GPGGA,170608.000,5212.0873,N,00005.9626,E,2,09,0.86,6.7,M,47.0,M,0000,0000*64

$PMTKLOG,0,1,a,31,15,0,0,1,0,0*11
$PMTK001,183,3*3A
$PMTK869,2,1*36

$GPGGA,170609.000,5212.0873,N,00005.9626,E,2,09,0.86,6.7,M,47.0,M,0000,0000*65

$PMTKLOG,0,1,a,31,15,0,0,1,0,0*11
$PMTK001,183,3*3A
$PMTK869,2,1*36

$GPGGA,170610.000,5212.0873,N,00005.9626,E,2,09,0.86,6.7,M,47.0,M,0000,0000*6D

$PMTKLOG,0,1,a,31,15,0,0,1,0,0*11
$PMTK001,183,3*3A
$PMTK869,2,1*36

$GPGGA,170611.000,5212.0873,N,00005.9626,E,2,09,0.86,6.7,M,47.0,M,0000,0000*6C

$PMTKLOG,0,1,a,31,15,0,0,1,0,0*11
$PMTK001,183,3*3A
$PMTK869,2,1*36

$GPGGA,170612.000,5212.0873,N,00005.9626,E,2,09,0.86,6.7,M,47.0,M,0000,0000*6F
$PMTKLOG,0,1,a,31,15,0,0,1,0,0*11
$PMTK001,183,3*3A
$PMTK869,2,1*36

$GPGGA,170613.000,5212.0873,N,00005.9626,E,2,09,0.86,6.7,M,47.0,M,0000,0000*6E

$PMTKLOG,0,1,a,31,15,0,0,1,0,0*11
$PMTK001,183,3*3A
$PMTK869,2,1*36

$GPGGA,170614.000,5212.0873,N,00005.9626,E,2,09,0.86,6.7,M,47.0,M,0000,0000*69

$PMTKLOG,0,1,a,31,15,0,0,1,0,0*11
$PMTK001,183,3*3A
$PMTK869,2,1*36

$GPGGA,170615.000,5212.0873,N,00005.9626,E,2,09,0.86,6.7,M,47.0,M,0000,0000*68
$PMTKLOG,0,1,a,31,15,0,0,1,0,0*11
$PMTK001,183,3*3A
$PMTK869,2,1*36

$GPGGA,170616.000,5212.0873,N,00005.9626,E,2,09,0.86,6.7,M,47.0,M,0000,0000*6B
$PMTKLOG,0,1,a,31,15,0,0,1,0,0*11
$PMTK001,183,3*3A
$PMTK869,2,1*36

$GPGGA,170617.000,5212.0873,N,00005.9626,E,2,09,0.86,6.7,M,47.0,M,0000,0000*6A

$PMTKLOG,0,1,a,31,15,0,0,1,0,0*11
$PMTK001,183,3*3A
$PMTK869,2,1*36

$GPGGA,170618.000,5212.0873,N,00005.9626,E,2,09,0.88,6.7,M,47.0,M,0000,0000*6B
$PMTKLOG,0,1,a,31,15,0,0,1,0,0*11
$PMTK001,183,3*3A
$PMTK869,2,1*36

$GPGGA,170619.000,5212.0873,N,00005.9626,E,2,09,0.88,6.7,M,47.0,M,0000,0000*6A

$PMTKLOG,0,1,a,31,15,0,0,1,0,0*11
$PMTK001,183,3*3A
$PMTK869,2,1*36

$GPGGA,170620.000,5212.0873,N,00005.9626,E,2,09,0.88,6.7,M,47.0,M,0000,0000*60
$PMTKLOG,0,1,a,31,15,0,0,1,0,0*11
$PMTK001,183,3*3A
$PMTK869,2,1*36

$GPGGA,170621.000,5212.0873,N,00005.9626,E,2,09,0.88,6.7,M,47.0,M,0000,0000*61

$PMTKLOG,0,1,a,31,15,0,0,1,0,0*11
$PMTK001,183,3*3A
$PMTK869,2,1*36

$GPGGA,170622.000,5212.0873,N,00005.9626,E,2,09,0.88,6.7,M,47.0,M,0000,0000*62

$PMTKLOG,0,1,a,31,15,0,0,1,0,0*11
$PMTK001,183,3*3A
$PMTK869,2,1*36

$GPGGA,170623.000,5212.0873,N,00005.9626,E,2,09,0.88,6.7,M,47.0,M,0000,0000*63

$PMTKLOG,0,1,a,31,15,0,0,1,0,0*11
$PMTK001,183,3*3A
$PMTK869,2,1*36

$GPGGA,170624.000,5212.0873,N,00005.9626,E,2,09,0.88,6.7,M,47.0,M,0000,0000*64

$PMTKLOG,0,1,a,31,15,0,0,1,0,0*11
$PMTK001,183,3*3A
$PMTK869,2,1*36

$GPGGA,170625.000,5212.0873,N,00005.9626,E,2,09,0.88,6.7,M,47.0,M,0000,0000*65

$PMTKLOG,0,1,a,31,15,0,0,1,0,0*11
$PMTK001,183,3*3A
$PMTK869,2,1*36

$GPGGA,170626.000,5212.0873,N,00005.9626,E,2,09,0.88,6.7,M,47.0,M,0000,0000*66
$PMTKLOG,0,1,a,31,15,0,0,1,0,0*11
$PMTK001,183,3*3A
$PMTK869,2,1*36

$GPGGA,170627.000,5212.0873,N,00005.9626,E,2,09,0.88,6.7,M,47.0,M,0000,0000*67
$PMTKLOG,0,1,a,31,15,0,0,1,0,0*11
$PMTK001,183,3*3A
$PMTK869,2,1*36

$GPGGA,170628.000,5212.0873,N,00005.9626,E,2,09,0.88,6.7,M,47.0,M,0000,0000*68

$PMTKLOG,0,1,a,31,15,0,0,1,0,0*11
$PMTK001,183,3*3A
$PMTK869,2,1*36

$GPGGA,170629.000,5212.0873,N,00005.9626,E,2,09,0.88,6.7,M,47.0,M,0000,0000*69
$PMTKLOG,0,1,a,31,15,0,0,1,0,0*11
$PMTK001,183,3*3A
$PMTK869,2,1*36

$GPGGA,170630.000,5212.0873,N,00005.9626,E,2,09,0.88,6.7,M,47.0,M,0000,0000*61
$PMTKLOG,0,1,a,31,15,0,0,1,0,0*11
$PMTK001,183,3*3A
$PMTK869,2,1*36

$GPGGA,170631.000,5212.0873,N,00005.9626,E,2,09,0.88,6.7,M,47.0,M,0000,0000*60

$PMTKLOG,0,1,a,31,15,0,0,1,0,0*11
$PMTK001,183,3*3A
$PMTK869,2,1*36

$GPGGA,170632.000,5212.0873,N,00005.9626,E,2,09,0.88,6.7,M,47.0,M,0000,0000*63
$PMTKLOG,0,1,a,31,15,0,0,1,0,0*11
$PMTK001,183,3*3A
$PMTK869,2,1*36

$GPGGA,170633.000,5212.0873,N,00005.9626,E,2,09,0.88,6.7,M,47.0,M,0000,0000*62

$PMTKLOG,0,1,a,31,15,0,0,1,0,0*11
$PMTK001,183,3*3A
$PMTK869,2,1*36

$GPGGA,170634.000,5212.0873,N,00005.9626,E,2,09,0.88,6.7,M,47.0,M,0000,0000*65
$PMTKLOG,0,1,a,31,15,0,0,1,0,0*11
$PMTK001,183,3*3A
$PMTK869,2,1*36

$GPGGA,170635.000,5212.0873,N,00005.9626,E,2,09,0.88,6.7,M,47.0,M,0000,0000*64
$PMTKLOG,0,1,a,31,15,0,0,1,0,0*11
$PMTK001,183,3*3A
$PMTK869,2,1*36

$GPGGA,170636.000,5212.0873,N,00005.9626,E,2,09,0.88,6.7,M,47.0,M,0000,0000*67
$PMTKLOG,0,1,a,31,15,0,0,1,0,0*11
$PMTK001,183,3*3A
$PMTK869,2,1*36

$GPGGA,170637.000,5212.0873,N,00005.9626,E,2,09,0.88,6.7,M,47.0,M,0000,0000*66
$PMTKLOG,0,1,a,31,15,0,0,1,0,0*11
$PMTK001,183,3*3A
$PMTK869,2,1*36

$GPGGA,170638.000,5212.0873,N,00005.9626,E,2,09,0.88,6.7,M,47.0,M,0000,0000*69

$PMTKLOG,0,1,a,31,15,0,0,1,0,0*11
$PMTK001,183,3*3A
$PMTK869,2,1*36

$GPGGA,170639.000,5212.0873,N,00005.9626,E,2,09,0.88,6.7,M,47.0,M,0000,0000*68
$PMTKLOG,0,1,a,31,15,0,0,1,0,0*11
$PMTK001,183,3*3A
$PMTK869,2,1*36

$GPGGA,170640.000,5212.0873,N,00005.9626,E,2,09,0.88,6.7,M,47.0,M,0000,0000*66

$PMTKLOG,0,1,a,31,15,0,0,1,0,0*11
$PMTK001,183,3*3A
$PMTK869,2,1*36

$GPGGA,170641.000,5212.0873,N,00005.9626,E,2,09,0.88,6.7,M,47.0,M,0000,0000*67

$PMTKLOG,0,1,a,31,15,0,0,1,0,0*11
$PMTK001,183,3*3A
$PMTK869,2,1*36

$GPGGA,170642.000,5212.0873,N,00005.9626,E,2,09,0.88,6.7,M,47.0,M,0000,0000*64

$PMTKLOG,0,1,a,31,15,0,0,1,0,0*11
$PMTK001,183,3*3A
$PMTK869,2,1*36

$GPGG
A,170643.000,5212.0873,N,00005.9626,E,2,09,0.88,6.7,M,47.0,M,0000,0000*65
$PMTKLOG,0,1,a,31,15,0,0,1,0,0*11
$PMTK001,183,3*3A
$PMTK869,2,1*36

$GPGGA,170644.000,5212.0873,N,00005.9626,E,2,09,0.88,6.7,M,47.0,M,0000,0000*62

$PMTKLOG,0,1,a,31,15,0,0,1,0,0*11
$PMTK001,183,3*3A
$PMTK869,2,1*36

$GPGGA,170645.000,5212.0873,N,00005.9626,E,2,09,0.88,6.7,M,47.0,M,0000,0000*63

$PMTKLOG,0,1,a,31,15,0,0,1,0,0*11
$PMTK001,183,3*3A
$PMTK869,2,1*36

$GPGGA,170646.000,5212.0873,N,00005.9626,E,2,09,0.88,6.7,M,47.0,M,0000,0000*60

$PMTKLOG,0,1,a,31,15,0,0,1,0,0*11
$PMTK001,183,3*3A
$PMTK869,2,1*36

$GPGGA,170647.000,5212.0873,N,00005.9626,E,2,0
9,0.88,6.7,M,47.0,M,0000,0000*61
$PMTKLOG,0,1,a,31,15,0,0,1,0,0*11
$PMTK001,183,3*3A
$PMTK869,2,1*36

$GPGGA,170648.000,5212.0873,N,00005.9626,E,2,09,0.88,6.7,M,47.0,M,0000,0000*6E

$PMTKLOG,0,1,a,31,15,0,0,1,0,0*11
$PMTK001,183,3*3A
$PMTK869,2,1*36

$GPGGA,170649.000,5212.0873,N,00005.9626,E,2,09,0.88,6.7,M,47.0,M,0000,0000*6F

$PMTKLOG,0,1,a,31,15,0,0,1,0,0*11
$PMTK001,183,3*3A
$PMTK869,2,1*36

$GPGGA,170650.000,5212.0873,N,00005.9626,E,2,09,0.88,6.7,M,47.0,M,0000,0000*67
$PMTKLOG,0,1,a,31,15,0,0,1,0,0*11
$PMTK001,183,3*3A
$PMTK869,2,1*36

$GPGGA,170651.000,5212.0873,N,00005.9626,E,2,09,0.88,6.7,M,47.0,M,0000,0000*66
$PMTKLOG,0,1,a,31,15,0,0,1,0,0*11
$PMTK001,183,3*3A
$P
MTK869,2,1*36

$GPGGA,170652.000,5212.0873,N,00005.9626,E,2,09,0.88,6.7,M,47.0,M,0000,0000*65

$PMTKLOG,0,1,a,31,15,0,0,1,0,0*11
$PMTK001,183,3*3A
$PMTK869,2,1*36

$GPGGA,170653.000,5212.0873,N,00005.9626,E,2,09,0.88,6.7,M,47.0,M,0000,0000*64
$PMTKLOG,0,1,a,31,15,0,0,1,0,0*11
$PMTK001,183,3*3A
$PMTK869,2,1*36

$GPGGA,170654.000,5212.0873,N,00005.9626,E,2,09,0.88,6.7,M,47.0,M,0000,0000*63
$PMTKLOG,0,1,a,31,15,0,0,1,0,0*11
$PMTK001,183,3*3A
$PMTK869,2,1*36

$GPGGA,170655.000,5212.0873,N,00005.9626,E,2,09,0.88,6.7,M,47.0,M,0000,0000*62
$PMTKLOG,0,1,a,31,15,0,0,1,0,0*11
$PMTK001,183,3*3A
$PMTK869,2,1*36

$GPGGA,170656.000,5212.0873,N,00005.9626,E,2,09,0.88,6.7,M,47.0,M,0000,0000*61
$PMTKLOG,0,1,a,31,15,0,0,1,0,0*11
$PMTK001,183,3*3A
$PMTK869,2,1*36

$GPGGA,170657.000,5212.0873,N,00005.9626,E,2,09,0.88,6.7,M,47.0,M,0000,0000*60
$PMTKLOG,0,1,a,31,15,0,0,1,0,0*11
$PMTK001,183,3*3A
$PMTK869,2,1*36

$GPGGA,170658.000,5212.0873,N,00005.9626,E,2,09,0.88,6.7,M,47.0,M,0000,0000*6F
$PMTKLOG,0,1,a,31,15,0,0,1,0,0*11
$PMTK001,183,3*3A
$PMTK869,2,1*36

$GPGGA,170659.000,5212.0873,N,00005.9626,E,2,09,0.88,6.7,M,47.0,M,0000,0000*6E

$PMTKLOG,0,1,a,31,15,0,0,1,0,0*11
$PMTK001,183,3*3A
$PMTK869,2,1*36

$GPGGA,170700.000,5212.0873,N,00005.9626,E,2,09,0.88,6.7,M,47.0,M,0000,0000*63
$PMTKLOG,0,1,a,31,15,0,0,1,0,0*11
$PMTK001,183,3*3A
$PMTK869,2,1*3
6

$GPGGA,170701.000,5212.0873,N,00005.9626,E,2,09,0.88,6.7,M,47.0,M,0000,0000*62

$PMTKLOG,0,1,a,31,15,0,0,1,0,0*11
$PMTK001,183,3*3A
$PMTK869,2,1*36

$GPGGA,170702.000,5212.0873,N,00005.9626,E,2,09,0.88,6.7,M,47.0,M,0000,0000*61

$PMTKLOG,0,1,a,31,15,0,0,1,0,0*11
$PMTK001,183,3*3A
$PMTK869,2,1*36

$GPGGA,170703.000,5212.0873,N,00005.9626,E,2,09,0.88,6.7,M,47.0,M,0000,0000*60

$PMTKLOG,0,1,a,31,15,0,0,1,0,0*11
$PMTK001,183,3*3A
$PMTK869,2,1*36

$GPGGA,170704.000,5212.0873,N,00005.9626,E,2,09,0.88,6.7,M,47.0,M,0000,0000*67

$PMTKLOG,0,1,a,31,15,0,0,1,0,0*11
$PMTK001,183,3*3A
$PMTK869,2,1*36

$GPGGA,170705.000,5212.0873,N,00005.9626,E,2,09,0.88,6.7,M,47.0,M,0000,0000*66
$PMTKLOG,0,1,a,31,15,0,0,1,0,0*11
$PMTK001,183,3*3A
$PMTK869,2,1*36

$GPGGA,170706.000,5212.0873,N,00005.9626,E,2,09,0.88,6.7,M,47.0,M,0000,0000*65

$PMTKLOG,0,1,a,31,15,0,0,1,0,0*11
$PMTK001,183,3*3A
$PMTK869,2,1*36

$GPGGA,170707.000,5212.0873,N,00005.9626,E,2,09,0.88,6.7,M,47.0,M,0000,0000*64

$PMTKLOG,0,1,a,31,15,0,0,1,0,0*11
$PMTK001,183,3*3A
$PMTK869,2,1*36

$GPGGA,170708.000,5212.0873,N,00005.9626,E,2,09,0.88,6.7,M,47.0,M,0000,0000*6B

$PMTKLOG,0,1,a,31,15,0,0,1,0,0*11
$PMTK001,183,3*3A
$PMTK869,2,1*36

$GPGGA,170709.000,5212.0873,N,00005.9626,E,2,09,0.88,6.7,M,47.0,M,0000,0000*6A
$PMTKLOG,0,1,a,31,15,0,0,1,0,0*11
$PMTK001,183,3*3A
$PMTK869,2,1*36

$GPGGA,170710.000,5212.0873,N,00005.9626,E,2,09,0.88,6.7,M,47.0,M,0000,0000*62

$PMTKLOG,0,1,a,31,15,0,0,1,0,0*11
$PMTK001,183,3*3A
$PMTK869,2,1*36

$GPGGA,170711.000,5212.0873,N,00005.9626,E,2,09,0.88,6.7,M,47.0,M,0000,0000*63
$PMTKLOG,0,1,a,31,15,0,0,1,0,0*11
$PMTK001,183,3*3A
$PMTK869,2,1*36

$GPGGA,170712.000,5212.0873,N,00005.9626,E,2,09,0.88,6.7,M,47.0,M,0000,0000*60
$PMTKLOG,0,1,a,31,15,0,0,1,0,0*11
$PMTK001,183,3*3A
$PMTK869,2,1*36

$GPGGA,170713.000,5212.08
73,N,00005.9626,E,2,09,0.88,6.7,M,47.0,M,0000,0000*61
$PMTKLOG,0,1,a,31,15,0,0,1,0,0*11
$PMTK001,183,3*3A
$PMTK869,2,1*36

$GPGGA,170714.000,5212.0873,N,00005.9626,E,2,09,0.88,6.7,M,47.0,M,0000,0000*66
$PMTKLOG,0,1,a,31,15,0,0,1,0,0*11
$PMTK001,183
,3*3A
$PMTK869,2,1*36

$GPGGA,170715.000,5212.0873,N,00005.9626,E,2,09,0.88,6.7,M,47.0,M,0000,0000*67
$PMTKLOG,0,1,a,31,15,0,0,1,0,0*11
$PMTK001,183,3*3A
$PMTK869,2,1*36

$GPGGA,170716.000,5212.0873,N,00005.9626,E,2,09,0.88,6.7,M,47.0,M,0000,0000*64
$PMTKLOG,0,1,a,31,15,0,0,1,0,0*11
$PMTK001,183,3*3A
$PMTK869,2,1*36

$GPGGA,170717.000,5212.0873,N,00005.9626,E,2,09,0.88,6.7,M,47.0,M,0000,0000*65

$PMTKLOG,0,1,a,31,15,0,0,1,0,0*11
$PMTK001,183,3*3A
$PMTK869,2,1*36

$GPGGA,170718.000,5212.0873,N,00005.9626,E,2,09,0.88,6.7,M,47.0,M,0000,0000*6A
$PMTKLOG,0,1,a,31,15,0,0,1,0,0*11
$PMTK001,183,3*3A
$PMTK86
9,2,1*36

$GPGGA,170719.000,5212.0873,N,00005.9626,E,2,09,0.88,6.7,M,47.0,M,0000,0000*6B

$PMTKLOG,0,1,a,31,15,0,0,1,0,0*11
$PMTK001,183,3*3A
$PMTK869,2,1*36

$GPGGA,170720.000,5212.0873,N,00005.9626,E,2,09,0.88,6.7,M,47.0,M,0000,0000*61

$PMTKLOG,0,1,a,31,15,0,0,1,0,0*11
$PMTK001,183,3*3A
$PMTK869,2,1*36

$GPGGA,170721.000,5212.0873,N,00005.9626,E,2,09,0.88,6.7,M,47.0,M,0000,0000*60

$PMTKLOG,0,1,a,31,15,0,0,1,0,0*11
$PMTK001,183,3*3A
$PMTK869,2,1*36

$GPGGA,170722.000,5212.0873,N,00005.9626,E,2,09,0.88,6.7,M,47.0,M,0000,0000*63

$PMTKLOG,0,1,a,31,15,0,0,1,0,0*11
$PMTK001,183,3*3A
$PMTK869,2,1*36

$GPGGA,170723.000,5212.0873,N,00005.9626,E,2,09,0.88,6.7,M,47.0,M,0000,0000*62

$PMTKLOG,0,1,a,31,15,0,0,1,0,0*11
$PMTK001,183,3*3A
$PMTK869,2,1*36

$GPGGA,170724.000,5212.0873,N,00005.9626,E,2,09,0.88,6.7,M,47.0,M,0000,0000*65

$PMTKLOG,0,1,a,31,15,0,0,1,0,0*11
$PMTK001,183,3*3A
$PMTK869,2,1*36

$GPGGA,170725.000,5212.0873,N,00005.9626,E,2,09,0.88,6.7,M,47.0,M,0000,0000*64

$PMTKLOG,0,1,a,31,15,0,0,1,0,0*11
$PMTK001,183,3*3A
$PMTK869,2,1*36

$GPGGA,170726.000,5212.0873,N,00005.9626,E,2,09,0.88,6.7,M,47.0,M,0000,0000*67
$PMTKLOG,0,1,a,31,15,0,0,1,0,0*11
$PMTK001,183,3*3A
$PMTK869,2,1*36

$GPGGA,170727.000,5212.0873,N,00005.9626,E,2,09,0.88,6.7,M,47.0,M,0000,0000*66

$PMTKLOG,0,1,a,31,15,0,0,1,0,0*11
$PMTK001,183,3*3A
$PMTK869,2,1*36

$GPGGA,170728.000,5212.0873,N,00005.9626,E,2,09,0.88,6.7,M,47.0,M,0000,0000*69

$PMTKLOG,0,1,a,31,15,0,0,1,0,0*11
$PMTK001,183,3*3A
$PMTK869,2,1*36

$GPGGA,170729.000,5212.0873,N,00005.9626,E,2,09,0.88,6.7,M,47.0,M,0000,0000*68

$PMTKLOG,0,1,a,31,15,0,0,1,0,0*11
$PMTK001,183,3*3A
$PMTK869,2,1*36

$GPGGA,170730.000,5212.0873,N,00005.9626,E,2,09,0.88,6.7,M,47.0,M,0000,0000*60
$PMTKLOG,0,1,a,31,15,0,0,1,0,0*11
$PMTK001,183,3*3A
$PMTK869,2,1*36

$GPGGA,170731.000,5212.0873,N,00005.9626,E,2,09,0.88,6.7,M,47.0,M,0000,0000*61

$PMTKLOG,0,1,a,31,15,0,0,1,0,0*11
$PMTK001,183,3*3A
$PMTK869,2,1*36

$GPGGA,170732.000,5212.0873,N,00005.9626,E,2,09,0.88,6.7,M,47.0,M,0000,0000*62
$PMTKLOG,0,1,a,31,15,0,0,1,0,0*11
$PMTK001,183,3*3A
$PMTK869,2,1*36

$GPGGA,170733.000,5212.0873,N,00005.9626,E,2,09,0.88,6.6,M,47.0,M,0000,0000*62
$PMTKLOG,0,1,a,31,15,0,0,1,0,0*11
$PMTK001,183,3*3A
$PMTK869,2,1*36

$GPGGA,170734.000,5212.0873,N,00005.9626,E,2,09,0.88,6.6,M,47.0,M,0000,0000*65

$PMTKLOG,0,1,a,31,15,0,0,1,0,0*11
$PMTK001,183,3*3A
$PMTK869,2,1*36

$GPGGA,170735.000,5212.0873,N,00005.9626,E,2,09,0.88,6.6,M,47.0,M,0000,0000*64
$PMTKLOG,0,1,a,31,15,0,0,1,0,0*11
$PMTK001,183,3*3A
$PMTK869,2,1*36

$GPGGA,170736.000,5212.0873,N,00005.9626,E,2,09,0.88,6.6,M,47.0,M,0000,0000*67
$PMTKLOG,0,1,a,31,15,0,0,1,0,0*11
$PMTK001,183,3*3A
$PMTK869,2,1*36

$GPGGA,170737.000,5212.0873,N,00005.9626,E,2,09,0.88,6.6,M,47.0,M,0000,0000*66
$PMTKLOG,0,1,a,31,15,0,0,1,0,0*11
$PMTK001,183,3*3A
$PMTK869,2,1*36

$GPGGA,170738.000,5212.0873,N,00005.9626,E,2,09,0.88,6.6,M,47.0,M,0000,0000*69
$PMTKLOG,0,1,a,31,15,0,0,1,0,0*11
$PMTK001,183,3*3A
$PMTK869,2,1*36

$GPGGA,170739.000,5212.0873,N,00005.9626,E,2,09,0.88,6.6,M,47.0,M,0000,0000*68
$PMTKLOG,0,1,a,31
,15,0,0,1,0,0*11
$PMTK001,183,3*3A
$PMTK869,2,1*36

$GPGGA,170740.000,5212.0873,N,00005.9626,E,2,09,0.88,6.6,M,47.0,M,0000,0000*66
$PMTKLOG,0,1,a,31,15,0,0,1,0,0*11
$PMTK001,183,3*3A
$PMTK869,2,1*36

$GPGGA,170741.000,5212.0873,N,00005.9626,E,2,09,0.88,6.6,M,47.0,M,0000,0000*67
$PMTKLOG,0,1,a,31,15,0,0,1,0,0*11
$PMTK001,183,3*3A
$PMTK869,2,1*36

$GPGGA,170742.000,5212.0873,N,00005.9626,E,2,09,0.88,6.6,M,47.0,M,0000,0000*64
$PMTKLOG,0,1,a,31,15,0,0,1,0,0*11
$PMTK001,183,3*3A
$PMTK869,2,1*36

$GPGGA,170743.000,5212.0873,N,00005.9626,E,2,09,0.88,6.6,M,47.0,M,0000,0000*65
$PMTKLOG,0,1,a,31,15,0,0,1,0,0*11
$PMTK001,183,3*3A
$PMTK869,2,1*36

$GPGGA,170744.000,5212.0873,N,00005.9626,E,2,09,0.88,6.6,M,47.0,M,0000,0000*62
$PMTKLOG,0,1,a,31,15,0,0,1,0,0*11
$PMTK00
1,183,3*3A
$PMTK869,2,1*36

$GPGGA,170745.000,5212.0873,N,00005.9626,E,2,09,0.88,6.6,M,47.0,M,0000,0000*63
$PMTKLOG,0,1,a,31,15,0,0,1,0,0*11
$PMTK001,183,3*3A
$PMTK869,2,1*36

$GPGGA,170746.000,5212.0873,N,00005.9626,E,2,09,0.88,6.6,M,47.0,M,0000,0000*60
$PMTKLOG,0,1,a,31,15,0,0,1,0,0*11
$PMTK001,183,3*3A
$PMTK869,2,1*36

$GPGGA,170747.000,5212.0873,N,00005.9626,E,2,09,0.87,6.6,M,47.0,M,0000,0000*6E

$PMTKLOG,0,1,a,31,15,0,0,1,0,0*11
$PMTK001,183,3*3A
$PMTK869,2,1*36

$GPGGA,170748.000,5212.0873,N,00005.9625,E,2,09,0.87,6.6,M,47.0,M,0000,0000*62

$PMTKLOG,0,1,a,31,15,0,0,1,0,0*11
$PMTK001,183,3*3A
$PMTK869,2,1*36

$GPGGA,170749.000,5212.0873,N,00005.9625,E,2,09,0.88,6.6,M,47.0,M,0000,0000*6C

$PMTKLOG,0,1,a,31,15,0,0,1,0,0*11
$PMTK001,183,3*3A
$PMTK869,2,1*36

$GPGGA,170750.000,5212.0873,N,00005.9625,E,2,09,0.88,6.6,M,47.0,M,0000,0000*64

$PMTKLOG,0,1,a,31,15,0,0,1,0,0*11
$PMTK001,183,3*3A
$PMTK869,2,1*36

$GPGGA,170751.000,5212.0873,N,00005.9625,E,2,09,0.87,6.6,M,47.0,M,0000,0000*6A

$PMTKLOG,0,1,a,31,15,0,0,1,0,0*11
$PMTK001,183,3*3A
$PMTK869,2,1*36

$GPGGA,170752.000,5212.0873,N,00005.9625,E,2,09,0.88,6.6,M,47.0,M,0000,0000*66

$PMTKLOG,0,1,a,31,15,0,0,1,0,0*11
$PMTK001,183,3*3A
$PMTK869,2,1*36

$GPGGA,170753.000,5212.0873,N,00005.9626,E,2,09,0.88,6.6,M,47.0,M,0000,0000*64

$PMTKLOG,0,1,a,31,15,0,0,1,0,0*11
$PMTK001,183,3*3A
$PMTK869,2,1*36

$GPGGA,170754.000,5212.0873,N,00005.9625,E,2,09,0.87,6.6,M,47.0,M,0000,0000*6F
$PMTKLOG,0,1,a,31,15,0,0,1,0,0*11
$PMTK001,183,3*3A
$PMTK869,2,1*36

$
GPGGA,170755.000,5212.0873,N,00005.9625,E,2,09,0.88,6.6,M,47.0,M,0000,0000*61
$PMTKLOG,0,1,a,31,15,0,0,1,0,0*11
$PMTK001,183,3*3A
$PMTK869,2,1*36

$GPGGA,170756.000,5212.0873,N,00005.9625,E,2,09,0.87,6.6,M,47.0,M,0000,0000*6D
$PMTKLOG,0,1,a,31,15,0,0,1,0,0*11
$PMTK001,183,3*3A
$PMTK869,2,1*36

$GPGGA,170757.000,5212.0873,N,00005.9625,E,2,09,0.87,6.6,M,47.0,M,0000,0000*6C
$PMTKLOG,0,1,a,31,15,0,0,1,0,0*11
$PMTK001,183,3*3A
$PMTK869,2,1*36

$GPGGA,170758.000,5212.0873,N,00005.9626,E,2,09,0.87,6.6,M,47.0,M,0000,0000*60
$PMTKLOG,0,1,a,31,15,0,0,1,0,0*11
$PMTK001,183,3*3A
$PMTK869,2,1
*36

$GPGGA,170759.000,5212.0873,N,00005.9626,E,2,09,0.88,6.6,M,47.0,M,0000,0000*6E
$PMTKLOG,0,1,a,31,15,0,0,1,0,0*11
$PMTK001,183,3*3A
$PMTK869,2,1*36

$GPGGA,170800.000,5212.0873,N,00005.9626,E,2,09,0.87,6.6,M,47.0,M,0000,0000*62
$PMTKLOG,0,1,a,31,15,0,0,1,0,0*11
$PMTK001,183,3*3A
$PMTK869,2,1*36

$GPGGA,170801.000,5212.0873,N,00005.9626,E,2,09,0.87,6.6,M,47.0,M,0000,0000*63
$PMTKLOG,0,1,a,31,15,0,0,1,0,0*11
$PMTK001,183,3*3A
$PMTK869,2,1*36

$GPGGA,170802.000,5212.0873,N,00005.9626,E,2,09,0.87,6.6,M,47.0,M,0000,0000*60
$PMTKLOG,0,1,a,31,15,0,0,1,0,0*11
$PMTK001,183,3*3A
$PMTK869,2,1*
36

$GPGGA,170803.000,5212.0873,N,00005.9626,E,2,09,0.87,6.6,M,47.0,M,0000,0000*61
$PMTKLOG,0,1,a,31,15,0,0,1,0,0*11
$PMTK001,183,3*3A
$PMTK869,2,1*36

$GPGGA,170804.000,5212.0873,N,00005.9626,E,2,09,0.87,6.6,M,47.0,M,0000,0000*66
$PMTKLOG,0,1,a,31,15,0,0,1,0,0*11
$PMTK001,183,3*3A
$PMTK869,2,1*36

$GPGGA,170805.000,5212.0873,N,00005.9626,E,2,09,0.87,6.6,M,47.0,M,0000,0000*67
$PMTKLOG,0,1,a,31,15,0,0,1,0,0*11
$PMTK001,183,3*3A
$PMTK869,2,1*36

$GPGGA,170806.000,5212.0873,N,00005.9626,E,2,09,0.87,6.6,M,47.0,M,0000,0000*64
$PMTKLOG,0,1,a,31,15,0,0,1,0,0*11
$PMTK001,183,3*3A
$PMTK869,2,1*36

$GPGGA,170807.000,5212.0873,N,00005.9626,E,2,09,0.87,6.6,M,47.0,M,0000,0000*65
$PMTKLOG,0,1,a,31,15,0,0,1,0,0*11
$PMTK001
,183,3*3A
$PMTK869,2,1*36

$GPGGA,170808.000,5212.0873,N,00005.9626,E,2,09,0.87,6.6,M,47.0,M,0000,0000*6A

$PMTKLOG,0,1,a,31,15,0,0,1,0,0*11
$PMTK001,183,3*3A
$PMTK869,2,1*36

$GPGGA,170809.000,5212.0873,N,00005.9625,E,2,09,0.87,6.6,M,47.0,M,0000,0000*68
$PMTKLOG,0,1,a,31,15,0,0,1,0,0*1
1
$PMTK001,183,3*3A
$PMTK869,2,1*36

$GPGGA,170810.000,5212.0873,N,00005.9625,E,2,09,0.87,6.6,M,47.0,M,0000,0000*60

$PMTKLOG,0,1,a,31,15,0,0,1,0,0*11
$PMTK001,183,3*3A
$PMTK869,2,1*36

$GPGGA,170811.000,5212.0873,N,00005.9625,E,2,09,0.87,6.6,M,47.0,M,0000,0000*61

$PMTKLOG,0,1,a,31,15,0,0,1,0,0*11
$PMTK001,183,3*3A
$PMTK869,2,1*36

$GPGGA,170812.000,5212.0873,N,00005.9625,E,2,09,0.87,6.6,M,47.0,M,0000,0000*62

$PMTKLOG,0,1,a,31,15,0,0,1,0,0*11
$PMTK001,183,3*3A
$PMTK869,2,1*36

$GPGGA,170813.000,5212.0873,N,00005.9625,E,2,09,0.87,6.6,M,47.0,M,0000,0000*63

$PMTKLOG,0,1,a,31,15,0,0,1,0,0*11
$PMTK001,183,3*3A
$PMTK869,2,1*36

$GPGGA,170814.000,5212.0873,N,00005.9625,E,2,09,0.87,6.6,M,47.0,M,0000,0000*64

$PMTKLOG,0,1,a,31,15,0,0,1,0,0*11
$PMTK001,183,3*3A
$PMTK869,2,1*36

$GPGGA,170815.000,5212.0873,N,00005.9625,E,2,09,0.87,6.6,M,47.0,M,0000,0000*65

$PMTKLOG,0,1,a,31,15,0,0,1,0,0*11
$PMTK001,183,3*3A
$PMTK869,2,1*36

$GPGGA,170816.000,5212.0873,N,00005.9625,E,2,09,0.87,6.6,M,47.0,M,0000,0000*66
$PMTKLOG,0,1,a,31,15,0,0,1,0,0*11
$PMTK001,183,3*3A
$PMTK869,2,1*36

$GPGGA,170817.000,5212.0873,N,00005.9625,E,2,09,0.
87,6.6,M,47.0,M,0000,0000*67
$PMTKLOG,0,1,a,31,15,0,0,1,0,0*11
$PMTK001,183,3*3A
$PMTK869,2,1*36

$GPGGA,170818.000,5212.0873,N,00005.9625,E,2,09,0.87,6.6,M,47.0,M,0000,0000*68

$PMTKLOG,0,1,a,31,15,0,0,1,0,0*11
$PMTK001,183,3*3A
$PMTK869,2,1*36

$GPGGA,170819.000,5212.0873,N,00005.9625,E,2,09,0.87,6.6,M,47.0,M,0000,0000*69

$PMTKLOG,0,1,a,31,15,0,0,1,0,0*11
$PMTK001,183,3*3A
$PMTK869,2,1*36

$GPGGA,170820.000,5212.0873,N,00005.9625,E,2,09,0.87,6.6,M,47.0,M,0000,0000*63
$PMTKLOG,0,1,a,31,15,0,0,1,0,0*11
$PMTK001,183,3*3A
$PMTK869,2,1*36

$GPGGA,170821.000,5212.0873,N,00005.9625,E,2,09,0.87,6.6,M,47.0,M,0000,0000*62
$PMTKLOG,0,1,a,31,15,0,0,1,0,0*11
$PMTK001,183,3*3A
$PMTK869,2,1*36

$GPGGA,170822.000,5212.0873,N,00005.9625,E,2,09,0.87,6.6,M,47.0,M,0000,0000*61
$PMTKLOG,0,1,a,31,15,0,0,1,0,0*11
$PMTK001,183,3*3A
$PMTK869,2,1*36

$GPGGA,170823.000,5212.0873,N,00005.9625,E,2,09,0.87,6.6,M,47.0,M,0000,0000*60
$PMTKLOG,0,1,a,31,15,0,0,1,0,0*11
$PMTK001,183,3*3A
$PMTK869,2,1*36

$GPGGA,170824.000,5212.0873,N,00005.9625,E,2,09,0.87,6.6,M,47.0,M,0000,0000*67
$PMTKLOG,0,1,a,31,15,0,0,1,0,0*11
$PMTK001,183,3*3A
$PMTK869,2,1*36

$GPGGA,170825.000,5212.0873,N,00005.9625,E,2,09,0.87,6.6,M,47.0,M,0000,0000*66

$PMTKLOG,0,1,a,31,15,0,0,1,0,0*11
$PMTK001,183,3*3A
$PMTK869,2,1*36

$GPGGA,170826.000,5212.0873,N,00005.9625,E,2,09,0.87,6.6,M,47.0,M,0000,0000*65
$PMTKLOG,0,1,a,31,15,0,0,1,0,0*11
$PMTK001,183,3*3A
$PMTK869,2,1
*36

$GPGGA,170827.000,5212.0873,N,00005.9625,E,2,09,0.87,6.6,M,47.0,M,0000,0000*64
$PMTKLOG,0,1,a,31,15,0,0,1,0,0*11
$PMTK001,183,3*3A
$PMTK869,2,1*36

$GPGGA,170828.000,5212.0873,N,00005.9625,E,2,09,0.87,6.6,M,47.0,M,0000,0000*6B

$PMTKLOG,0,1,a,31,15,0,0,1,0,0*11
$PMTK001,183,3*3A
$PMTK869,2,1*36

$GPGGA,170829.000,5212.0873,N,00005.9625,E,2,09,0.87,6.6,M,47.0,M,0000,0000*6A

$PMTKLOG,0,1,a,31,15,0,0,1,0,0*11
$PMTK001,183,3*3A
$PMTK869,2,1*36

$GPGGA,170830.000,5212.0873,N,00005.9625,E,2,09,0.87,6.6,M,47.0,M,0000,0000*62
$PMTKLOG,0,1,a,31,15,0,0,1,0,0*11
$PMTK001,183,3*3A
$PMTK869,2,1*36

$GPGGA,170831.000,5212.0873,N,00005.9625,E,2,09,0.87,6.6,M,47.0,M,0000,0000*63

$PMTKLOG,0,1,a,31,15,0,0,1,0,0*11
$PMTK001,183,3*3A
$PMTK869,2,1*36

$GPGGA,170832.000,5212.0873,N,00005.9625,E,2,09,0.87,6.6,M,47.0,M,0000,0000*60

$PMTKLOG,0,1,a,31,15,0,0,1,0,0*11
$PMTK001,183,3*3A
$PMTK869,2,1*36

$GPGGA,170833.000,5212.0873,N,00005.9625,E,2,09,0.87,6.6,M,47.0,M,0000,0000*61

$PMTKLOG,0,1,a,31,15,0,0,1,0,0*11
$PMTK001,183,3*3A
$PMTK869,2,1*36

$GPGGA,170834.000,5212.0873,N,00005.9625,E,2,09,0.87,6.6,M,47.0,M,0000,0000*66

$PMTKLOG,0,1,a,31,15,0,0,1,0,0*11
$PMTK001,183,3*3A
$PMTK869,2,1*36

$GPGGA,170835.000,5212.0873,N,00005.9625,E,2,09,0.87,6.6,M,47.0,M,0000,0000*67

$PMTKLOG,0,1,a,31,15,0,0,1,0,0*11
$PMTK001,183,3*3A
$PMTK869,2,1*36

$GPGGA,170836.000,5212.0873,N,00005.9625,E,2,09,0.87,6.6,M,47.0,M,0000,0000*64
$PMTKLOG,0,1,a,31,15,0,0,1,0,0*11
$PMTK001,183,3*3A
$PMTK869,2,1*36

$GPGGA,170837.000,5212.0873,N,00005.9626,E,2,09,0.87,6.7,M,47.0,M,0000,0000*67

$PMTKLOG,0,1,a,31,15,0,0,1,0,0*11
$PMTK001,183,3*3A
$PMTK869,2,1*36

$GPGGA,170838.000,5212.0873,N,00005.9627,E,2,09,0.87,6.7,M,47.0,M,0000,0000*69

$PMTKLOG,0,1,a,31,15,0,0,1,0,0*11
$PMTK001,183,3*3A
$PMTK869,2,1*36

$GPGGA,170839.000,5212.0873,N,00005.9627,E,2,09,0.87,6.7,M,47.0,M,0000,0000*68
$PMTKLOG,0,1,a,31,15,0,0,1,0,0*11
$PMTK001,183,3*3A
$PMTK869,2,1*36

$GPGGA,170840.000,5212.0873,N,00005.9627,E,2,09,0.87,6.6,M,47.0,M,0000,0000*67
$PMTKLOG,0,1,a,31,15,0,0,1,0,0*11
$PMTK001,183,3*3A
$PMTK869,2,1*36

$GPGGA,170841.000,5212.0874,N,00005.962
7,E,2,09,0.87,6.6,M,47.0,M,0000,0000*61
$PMTKLOG,0,1,a,31,15,0,0,1,0,0*11
$PMTK001,183,3*3A
$PMTK869,2,1*36

$GPGGA,170842.000,5212.0874,N,00005.9627,E,2,09,0.87,6.5,M,47.0,M,0000,0000*61

$PMTKLOG,0,1,a,31,15,0,0,1,0,0*11
$PMTK001,183,3*3A
$PMTK869,2,1*36

$GPGGA,170843.000,5212.0874,N,00005.9628,E,2,09,0.87,6.2,M,47.0,M,0000,0000*68

$PMTKLOG,0,1,a,31,15,0,0,1,0,0*11
$PMTK001,183,3*3A
$PMTK869,2,1*36

$GPGGA,170844.000,5212.0874,N,00005.9628,E,2,09,0.87,6.1,M,47.0,M,0000,0000*6C
$PMTKLOG,0,1,a,31,15,0,0,1,0,0*11
$PMTK001,183,
3*3A
$PMTK869,2,1*36

$GPGGA,170845.000,5212.0874,N,00005.9628,E,2,09,0.87,6.0,M,47.0,M,0000,0000*6C

$PMTKLOG,0,1,a,31,15,0,0,1,0,0*11
$PMTK001,183,3*3A
$PMTK869,2,1*36

$GPGGA,170846.000,5212.0874,N,00005.9628,E,2,09,0.87,6.0,M,47.0,M,0000,0000*6F

$PMTKLOG,0,1,a,31,15,0,0,1,0,0*11
$PMTK001,183,3*3A
$PMTK869,2,1*36

$GPGGA,170847.000,5212.0875,N,00005.9627,E,2,09,0.87,5.9,M,47.0,M,0000,0000*6A

$PMTKLOG,0,1,a,31,15,0,0,1,0,0*11
$PMTK001,183,3*3A
$PMTK869,2,1*36

$GPGGA,170848.000,5212.0875,N,00005.9627,E,2,09,0.87,5.8,M,47.0,M,0000,0000*64

$PMTKLOG,0,1,a,31,15,0,0,1,0,0*11
$PMTK001,183,3*3A
$PMTK869,2,1*36

$GPGGA,170849.000,5212.0875,N,00005.9627,E,2,09,0.87,5.8,M,47.0,M,0000,0000*65

$PMTKLOG,0,1,a,31,15,0,0,1,0,0*11
$PMTK001,183,3*3A
$PMTK869,2,1*36

$GPGGA,170850.000,5212.0875,N,00005.9627,E,2,09,0.87,5.8,M,47.0,M,0000,0000*6D

$PMTKLOG,0,1,a,31,15,0,0,1,0,0*11
$PMTK001,183,3*3A
$PMTK869,2,1*36

$GPGGA,170851.000,5212.0875,N,00005.9627,E,2,09,0.87,5.8,M,47.0,M,0000,0000*6C

$PMTKLOG,0,1,a,31,15,0,0,1,0,0*11
$PMTK001,183,3*3A
$PMTK869,2,1*36

$GPGGA,170852.000,5212.0875,N,00005.9627,E,2,09,0.87,5.8,M,47.0,M,0000,0000*6F

$PMTKLOG,0,1,a,31,15,0,0,1,0,0*11
$PMTK001,183,3*3A
$PMTK869,2,1*36

$GPGGA,170853.000,5212.0875,N,00005.9627,E,2,09,0.87,5.8,M,47.0,M,0000,0000*6E

$PMTKLOG,0,1,a,31,15,0,0,1,0,0*11
$PMTK001,183,3*3A
$PMTK869,2,1*36

