
$GPGSV,4,1,13,22,80,084,16,03,75,243,37,01,68,116,17,11,46,151,28*7F

$GPGSV,4,2,13,17,46,294,40,14,32,053,,19,25,315,30,23,23,184,29*7D

$GPVTG,29.02,T,,M,0.63,N,1.16,K,A*07

$GPGGA,092901.000,5212.2497,N,00007.0571,E,1,05,2.73,16.3,M,47.0,M,,*53

$GPRMC,092902.000,A,5212.2500,N,00007.0579,E,0.67,40.43,191118,,,A*52

$GPVTG,40.43,T,,M,0.67,N,1.24,K,A*08

$GPVTG,21.69,T,,M,0.51,N,0.95,K,A*09

$GPGGA,092904.000,5212.2502,N,00007.0584,E,1,05,2.73,15.9,M,47.0,M,,*58

$GPGSV,4,4,13,35,,,*7D

$GPRMC,092904.000,A,5212.2502,N,00007.0584,E,0.16,201.13,191118,,,A*60

$GPRMC,092905.000,A,5212.2505,N,00007.0591,E,0.66,42.05,191118,,,A*57

$GPVTG,42.05,T,,M,0.66,N,1.23,K,A*0E

$GPVTG,352.58,T,,M,0.44,N,0.82,K,A*3E

$GPGGA,092907.000,5212.2508,N,00007.0596,E,1,05,2.87,15.4,M,47.0,M,,*54

$GPRMC,092908.000,A,5212.2506,N,00007.0593,E,0.85,226.27,191118,,,A*66

$GPVTG,226.27,T,,M,0.85,N,1.57,K,A*30

$GPGSV,4,2,13,17,46,294,41,14,32,053,,19,25,315,30,23,23,184,28*7D

$GPGSV,4,3,13,32,15,040,,31,11,086,,28,09,249,13,06,02,295,*75

$GPRMC,092910.000,A,5212.2505,N,00007.0592,E,1.04,232.10,191118,,,A*64

$GPVTG,232.10,T,,M,1.04,N,1.93,K,A*31

$GPVTG,227.53,T,,M,0.94,N,1.75,K,A*32

$GPGGA,092912.000,5212.2502,N,00007.0591,E,1,05,2.73,14.8,M,47.0,M,,*5B

$GPRMC,092913.000,A,5212.2502,N,00007.0589,E,0.83,253.25,191118,,,A*65

$GPVTG,253.25,T,,M,0.83,N,1.54,K,A*35

$GPGSV,4,2,13,17,46,294,40,14,32,053,,19,25,315,29,23,23,184,28*74

$GPGSV,4,3,13,32,15,040,,31,11,086,,28,09,249,14,06,02,295,*72

$GPRMC,092915.000,A,5212.2507,N,00007.0597,E,0.28,5.70,191118,,,A*69

$GPVTG,5.70,T,,M,0.28,N,0.52,K,A*32

$GPVTG,226.46,T,,M,0.39,N,0.73,K,A*37

$GPGGA,092917.000,5212.2505,N,00007.0595,E,1,05,2.73,14.2,M,47.0,M,,*57

$GPRMC,092918.000,A,5212.2503,N,00007.0590,E,0.81,239.06,191118,,,A*68

$GPVTG,239.06,T,,M,0.81,N,1.50,K,A*3E

$GPGSV,4,2,13,17,46,294,40,14,32,053,,19,25,315,29,23,23,184,28*74

$GPGSV,4,3,13,32,15,040,,31,11,086,,28,09,249,14,06,02,295,*72

$GPRMC,092920.000,A,5212.2502,N,00007.0591,E,0.11,197.24,191118,,,A*6D

$GPVTG,197.24,T,,M,0.11,N,0.21,K,A*37

$GPVTG,201.07,T,,M,0.22,N,0.42,K,A*3F

$GPGGA,092922.000,5212.2499,N,00007.0586,E,1,05,2.73,14.2,M,47.0,M,,*57

$GPRMC,092923.000,A,5212.2499,N,00007.0586,E,0.69,256.88,191118,,,A*6C

$GPVTG,256.88,T,,M,0.69,N,1.28,K,A*38

$GPGSV,4,2,13,17,46,294,40,14,32,053,,19,25,315,30,23,23,184,28*7C

$GPGSV,4,3,13,32,15,040,,31,11,086,,28,09,249,13,06,02,295,*75

$GPRMC,092925.000,A,5212.2497,N,00007.0577,E,0.40,224.86,191118,,,A*6A

$GPVTG,224.86,T,,M,0.40,N,0.74,K,A*30

$GPVTG,233.15,T,,M,0.50,N,0.92,K,A*35

$GPGGA,092927.000,5212.2495,N,00007.0572,E,1,05,2.73,14.4,M,47.0,M,,*53

$GPRMC,092928.000,A,5212.2495,N,00007.0571,E,0.39,32.90,191118,,,A*5F

$GPVTG,32.90,T,,M,0.39,N,0.72,K,A*0A

$GPGSV,4,2,13,17,46,294,39,14,32,053,,19,25,315,30,23,23,184,28*72

$GPGSV,4,3,13,32,15,040,,31,11,086,,28,09,249,,06,02,295,*77

$GPRMC,092930.000,A,5212.2497,N,00007.0572,E,0.25,319.99,191118,,,A*69

$GPVTG,319.99,T,,M,0.25,N,0.46,K,A*33

$GPVTG,61.79,T,,M,0.08,N,0.14,K,A*09

$GPGGA,092932.000,5212.2498,N,00007.0572,E,1,05,2.73,14.4,M,47.0,M,,*5A

$GPRMC,092933.000,A,5212.2497,N,00007.0568,E,0.23,58.64,191118,,,A*53

$GPVTG,58.64,T,,M,0.23,N,0.44,K,A*03

$GPGSV,4,2,13,17,46,294,39,14,32,053,,19,25,315,30,23,24,184,29*74

$GPGSV,4,3,13,32,15,040,,31,11,086,,28,09,249,,06,02,295,*77

$GPRMC,092935.000,A,5212.2495,N,00007.0564,E,0.17,42.49,191118,,,A*58

$GPVTG,42.49,T,,M,0.17,N,0.31,K,A*02

$GPVTG,59.78,T,,M,0.24,N,0.44,K,A*08

$GPGGA,092937.000,5212.2496,N,00007.0565,E,1,05,2.73,14.5,M,47.0,M,,*56

$GPRMC,092938.000,A,5212.2496,N,00007.0566,E,0.82,86.47,191118,,,A*5E

$GPVTG,86.47,T,,M,0.82,N,1.53,K,A*0D

$GPGSV,4,2,13,17,46,294,39,14,32,053,,19,25,315,30,23,24,184,29*74

$GPGSV,4,3,13,32,15,040,,31,12,085,,28,09,249,,06,02,295,*77

$GPRMC,092940.000,A,5212.2494,N,00007.0562,E,0.56,53.13,191118,,,A*57

$GPVTG,53.13,T,,M,0.56,N,1.05,K,A*0E

$GPVTG,57.20,T,,M,0.80,N,1.48,K,A*08

$GPGGA,092942.000,5212.2495,N,00007.0564,E,1,05,2.73,15.1,M,47.0,M,,*53

$GPRMC,092943.000,A,5212.2493,N,00007.0562,E,0.40,122.25,191118,,,A*66

$GPVTG,122.25,T,,M,0.40,N,0.75,K,A*3D

$GPGSV,4,2,13,17,46,294,39,14,32,053,,19,25,315,30,23,24,184,30*7C

$GPGSV,4,3,13,32,15,040,,31,12,085,,28,09,249,,06,02,295,*77

$GPRMC,092945.000,A,5212.2491,N,00007.0560,E,0.42,209.91,191118,,,A*67

$GPVTG,209.91,T,,M,0.42,N,0.78,K,A*37

$GPVTG,66.89,T,,M,0.48,N,0.90,K,A*09

$GPGGA,092947.000,5212.2492,N,00007.0564,E,1,05,2.73,15.8,M,47.0,M,,*58

$GPRMC,092948.000,A,5212.2493,N,00007.0566,E,0.29,344.66,191118,,,A*63

$GPVTG,344.66,T,,M,0.29,N,0.54,K,A*34

$GPGSV,4,2,13,17,46,294,38,14,32,053,,19,25,315,29,23,24,184,31*74

$GPGSV,4,3,13,32,15,040,,31,12,085,,28,09,249,,06,02,295,*77

$GPRMC,092950.000,A,5212.2493,N,00007.0565,E,0.30,235.81,191118,,,A*6F

$GPVTG,235.81,T,,M,0.30,N,0.57,K,A*31

$GPVTG,235.30,T,,M,0.66,N,1.23,K,A*3A

$GPGGA,092952.000,5212.2495,N,00007.0572,E,1,05,2.73,16.0,M,47.0,M,,*57

$GPRMC,092953.000,A,5212.2498,N,00007.0578,E,0.48,27.31,191118,,,A*5E

$GPVTG,27.31,T,,M,0.48,N,0.90,K,A*0F

$GPGSV,4,2,13,17,46,294,38,14,32,053,,19,25,315,29,23,24,184,32*77

$GPGSV,4,3,13,32,15,040,,31,12,085,,28,09,249,,06,02,295,*77

$GPRMC,092955.000,A,5212.2503,N,00007.0583,E,0.87,18.82,191118,,,A*58

$GPVTG,18.82,T,,M,0.87,N,1.62,K,A*04

$GPVTG,64.02,T,,M,0.72,N,1.34,K,A*0E

$GPGGA,092957.000,5212.2507,N,00007.0592,E,1,05,2.73,16.7,M,47.0,M,,*51

$GPRMC,092958.000,A,5212.2505,N,00007.0589,E,0.15,140.72,191118,,,A*61

$GPVTG,140.72,T,,M,0.15,N,0.28,K,A*33

$GPGSV,4,2,13,11,46,151,29,14,32,052,,19,25,315,29,23,24,184,32*7A

$GPGSV,4,3,13,32,15,040,,31,12,085,,28,09,249,,06,02,295,*77

$GPRMC,093000.000,A,5212.2506,N,00007.0591,E,0.24,60.67,191118,,,A*5B

$GPVTG,60.67,T,,M,0.24,N,0.44,K,A*0C

$GPVTG,243.26,T,,M,0.14,N,0.26,K,A*3D

$GPGGA,093002.000,5212.2506,N,00007.0589,E,1,05,2.73,17.2,M,47.0,M,,*56

$GPRMC,093003.000,A,5212.2506,N,00007.0588,E,0.68,250.28,191118,,,A*62

$GPVTG,250.28,T,,M,0.68,N,1.25,K,A*38

$GPGSV,4,2,13,11,46,151,29,14,32,052,,33,28,199,,19,25,315,28*7B

$GPGSV,4,3,13,23,24,184,33,32,15,040,,31,12,085,,28,09,249,15*73

$GPRMC,093005.000,A,5212.2505,N,00007.0587,E,0.64,210.41,191118,,,A*6F

$GPVTG,210.41,T,,M,0.64,N,1.19,K,A*30

$GPVTG,38.85,T,,M,0.33,N,0.62,K,A*0F

$GPGGA,093007.000,5212.2508,N,00007.0598,E,1,05,2.73,17.6,M,47.0,M,,*59

$GPRMC,093008.000,A,5212.2511,N,00007.0604,E,0.65,58.49,191118,,,A*58

$GPVTG,58.49,T,,M,0.65,N,1.20,K,A*0D

$GPGSV,4,2,13,11,46,151,29,14,32,052,,33,28,199,,19,25,315,27*74

$GPGSV,4,3,13,23,24,184,33,32,15,040,,31,12,085,,28,09,249,15*73

$GPRMC,093010.000,A,5212.2514,N,00007.0611,E,0.59,25.95,191118,,,A*54

$GPVTG,25.95,T,,M,0.59,N,1.09,K,A*02

$GPVTG,35.39,T,,M,0.69,N,1.28,K,A*05

$GPGGA,093012.000,5212.2519,N,00007.0621,E,1,05,2.74,18.2,M,47.0,M,,*50

$GPRMC,093013.000,A,5212.2520,N,00007.0624,E,0.12,171.30,191118,,,A*66

$GPVTG,171.30,T,,M,0.12,N,0.23,K,A*3B

$GPGSV,4,2,13,11,46,151,29,14,32,052,,37,27,153,,19,25,315,27*79

$GPGSV,4,3,13,23,24,184,33,32,15,040,,31,12,085,,28,09,249,16*70

$GPRMC,093015.000,A,5212.2523,N,00007.0629,E,0.24,349.59,191118,,,A*6D

$GPVTG,349.59,T,,M,0.24,N,0.45,K,A*38

$GPVTG,58.07,T,,M,0.41,N,0.76,K,A*03

$GPGGA,093017.000,5212.2525,N,00007.0630,E,1,05,2.74,18.4,M,47.0,M,,*5C

$GPRMC,093018.000,A,5212.2525,N,00007.0630,E,0.43,240.75,191118,,,A*69

$GPVTG,240.75,T,,M,0.43,N,0.79,K,A*30

$GPGSV,4,2,13,11,46,151,29,14,32,052,,37,27,153,,19,25,315,28*76

$GPGSV,4,3,13,23,24,184,33,32,15,040,,31,12,085,,28,09,249,17*71

$GPRMC,093020.000,A,5212.2525,N,00007.0628,E,0.72,45.04,191118,,,A*58

$GPVTG,45.04,T,,M,0.72,N,1.33,K,A*0C

$GPVTG,41.61,T,,M,0.63,N,1.16,K,A*0C

$GPGGA,093022.000,5212.2527,N,00007.0633,E,1,05,2.74,18.5,M,47.0,M,,*5A

$GPRMC,093023.000,A,5212.2529,N,00007.0635,E,0.30,56.95,191118,,,A*57

$GPVTG,56.95,T,,M,0.30,N,0.56,K,A*02

$GPGSV,4,2,13,11,46,151,29,14,32,052,,19,25,315,27,39,25,149,*7E

$GPGSV,4,3,13,23,24,184,33,32,15,040,,31,12,085,,28,09,249,17*71

$GPRMC,093025.000,A,5212.2532,N,00007.0641,E,0.41,13.05,191118,,,A*56

$GPVTG,13.05,T,,M,0.41,N,0.77,K,A*0F

$GPVTG,122.19,T,,M,0.40,N,0.73,K,A*34

$GPGGA,093027.000,5212.2533,N,00007.0642,E,1,05,2.74,18.4,M,47.0,M,,*5D

$GPRMC,093028.000,A,5212.2533,N,00007.0644,E,0.30,79.01,191118,,,A*51

$GPVTG,79.01,T,,M,0.30,N,0.55,K,A*01

$GPGSV,4,2,13,11,46,151,29,14,32,052,,19,25,315,27,39,25,149,*7E

$GPGSV,4,3,13,23,24,184,34,32,15,040,,31,12,085,,28,09,249,17*76

$GPRMC,093030.000,A,5212.2534,N,00007.0646,E,0.58,84.12,191118,,,A*53

$GPVTG,84.12,T,,M,0.58,N,1.08,K,A*06

$GPVTG,48.66,T,,M,0.72,N,1.33,K,A*05

$GPGGA,093032.000,5212.2532,N,00007.0638,E,1,05,2.74,18.5,M,47.0,M,,*54

$GPRMC,093033.000,A,5212.2532,N,00007.0635,E,0.11,310.07,191118,,,A*65

$GPVTG,310.07,T,,M,0.11,N,0.21,K,A*3B

$GPGSV,4,2,13,11,46,151,29,14,32,052,,19,25,315,26,23,24,184,34*73

$GPGSV,4,3,13,32,15,040,,31,12,085,,28,09,249,21,40,07,111,*7C

$GPRMC,093035.000,A,5212.2531,N,00007.0629,E,0.34,319.33,191118,,,A*64

$GPVTG,319.33,T,,M,0.34,N,0.63,K,A*34

$GPVTG,229.84,T,,M,0.42,N,0.78,K,A*31

$GPGGA,093037.000,5212.2531,N,00007.0626,E,1,05,2.74,18.5,M,47.0,M,,*5D

$GPRMC,093038.000,A,5212.2530,N,00007.0625,E,0.14,54.74,191118,,,A*5F

$GPVTG,54.74,T,,M,0.14,N,0.27,K,A*0F

$GPGSV,4,2,13,11,46,151,29,14,32,052,,19,25,315,26,23,24,184,33*74

$GPGSV,4,3,13,32,15,040,,31,12,085,,28,09,249,22,40,07,111,*7F

$GPRMC,093040.000,A,5212.2529,N,00007.0624,E,0.58,210.16,191118,,,A*67

$GPVTG,210.16,T,,M,0.58,N,1.08,K,A*3D

$GPVTG,201.98,T,,M,0.33,N,0.62,K,A*3B

$GPGGA,093042.000,5212.2527,N,00007.0622,E,1,05,2.74,18.5,M,47.0,M,,*5C

$GPRMC,093043.000,A,5212.2527,N,00007.0620,E,0.31,1.83,191118,,,A*6F

$GPVTG,1.83,T,,M,0.31,N,0.58,K,A*38

$GPGSV,4,2,13,11,46,151,28,14,32,052,,19,25,315,27,23,24,184,32*75

$GPGSV,4,3,13,32,15,040,,31,12,085,,28,09,249,22,44,06,109,*73

$GPRMC,093045.000,A,5212.2527,N,00007.0621,E,0.17,33.25,191118,,,A*51

$GPVTG,33.25,T,,M,0.17,N,0.32,K,A*0D

$GPVTG,201.74,T,,M,0.83,N,1.54,K,A*36

$GPGGA,093047.000,5212.2528,N,00007.0623,E,1,05,2.74,18.5,M,47.0,M,,*57

$GPRMC,093048.000,A,5212.2524,N,00007.0616,E,1.28,209.26,191118,,,A*6E

$GPVTG,209.26,T,,M,1.28,N,2.38,K,A*30

$GPGSV,4,2,13,11,46,151,29,14,32,052,,19,25,315,27,23,24,184,31*77

$GPGSV,4,3,13,32,14,040,,31,12,085,,28,09,249,21,06,02,295,*75

$GPRMC,093050.000,A,5212.2523,N,00007.0615,E,0.39,307.71,191118,,,A*6F

$GPVTG,307.71,T,,M,0.39,N,0.73,K,A*31

$GPVTG,46.86,T,,M,0.37,N,0.68,K,A*0B

$GPGGA,093052.000,5212.2526,N,00007.0621,E,1,05,2.74,18.4,M,47.0,M,,*5E

$GPRMC,093053.000,A,5212.2526,N,00007.0621,E,0.06,310.22,191118,,,A*62

$GPVTG,310.22,T,,M,0.06,N,0.10,K,A*38

$GPGSV,4,2,13,11,46,151,29,14,32,052,,19,25,315,27,23,24,184,31*77

$GPGSV,4,3,13,32,14,040,,31,12,085,,28,09,249,20,06,02,295,*74

$GPRMC,093055.000,A,5212.2527,N,00007.0620,E,1.13,66.31,191118,,,A*51

$GPVTG,66.31,T,,M,1.13,N,2.09,K,A*07

$GPVTG,58.89,T,,M,1.63,N,3.01,K,A*07

$GPGGA,093057.000,5212.2530,N,00007.0629,E,1,05,2.74,18.5,M,47.0,M,,*55

$GPRMC,093058.000,A,5212.2530,N,00007.0631,E,0.67,58.81,191118,,,A*5E

$GPVTG,58.81,T,,M,0.67,N,1.25,K,A*0E

$GPGSV,4,2,13,11,46,151,29,14,32,052,,19,25,315,27,23,24,184,29*7E

$GPGSV,4,3,13,32,14,040,,31,12,085,,28,09,249,20,06,03,296,*76

$GPRMC,093100.000,A,5212.2529,N,00007.0633,E,0.37,188.22,191118,,,A*68

$GPVTG,188.22,T,,M,0.37,N,0.69,K,A*37

$GPVTG,99.59,T,,M,0.51,N,0.94,K,A*08

$GPGGA,093102.000,5212.2532,N,00007.0641,E,1,05,2.74,18.5,M,47.0,M,,*58

$GPRMC,093103.000,A,5212.2533,N,00007.0641,E,0.11,263.50,191118,,,A*62

$GPVTG,263.50,T,,M,0.11,N,0.20,K,A*3D

$GPGSV,4,2,13,11,45,151,26,14,32,052,,19,25,315,27,23,24,184,29*72

$GPGSV,4,3,13,32,14,040,,31,12,085,,28,09,249,22,06,03,296,*74

$GPRMC,093105.000,A,5212.2535,N,00007.0649,E,0.39,36.22,191118,,,A*57

$GPVTG,36.22,T,,M,0.39,N,0.71,K,A*04

$GPVTG,96.22,T,,M,0.21,N,0.39,K,A*0B

$GPGGA,093107.000,5212.2535,N,00007.0649,E,1,05,2.74,18.5,M,47.0,M,,*52

$GPRMC,093108.000,A,5212.2534,N,00007.0647,E,0.91,247.24,191118,,,A*65

$GPVTG,247.24,T,,M,0.91,N,1.69,K,A*3C

$GPGSV,4,2,13,11,45,151,27,14,32,052,,19,25,315,27,23,24,184,29*73

$GPGSV,4,3,13,32,14,040,,31,12,085,,28,09,249,22,06,03,296,*74

$GPRMC,093110.000,A,5212.2537,N,00007.0652,E,0.39,326.31,191118,,,A*6B

$GPVTG,326.31,T,,M,0.39,N,0.73,K,A*36

$GPVTG,29.26,T,,M,0.52,N,0.97,K,A*0B

$GPGGA,093112.000,5212.2540,N,00007.0658,E,1,05,2.74,18.5,M,47.0,M,,*54

$GPRMC,093113.000,A,5212.2540,N,00007.0660,E,0.25,99.62,191118,,,A*55

$GPVTG,99.62,T,,M,0.25,N,0.47,K,A*0D

$GPGSV,4,2,13,11,45,151,26,14,32,052,,19,25,315,27,23,24,184,27*7C

$GPGSV,4,3,13,32,14,040,,31,12,085,,28,09,249,21,06,03,296,*77

$GPRMC,093115.000,A,5212.2539,N,00007.0661,E,0.11,127.40,191118,,,A*6F

$GPVTG,127.40,T,,M,0.11,N,0.20,K,A*3F

$GPVTG,114.13,T,,M,0.23,N,0.42,K,A*3C

$GPGGA,093117.000,5212.2539,N,00007.0663,E,1,05,2.74,18.5,M,47.0,M,,*57

$GPRMC,093118.000,A,5212.2539,N,00007.0665,E,0.19,46.21,191118,,,A*5F

$GPVTG,46.21,T,,M,0.19,N,0.36,K,A*01

$GPGSV,4,2,13,11,45,151,25,14,32,052,,19,25,315,32,23,24,184,23*7F

$GPGSV,4,3,13,32,14,040,,31,12,085,,28,09,249,17,06,03,296,*72

$GPRMC,093120.000,A,5212.2539,N,00007.0666,E,0.11,12.87,191118,,,A*52

$GPVTG,12.87,T,,M,0.11,N,0.21,K,A*02

$GPVTG,47.39,T,,M,0.36,N,0.66,K,A*01

$GPGGA,093122.000,5212.2540,N,00007.0668,E,1,05,2.74,18.5,M,47.0,M,,*54

$GPRMC,093123.000,A,5212.2538,N,00007.0666,E,0.34,57.70,191118,,,A*5E

$GPVTG,57.70,T,,M,0.34,N,0.62,K,A*0B

$GPGSV,4,2,13,11,45,151,27,14,32,052,,19,25,315,31,23,24,184,24*79

$GPGSV,4,3,13,32,14,039,,31,12,085,,28,09,249,18,06,03,296,*73

$GPRMC,093125.000,A,5212.2536,N,00007.0668,E,0.17,91.92,191118,,,A*5F

$GPVTG,91.92,T,,M,0.17,N,0.32,K,A*09

$GPVTG,230.05,T,,M,0.23,N,0.42,K,A*3E

$GPGGA,093127.000,5212.2534,N,00007.0669,E,1,05,2.74,18.9,M,47.0,M,,*5F

$GPRMC,093128.000,A,5212.2534,N,00007.0668,E,0.47,264.60,191118,,,A*60

$GPVTG,264.60,T,,M,0.47,N,0.88,K,A*38

$GPGSV,4,2,13,11,45,151,25,14,32,052,,19,25,315,30,23,24,184,26*78

$GPGSV,4,3,13,32,14,039,,31,12,085,,28,09,249,19,06,03,296,*72

$GPRMC,093130.000,A,5212.2534,N,00007.0666,E,0.60,233.30,191118,,,A*65

$GPVTG,233.30,T,,M,0.60,N,1.11,K,A*3B

$GPVTG,240.32,T,,M,0.66,N,1.22,K,A*3B

$GPGGA,093132.000,5212.2531,N,00007.0663,E,1,05,2.74,19.1,M,47.0,M,,*5D

$GPRMC,093133.000,A,5212.2532,N,00007.0669,E,0.05,299.56,191118,,,A*6C

$GPVTG,299.56,T,,M,0.05,N,0.10,K,A*38

$GPGSV,4,2,13,11,45,151,27,14,32,052,,19,25,315,28,23,24,184,27*72

$GPGSV,4,3,13,32,14,039,,31,12,085,,28,09,249,21,06,03,296,*79

$GPRMC,093135.000,A,5212.2534,N,00007.0677,E,0.32,38.86,191118,,,A*53

$GPVTG,38.86,T,,M,0.32,N,0.59,K,A*05

$GPVTG,356.76,T,,M,0.49,N,0.90,K,A*38

$GPGGA,093137.000,5212.2536,N,00007.0679,E,1,05,2.88,19.7,M,47.0,M,,*51

$GPRMC,093138.000,A,5212.2538,N,00007.0679,E,0.31,241.17,191118,,,A*6B

$GPVTG,241.17,T,,M,0.31,N,0.58,K,A*33

$GPGSV,4,2,14,11,45,151,27,14,32,052,,19,25,315,28,23,24,184,30*73

$GPGSV,4,3,14,32,14,039,,31,12,085,,28,09,249,22,06,03,296,*7D

$GPRMC,093140.000,A,5212.2537,N,00007.0678,E,0.27,341.31,191118,,,A*68

$GPVTG,341.31,T,,M,0.27,N,0.50,K,A*39

$GPVTG,234.57,T,,M,0.34,N,0.63,K,A*38

$GPGGA,093142.000,5212.2537,N,00007.0676,E,1,05,2.74,19.8,M,47.0,M,,*51

$GPRMC,093143.000,A,5212.2536,N,00007.0676,E,0.25,296.69,191118,,,A*60

$GPVTG,296.69,T,,M,0.25,N,0.47,K,A*3B

$GPGSV,4,2,14,11,45,151,26,14,31,052,,19,25,315,28,23,24,184,30*71

$GPGSV,4,3,14,32,14,039,,31,12,085,,28,09,249,21,06,03,296,*7E

$GPRMC,093145.000,A,5212.2536,N,00007.0674,E,0.90,60.30,191118,,,A*5D

$GPVTG,60.30,T,,M,0.90,N,1.67,K,A*01

$GPVTG,280.10,T,,M,0.03,N,0.05,K,A*30

$GPGGA,093147.000,5212.2536,N,00007.0671,E,1,05,2.74,19.9,M,47.0,M,,*53

$GPRMC,093148.000,A,5212.2537,N,00007.0670,E,0.55,36.79,191118,,,A*52

$GPVTG,36.79,T,,M,0.55,N,1.02,K,A*05

$GPGSV,4,2,14,11,45,151,27,14,31,052,,19,26,315,28,23,24,184,30*73

$GPGSV,4,3,14,32,14,039,,31,12,085,,28,09,249,20,06,03,296,*7F

$GPRMC,093150.000,A,5212.2541,N,00007.0677,E,1.28,39.35,191118,,,A*51

$GPVTG,39.35,T,,M,1.28,N,2.37,K,A*0C

$GPVTG,13.58,T,,M,0.57,N,1.05,K,A*04

$GPGGA,093152.000,5212.2540,N,00007.0673,E,1,05,2.88,19.8,M,47.0,M,,*56

$GPRMC,093153.000,A,5212.2543,N,00007.0678,E,0.43,19.25,191118,,,A*50

$GPVTG,19.25,T,,M,0.43,N,0.79,K,A*0B

$GPGSV,4,2,14,11,45,151,27,14,31,052,,19,26,315,29,23,25,184,31*72

$GPGSV,4,3,14,32,14,039,,31,12,085,,28,09,249,21,06,03,296,*7E

$GPRMC,093155.000,A,5212.2545,N,00007.0683,E,0.32,23.97,191118,,,A*52

$GPVTG,23.97,T,,M,0.32,N,0.59,K,A*0F

$GPVTG,271.71,T,,M,0.50,N,0.92,K,A*31

$GPGGA,093157.000,5212.2546,N,00007.0684,E,1,05,2.74,19.4,M,47.0,M,,*52

$GPRMC,093158.000,A,5212.2547,N,00007.0687,E,0.26,51.90,191118,,,A*5E

$GPVTG,51.90,T,,M,0.26,N,0.48,K,A*08

$GPGSV,4,2,14,11,45,151,27,14,31,052,,19,26,315,29,23,25,184,31*72

$GPGSV,4,3,14,32,14,039,,31,12,085,,28,08,249,19,06,03,296,*74

$GPRMC,093200.000,A,5212.2547,N,00007.0685,E,0.33,281.82,191118,,,A*6A

$GPVTG,281.82,T,,M,0.33,N,0.60,K,A*3A

$GPVTG,336.94,T,,M,0.20,N,0.37,K,A*30

$GPGGA,093202.000,5212.2548,N,00007.0683,E,1,05,2.74,19.5,M,47.0,M,,*59

$GPRMC,093203.000,A,5212.2548,N,00007.0685,E,0.35,53.95,191118,,,A*5B

$GPVTG,53.95,T,,M,0.35,N,0.65,K,A*02

$GPGSV,4,2,14,11,45,151,26,14,31,052,,19,26,315,28,23,25,184,31*72

$GPGSV,4,3,14,32,14,039,,31,12,085,,28,08,249,18,06,03,296,*75

$GPRMC,093205.000,A,5212.2548,N,00007.0686,E,0.21,322.33,191118,,,A*62

$GPVTG,322.33,T,,M,0.21,N,0.38,K,A*36

$GPVTG,33.98,T,,M,0.45,N,0.84,K,A*01

$GPGGA,093207.000,5212.2550,N,00007.0687,E,1,05,2.74,19.6,M,47.0,M,,*52

$GPRMC,093208.000,A,5212.2550,N,00007.0688,E,0.10,35.52,191118,,,A*58

$GPVTG,35.52,T,,M,0.10,N,0.18,K,A*04

$GPGSV,4,2,14,11,45,151,27,14,31,052,,19,26,315,29,23,25,184,30*73

$GPGSV,4,3,14,32,14,039,,31,12,085,,28,08,249,17,06,03,296,*7A

$GPRMC,093210.000,A,5212.2551,N,00007.0687,E,0.45,292.13,191118,,,A*65

$GPVTG,292.13,T,,M,0.45,N,0.83,K,A*3C

$GPVTG,250.86,T,,M,0.88,N,1.63,K,A*30

$GPGGA,093212.000,5212.2549,N,00007.0679,E,1,05,2.74,19.8,M,47.0,M,,*51

$GPRMC,093213.000,A,5212.2547,N,00007.0678,E,0.23,135.71,191118,,,A*6B

$GPVTG,135.71,T,,M,0.23,N,0.43,K,A*3A

$GPGSV,4,2,15,11,45,151,28,14,31,052,,19,26,315,30,23,25,184,30*75

$GPGSV,4,3,15,32,14,039,,31,12,085,,28,08,249,17,06,03,296,*7B

$GPRMC,093215.000,A,5212.2542,N,00007.0667,E,0.60,253.43,191118,,,A*63

$GPVTG,253.43,T,,M,0.60,N,1.12,K,A*3A

$GPVTG,304.19,T,,M,0.07,N,0.12,K,A*36

$GPGGA,093217.000,5212.2541,N,00007.0663,E,1,05,2.74,20.5,M,47.0,M,,*50

$GPRMC,093218.000,A,5212.2541,N,00007.0664,E,0.25,46.15,191118,,,A*5A

$GPVTG,46.15,T,,M,0.25,N,0.47,K,A*0F

$GPGSV,4,2,15,11,45,151,28,14,31,052,,19,26,315,31,23,25,184,29*7C

$GPGSV,4,3,15,32,14,039,,31,12,085,,28,08,249,16,06,03,296,*7A

$GPRMC,093220.000,A,5212.2542,N,00007.0670,E,0.56,346.34,191118,,,A*63

$GPVTG,346.34,T,,M,0.56,N,1.04,K,A*3D

$GPVTG,233.40,T,,M,0.27,N,0.50,K,A*3B

$GPGGA,093222.000,5212.2543,N,00007.0668,E,1,05,2.74,20.8,M,47.0,M,,*52

$GPRMC,093223.000,A,5212.2543,N,00007.0667,E,0.33,153.68,191118,,,A*6B

$GPVTG,153.68,T,,M,0.33,N,0.61,K,A*33

$GPGSV,4,2,15,11,45,151,28,14,31,052,,33,28,199,,19,26,315,31*77

$GPGSV,4,3,15,23,25,184,29,32,14,039,,31,12,085,,28,08,249,16*72

$GPRMC,093225.000,A,5212.2539,N,00007.0664,E,0.49,220.10,191118,,,A*66

$GPVTG,220.10,T,,M,0.49,N,0.92,K,A*3A

$GPVTG,274.46,T,,M,0.18,N,0.33,K,A*37

$GPGGA,093227.000,5212.2538,N,00007.0663,E,1,06,1.91,21.2,M,47.0,M,,*50

$GPRMC,093228.000,A,5212.2538,N,00007.0661,E,0.71,281.21,191118,,,A*6D

$GPVTG,281.21,T,,M,0.71,N,1.32,K,A*33

$GPGSV,4,2,15,11,45,151,28,14,31,052,,33,28,199,,19,26,315,31*77

$GPGSV,4,3,15,23,25,184,28,32,14,039,,31,12,085,,28,08,249,16*73

$GPRMC,093230.000,A,5212.2535,N,00007.0655,E,0.12,246.57,191118,,,A*61

$GPVTG,246.57,T,,M,0.12,N,0.22,K,A*3C

$GPVTG,140.49,T,,M,0.06,N,0.12,K,A*30

$GPGGA,093232.000,5212.2535,N,00007.0658,E,1,06,1.91,22.4,M,47.0,M,,*54

$GPRMC,093233.000,A,5212.2534,N,00007.0655,E,0.18,323.78,191118,,,A*66

$GPVTG,323.78,T,,M,0.18,N,0.34,K,A*3E

$GPGSV,4,2,15,11,45,151,28,14,31,052,,37,27,153,,19,26,315,31*7A

$GPGSV,4,3,15,23,25,184,28,32,14,039,,31,12,084,,28,08,248,16*73

$GPRMC,093235.000,A,5212.2532,N,00007.0655,E,0.48,99.43,191118,,,A*59

$GPVTG,99.43,T,,M,0.48,N,0.89,K,A*07

$GPVTG,280.12,T,,M,0.16,N,0.30,K,A*30

$GPGGA,093237.000,5212.2530,N,00007.0651,E,1,06,1.91,22.8,M,47.0,M,,*51

$GPRMC,093238.000,A,5212.2530,N,00007.0653,E,0.44,322.11,191118,,,A*68

$GPVTG,322.11,T,,M,0.44,N,0.81,K,A*37

$GPGSV,4,2,15,11,45,151,28,14,31,052,,37,27,153,,19,26,315,31*7A

$GPGSV,4,3,15,23,25,184,28,32,14,039,,31,12,084,,28,08,248,17*72

$GPRMC,093240.000,A,5212.2532,N,00007.0652,E,0.31,45.04,191118,,,A*50

$GPVTG,45.04,T,,M,0.31,N,0.57,K,A*08

$GPVTG,85.06,T,,M,0.53,N,0.98,K,A*01

$GPGGA,093242.000,5212.2532,N,00007.0655,E,1,06,1.91,22.8,M,47.0,M,,*55

$GPRMC,093243.000,A,5212.2532,N,00007.0655,E,0.31,65.35,191118,,,A*54

$GPVTG,65.35,T,,M,0.31,N,0.57,K,A*08

$GPGSV,4,2,15,11,45,151,27,14,31,052,,19,26,315,30,23,25,184,26*7D

$GPGSV,4,3,15,39,25,149,,32,14,039,,31,12,084,,28,08,248,17*72

$GPRMC,093245.000,A,5212.2531,N,00007.0655,E,0.32,314.04,191118,,,A*65

$GPVTG,314.04,T,,M,0.32,N,0.60,K,A*38

$GPVTG,7.45,T,,M,0.36,N,0.67,K,A*3F

$GPGGA,093247.000,5212.2532,N,00007.0655,E,1,06,2.17,23.0,M,47.0,M,,*54

$GPRMC,093248.000,A,5212.2532,N,00007.0655,E,0.63,345.85,191118,,,A*62

$GPVTG,345.85,T,,M,0.63,N,1.16,K,A*31

$GPGSV,4,2,15,11,44,151,28,14,31,052,,19,26,315,31,23,25,184,27*73

$GPGSV,4,3,15,32,14,039,,31,12,084,,28,08,248,17,40,07,111,*71

$GPRMC,093250.000,A,5212.2532,N,00007.0654,E,0.41,17.09,191118,,,A*5A

$GPVTG,17.09,T,,M,0.41,N,0.76,K,A*06

$GPVTG,19.01,T,,M,0.07,N,0.13,K,A*01

$GPGGA,093252.000,5212.2530,N,00007.0651,E,1,06,1.91,23.0,M,47.0,M,,*5B

$GPRMC,093253.000,A,5212.2530,N,00007.0650,E,0.34,185.47,191118,,,A*6D

$GPVTG,185.47,T,,M,0.34,N,0.62,K,A*31

$GPGSV,4,2,15,11,44,151,28,14,31,051,,19,26,315,31,23,25,184,27*70

$GPGSV,4,3,15,32,14,039,,31,12,084,,28,08,248,16,40,07,111,*70

$GPRMC,093255.000,A,5212.2528,N,00007.0648,E,0.40,262.89,191118,,,A*60

$GPVTG,262.89,T,,M,0.40,N,0.74,K,A*3D

$GPVTG,37.83,T,,M,0.78,N,1.44,K,A*0C

$GPGGA,093257.000,5212.2525,N,00007.0645,E,1,06,1.91,23.2,M,47.0,M,,*5D

$GPRMC,093258.000,A,5212.2523,N,00007.0644,E,0.45,27.68,191118,,,A*53

$GPVTG,27.68,T,,M,0.45,N,0.83,K,A*0C

$GPGSV,4,2,15,11,44,151,27,14,31,051,,19,26,314,31,23,25,184,29*70

$GPGSV,4,3,15,32,14,039,,31,12,084,,28,08,248,16,44,06,109,*7C

$GPRMC,093300.000,A,5212.2520,N,00007.0643,E,0.04,178.12,191118,,,A*68

$GPVTG,178.12,T,,M,0.04,N,0.07,K,A*33

$GPVTG,176.44,T,,M,0.29,N,0.54,K,A*37

$GPGGA,093302.000,5212.2519,N,00007.0643,E,1,06,1.91,23.1,M,47.0,M,,*56

$GPRMC,093303.000,A,5212.2519,N,00007.0645,E,0.49,65.16,191118,,,A*57

$GPVTG,65.16,T,,M,0.49,N,0.91,K,A*0C

$GPGSV,4,2,15,11,44,151,27,14,31,051,,19,26,314,30,23,25,184,29*71

$GPGSV,4,3,15,32,14,039,,31,12,084,,28,08,248,16,44,06,109,*7C

$GPRMC,093305.000,A,5212.2521,N,00007.0649,E,0.29,291.43,191118,,,A*69

$GPVTG,291.43,T,,M,0.29,N,0.54,K,A*3A

$GPVTG,87.50,T,,M,0.09,N,0.16,K,A*09

$GPGGA,093307.000,5212.2521,N,00007.0648,E,1,06,1.91,23.2,M,47.0,M,,*50

$GPRMC,093308.000,A,5212.2520,N,00007.0648,E,0.37,204.87,191118,,,A*6F

$GPVTG,204.87,T,,M,0.37,N,0.68,K,A*3E

$GPGSV,4,2,15,11,44,151,28,14,31,051,,33,28,199,,19,26,314,31*74

$GPGSV,4,3,15,23,25,184,28,32,14,039,,31,12,084,,28,08,248,16*73

$GPRMC,093310.000,A,5212.2519,N,00007.0646,E,0.31,299.96,191118,,,A*60

$GPVTG,299.96,T,,M,0.31,N,0.57,K,A*30

$GPVTG,203.72,T,,M,0.69,N,1.28,K,A*3D

$GPGGA,093312.000,5212.2517,N,00007.0642,E,1,06,1.91,23.1,M,47.0,M,,*58

$GPRMC,093313.000,A,5212.2517,N,00007.0640,E,0.11,241.75,191118,,,A*61

$GPVTG,241.75,T,,M,0.11,N,0.21,K,A*3B

$GPGSV,4,2,15,11,44,151,28,14,31,051,,33,28,199,,19,26,314,31*74

$GPGSV,4,3,15,23,25,184,29,32,14,039,,31,12,084,,28,08,248,16*72

$GPRMC,093315.000,A,5212.2514,N,00007.0637,E,0.41,184.11,191118,,,A*69

$GPVTG,184.11,T,,M,0.41,N,0.77,K,A*35

$GPVTG,130.10,T,,M,0.21,N,0.38,K,A*36

$GPGGA,093317.000,5212.2512,N,00007.0637,E,1,06,1.91,22.8,M,47.0,M,,*52

$GPRMC,093318.000,A,5212.2511,N,00007.0635,E,0.45,88.18,191118,,,A*53

$GPVTG,88.18,T,,M,0.45,N,0.83,K,A*0E

$GPGSV,4,2,15,11,44,151,27,14,31,051,,37,27,153,,19,26,314,30*77

$GPGSV,4,3,15,23,25,184,27,32,14,039,,31,12,084,,28,08,248,16*7C

$GPRMC,093320.000,A,5212.2511,N,00007.0634,E,0.16,166.21,191118,,,A*64

$GPVTG,166.21,T,,M,0.16,N,0.30,K,A*3B

$GPVTG,12.77,T,,M,0.17,N,0.31,K,A*0A

$GPGGA,093322.000,5212.2511,N,00007.0630,E,1,06,2.17,22.7,M,47.0,M,,*52

$GPRMC,093323.000,A,5212.2511,N,00007.0629,E,0.21,43.30,191118,,,A*59

$GPVTG,43.30,T,,M,0.21,N,0.39,K,A*00

$GPGSV,4,2,15,11,44,151,28,14,31,051,,37,27,153,,19,26,314,30*78

$GPGSV,4,3,15,23,25,184,31,32,14,039,,31,12,084,,28,08,248,16*7B

$GPRMC,093325.000,A,5212.2512,N,00007.0632,E,1.07,67.19,191118,,,A*5E

$GPVTG,67.19,T,,M,1.07,N,1.98,K,A*02

$GPVTG,54.38,T,,M,0.33,N,0.61,K,A*00

$GPGGA,093327.000,5212.2517,N,00007.0641,E,1,06,1.91,22.6,M,47.0,M,,*5B

$GPRMC,093328.000,A,5212.2518,N,00007.0646,E,0.70,74.90,191118,,,A*58

$GPVTG,74.90,T,,M,0.70,N,1.30,K,A*02

$GPGSV,4,2,15,11,44,151,26,14,31,051,,19,26,314,33,23,25,184,30*7B

$GPGSV,4,3,15,39,25,149,,32,14,039,,31,12,084,,28,08,248,16*73

$GPRMC,093330.000,A,5212.2517,N,00007.0643,E,0.52,245.48,191118,,,A*6E

$GPVTG,245.48,T,,M,0.52,N,0.96,K,A*3A

$GPVTG,256.27,T,,M,0.33,N,0.62,K,A*3D

$GPGGA,093332.000,5212.2517,N,00007.0641,E,1,06,1.91,22.0,M,47.0,M,,*59

$GPRMC,093333.000,A,5212.2516,N,00007.0639,E,0.85,223.98,191118,,,A*66

$GPVTG,223.98,T,,M,0.85,N,1.58,K,A*3E

$GPGSV,4,2,15,11,44,151,25,14,31,051,,19,26,314,32,23,25,184,30*79

$GPGSV,4,3,15,39,25,149,,32,14,039,,31,12,084,,28,08,248,16*73

$GPRMC,093335.000,A,5212.2513,N,00007.0632,E,0.57,225.84,191118,,,A*6A

$GPVTG,225.84,T,,M,0.57,N,1.06,K,A*31

$GPVTG,115.76,T,,M,0.28,N,0.52,K,A*34

$GPGGA,093337.000,5212.2513,N,00007.0637,E,1,06,1.91,21.4,M,47.0,M,,*5E

$GPRMC,093338.000,A,5212.2512,N,00007.0639,E,0.19,225.56,191118,,,A*68

$GPVTG,225.56,T,,M,0.19,N,0.35,K,A*35

$GPGSV,4,2,15,11,44,151,25,14,31,051,,19,26,314,28,23,25,184,24*77

$GPGSV,4,3,15,32,14,039,,31,12,084,,28,08,248,16,40,07,111,*70

$GPRMC,093340.000,A,5212.2512,N,00007.0639,E,0.44,79.59,191118,,,A*5B

$GPVTG,79.59,T,,M,0.44,N,0.82,K,A*05

$GPVTG,87.93,T,,M,0.10,N,0.19,K,A*01

$GPGGA,093342.000,5212.2512,N,00007.0642,E,1,06,1.91,21.4,M,47.0,M,,*5F

$GPRMC,093343.000,A,5212.2512,N,00007.0641,E,0.42,87.20,191118,,,A*5E

$GPVTG,87.20,T,,M,0.42,N,0.77,K,A*06

$GPGSV,4,2,15,11,44,151,23,14,31,051,,19,26,314,31,23,25,184,26*7B

$GPGSV,4,3,15,31,13,084,,32,13,039,,28,08,248,16,40,07,111,*76

$GPRMC,093345.000,A,5212.2511,N,00007.0642,E,1.10,220.02,191118,,,A*61

$GPVTG,220.02,T,,M,1.10,N,2.04,K,A*39

$GPVTG,236.32,T,,M,0.79,N,1.46,K,A*36

$GPGGA,093347.000,5212.2510,N,00007.0636,E,1,06,1.91,21.1,M,47.0,M,,*5E

$GPRMC,093348.000,A,5212.2509,N,00007.0632,E,0.48,258.60,191118,,,A*65

$GPVTG,258.60,T,,M,0.48,N,0.89,K,A*39

$GPGSV,4,2,15,11,44,151,24,14,31,051,,19,26,314,33,23,25,184,27*7F

$GPGSV,4,3,15,31,13,084,,32,13,039,,28,08,248,15,44,06,109,*79

$GPRMC,093350.000,A,5212.2511,N,00007.0633,E,0.28,308.66,191118,,,A*60

$GPVTG,308.66,T,,M,0.28,N,0.53,K,A*3A

$GPVTG,41.23,T,,M,0.09,N,0.17,K,A*06

$GPGGA,093352.000,5212.2511,N,00007.0632,E,1,06,1.91,20.7,M,47.0,M,,*58

$GPRMC,093353.000,A,5212.2512,N,00007.0634,E,0.41,47.10,191118,,,A*51

$GPVTG,47.10,T,,M,0.41,N,0.77,K,A*0A

$GPGSV,4,2,15,11,44,151,24,14,31,051,,19,26,314,33,23,25,184,26*7E

$GPGSV,4,3,15,31,13,084,,32,13,039,,28,08,248,16,44,06,109,*7A

$GPRMC,093355.000,A,5212.2512,N,00007.0637,E,0.58,99.13,191118,,,A*5C

$GPVTG,99.13,T,,M,0.58,N,1.07,K,A*04

$GPVTG,109.49,T,,M,0.36,N,0.67,K,A*3C

$GPGGA,093357.000,5212.2511,N,00007.0641,E,1,06,1.91,20.7,M,47.0,M,,*59

$GPRMC,093358.000,A,5212.2512,N,00007.0642,E,0.68,49.97,191118,,,A*51

$GPVTG,49.97,T,,M,0.68,N,1.25,K,A*06

$GPGSV,4,2,15,11,44,151,24,14,31,051,,19,26,314,33,23,25,184,26*7E

$GPGSV,4,3,15,31,13,084,,32,13,039,,28,08,248,16,06,04,296,*7B

$GPRMC,093400.000,A,5212.2511,N,00007.0639,E,0.11,238.77,191118,,,A*60

$GPVTG,238.77,T,,M,0.11,N,0.20,K,A*36

$GPVTG,244.29,T,,M,0.14,N,0.26,K,A*35

$GPGGA,093402.000,5212.2507,N,00007.0630,E,1,06,1.91,20.2,M,47.0,M,,*5A

$GPRMC,093403.000,A,5212.2506,N,00007.0628,E,0.10,101.66,191118,,,A*6D

$GPVTG,101.66,T,,M,0.10,N,0.18,K,A*35

$GPGSV,4,2,15,11,44,151,24,14,31,051,,19,26,314,33,23,25,184,25*7D

$GPGSV,4,3,15,31,13,084,,32,13,039,,28,08,248,16,06,04,296,*7B

$GPRMC,093405.000,A,5212.2503,N,00007.0622,E,0.29,235.85,191118,,,A*67

$GPVTG,235.85,T,,M,0.29,N,0.54,K,A*3E

$GPVTG,317.89,T,,M,0.06,N,0.11,K,A*3F

$GPGGA,093407.000,5212.2503,N,00007.0620,E,1,06,1.91,19.7,M,47.0,M,,*55

$GPRMC,093408.000,A,5212.2504,N,00007.0621,E,0.43,239.34,191118,,,A*64

$GPVTG,239.34,T,,M,0.43,N,0.79,K,A*3B

$GPGSV,4,2,15,11,44,151,24,14,31,051,,19,26,314,33,23,25,184,25*7D

$GPGSV,4,3,15,31,13,084,,32,13,039,,28,08,248,16,06,04,296,*7B

$GPRMC,093410.000,A,5212.2503,N,00007.0620,E,0.42,278.65,191118,,,A*6B

$GPVTG,278.65,T,,M,0.42,N,0.77,K,A*35

$GPVTG,148.41,T,,M,0.44,N,0.81,K,A*3C

$GPGGA,093412.000,5212.2502,N,00007.0619,E,1,06,1.91,19.7,M,47.0,M,,*5A

$GPRMC,093413.000,A,5212.2501,N,00007.0618,E,0.22,86.50,191118,,,A*52

$GPVTG,86.50,T,,M,0.22,N,0.40,K,A*02

$GPGSV,4,2,15,11,44,151,21,14,31,051,,23,26,184,24,19,26,314,32*7B

$GPGSV,4,3,15,31,13,084,,32,13,039,,28,08,248,16,06,04,296,*7B

$GPRMC,093415.000,A,5212.2502,N,00007.0618,E,0.53,239.64,191118,,,A*60

$GPVTG,239.64,T,,M,0.53,N,0.99,K,A*31

$GPVTG,184.27,T,,M,0.42,N,0.78,K,A*3C

$GPGGA,093417.000,5212.2500,N,00007.0616,E,1,06,1.91,19.7,M,47.0,M,,*52

$GPRMC,093418.000,A,5212.2500,N,00007.0615,E,0.94,242.38,191118,,,A*6C

$GPVTG,242.38,T,,M,0.94,N,1.74,K,A*3D

$GPGSV,4,2,15,11,44,151,21,14,31,051,,23,26,184,24,19,26,314,32*7B

$GPGSV,4,3,15,31,13,084,,32,13,039,,28,08,248,18,06,04,296,*75

$GPRMC,093420.000,A,5212.2502,N,00007.0615,E,0.41,180.65,191118,,,A*68

$GPVTG,180.65,T,,M,0.41,N,0.76,K,A*33

$GPVTG,105.07,T,,M,0.33,N,0.62,K,A*3A

$GPGGA,093422.000,5212.2503,N,00007.0618,E,1,06,1.91,18.4,M,47.0,M,,*5B

$GPRMC,093423.000,A,5212.2503,N,00007.0619,E,0.25,273.82,191118,,,A*62

$GPVTG,273.82,T,,M,0.25,N,0.46,K,A*34

$GPGSV,4,2,15,11,44,151,22,14,31,051,,23,26,184,24,19,26,314,32*78

$GPGSV,4,3,15,31,13,084,,32,13,039,,28,08,248,19,06,04,296,*74

$GPRMC,093425.000,A,5212.2502,N,00007.0619,E,0.62,110.10,191118,,,A*6B

$GPVTG,110.10,T,,M,0.62,N,1.14,K,A*3C

$GPVTG,45.99,T,,M,0.51,N,0.95,K,A*04

$GPGGA,093427.000,5212.2502,N,00007.0619,E,1,06,1.91,17.8,M,47.0,M,,*5D

$GPRMC,093428.000,A,5212.2501,N,00007.0617,E,0.56,221.32,191118,,,A*6D

$GPVTG,221.32,T,,M,0.56,N,1.03,K,A*3C

$GPGSV,4,2,15,11,44,151,21,14,31,051,,23,26,184,26,19,26,314,32*79

$GPGSV,4,3,15,31,13,084,,32,13,039,,28,08,248,19,06,04,296,*74

$GPRMC,093430.000,A,5212.2503,N,00007.0616,E,0.33,95.46,191118,,,A*5A

$GPVTG,95.46,T,,M,0.33,N,0.61,K,A*04

$GPVTG,74.45,T,,M,0.25,N,0.47,K,A*0B

$GPGGA,093432.000,5212.2503,N,00007.0619,E,1,06,1.91,17.1,M,47.0,M,,*51

$GPRMC,093433.000,A,5212.2503,N,00007.0619,E,0.55,228.36,191118,,,A*65

$GPVTG,228.36,T,,M,0.55,N,1.03,K,A*32

$GPGSV,4,2,15,11,44,151,18,14,31,051,,23,26,184,27,19,26,314,32*72

$GPGSV,4,3,15,31,13,084,,32,13,039,,28,08,248,19,06,04,296,*74

$GPRMC,093435.000,A,5212.2501,N,00007.0614,E,0.82,207.34,191118,,,A*69

$GPVTG,207.34,T,,M,0.82,N,1.51,K,A*30

$GPVTG,210.47,T,,M,0.50,N,0.92,K,A*33

$GPGGA,093437.000,5212.2500,N,00007.0609,E,1,06,1.91,16.3,M,47.0,M,,*55

$GPRMC,093438.000,A,5212.2501,N,00007.0609,E,0.10,180.90,191118,,,A*61

$GPVTG,180.90,T,,M,0.10,N,0.18,K,A*35

$GPGSV,4,2,15,11,44,151,19,14,31,051,,23,26,184,26,19,26,314,32*72

$GPGSV,4,3,15,31,13,084,,32,13,039,,28,08,248,20,06,04,296,*7E

$GPRMC,093440.000,A,5212.2501,N,00007.0610,E,0.27,121.96,191118,,,A*6F

$GPVTG,121.96,T,,M,0.27,N,0.49,K,A*38

$GPVTG,304.58,T,,M,0.14,N,0.26,K,A*36

$GPGGA,093442.000,5212.2501,N,00007.0610,E,1,06,1.91,15.7,M,47.0,M,,*59

$GPRMC,093443.000,A,5212.2502,N,00007.0611,E,0.46,52.52,191118,,,A*54

$GPVTG,52.52,T,,M,0.46,N,0.86,K,A*01

$GPGSV,4,2,15,11,44,151,20,14,31,051,,19,27,314,33,23,26,184,23*7D

$GPGSV,4,3,15,31,13,084,,32,13,039,,28,08,248,18,06,04,296,*75

$GPRMC,093445.000,A,5212.2502,N,00007.0613,E,0.21,246.77,191118,,,A*61

$GPVTG,246.77,T,,M,0.21,N,0.39,K,A*34

$GPVTG,270.91,T,,M,0.64,N,1.19,K,A*3B

$GPGGA,093447.000,5212.2504,N,00007.0612,E,1,06,1.91,15.5,M,47.0,M,,*59

$GPRMC,093448.000,A,5212.2505,N,00007.0614,E,0.24,162.93,191118,,,A*66

$GPVTG,162.93,T,,M,0.24,N,0.44,K,A*34

$GPGSV,4,2,15,11,44,151,18,14,31,051,,19,27,314,33,23,26,184,28*7D

$GPGSV,4,3,15,31,13,084,,32,13,039,,28,08,248,17,06,04,296,*7A

$GPRMC,093450.000,A,5212.2507,N,00007.0617,E,0.07,70.10,191118,,,A*56

$GPVTG,70.10,T,,M,0.07,N,0.13,K,A*0E

$GPVTG,17.46,T,,M,0.29,N,0.53,K,A*04

$GPGGA,093452.000,5212.2508,N,00007.0618,E,1,06,1.91,15.5,M,47.0,M,,*5B

$GPRMC,093453.000,A,5212.2508,N,00007.0618,E,1.19,250.10,191118,,,A*6B

$GPVTG,250.10,T,,M,1.19,N,2.20,K,A*32

$GPGSV,4,2,15,11,44,151,18,14,31,051,,19,27,314,33,23,26,184,26*73

$GPGSV,4,3,15,31,13,083,,32,13,039,,28,07,248,18,06,04,296,*7D

$GPRMC,093455.000,A,5212.2510,N,00007.0615,E,0.30,314.77,191118,,,A*63

$GPVTG,314.77,T,,M,0.30,N,0.56,K,A*3B

$GPVTG,255.78,T,,M,0.55,N,1.02,K,A*33

$GPGGA,093457.000,5212.2512,N,00007.0613,E,1,06,1.91,15.5,M,47.0,M,,*5E

$GPRMC,093458.000,A,5212.2513,N,00007.0611,E,0.20,310.92,191118,,,A*67

$GPVTG,310.92,T,,M,0.20,N,0.38,K,A*3D

$GPGSV,4,2,15,11,44,151,16,14,31,051,,19,27,314,33,23,26,184,27*7C

$GPGSV,4,3,15,31,13,083,,32,13,039,,28,07,248,17,06,04,296,*72

$GPRMC,093500.000,A,5212.2514,N,00007.0612,E,0.55,83.80,191118,,,A*57

$GPVTG,83.80,T,,M,0.55,N,1.01,K,A*0E

$GPVTG,64.51,T,,M,0.67,N,1.25,K,A*0C

$GPGGA,093502.000,5212.2514,N,00007.0613,E,1,06,1.91,15.6,M,47.0,M,,*5A

$GPRMC,093503.000,A,5212.2515,N,00007.0615,E,0.19,56.09,191118,,,A*53

$GPVTG,56.09,T,,M,0.19,N,0.35,K,A*09

$GPGSV,4,2,15,11,44,151,18,14,31,051,,33,28,199,,19,27,314,32*75

$GPGSV,4,3,15,23,26,184,24,31,13,083,,32,13,039,,28,07,248,16*72

$GPRMC,093505.000,A,5212.2516,N,00007.0618,E,0.37,64.74,191118,,,A*5C

$GPVTG,64.74,T,,M,0.37,N,0.69,K,A*07

$GPVTG,59.90,T,,M,0.56,N,1.05,K,A*0F

$GPGGA,093507.000,5212.2518,N,00007.0622,E,1,06,1.91,15.5,M,47.0,M,,*52

$GPRMC,093508.000,A,5212.2518,N,00007.0623,E,0.49,43.99,191118,,,A*58

$GPVTG,43.99,T,,M,0.49,N,0.91,K,A*0F

$GPGSV,4,2,15,11,43,151,24,14,31,051,,19,27,314,32,37,27,153,*70

$GPGSV,4,3,15,23,26,184,23,31,13,083,,32,13,039,,28,07,248,18*7B

$GPRMC,093510.000,A,5212.2519,N,00007.0624,E,0.61,81.50,191118,,,A*56

$GPVTG,81.50,T,,M,0.61,N,1.14,K,A*02

$GPVTG,83.61,T,,M,0.54,N,1.00,K,A*01

$GPGGA,093512.000,5212.2521,N,00007.0635,E,1,06,1.91,15.4,M,47.0,M,,*5B

$GPRMC,093513.000,A,5212.2523,N,00007.0642,E,0.22,130.17,191118,,,A*63

$GPVTG,130.17,T,,M,0.22,N,0.41,K,A*3C

$GPGSV,4,2,15,11,43,151,21,14,30,051,,19,27,314,29,37,27,153,*7E

$GPGSV,4,3,15,23,26,184,23,31,13,083,,32,13,039,,28,07,248,18*7B

$GPRMC,093515.000,A,5212.2526,N,00007.0651,E,0.27,28.26,191118,,,A*5D

$GPVTG,28.26,T,,M,0.27,N,0.50,K,A*03

$GPVTG,236.22,T,,M,0.53,N,0.98,K,A*3D

$GPGGA,093517.000,5212.2526,N,00007.0649,E,1,06,1.91,15.4,M,47.0,M,,*52

$GPRMC,093518.000,A,5212.2526,N,00007.0648,E,0.21,183.14,191118,,,A*6F

$GPVTG,183.14,T,,M,0.21,N,0.40,K,A*35

$GPGSV,4,2,15,11,43,151,18,14,30,051,,19,27,314,33,23,26,184,21*72

$GPGSV,4,3,15,39,25,149,,31,13,083,,32,13,039,,28,07,248,17*7C

$GPRMC,093520.000,A,5212.2524,N,00007.0651,E,0.42,147.61,191118,,,A*61

$GPVTG,147.61,T,,M,0.42,N,0.77,K,A*3E

$GPVTG,126.03,T,,M,0.58,N,1.08,K,A*3F

$GPGGA,093522.000,5212.2521,N,00007.0656,E,1,06,1.91,15.1,M,47.0,M,,*58

$GPRMC,093523.000,A,5212.2519,N,00007.0656,E,0.12,23.88,191118,,,A*5A

$GPVTG,23.88,T,,M,0.12,N,0.22,K,A*0F

$GPGSV,4,2,15,11,43,151,23,14,30,051,,19,27,314,33,23,26,184,23*78

$GPGSV,4,3,15,39,25,149,,31,13,083,,32,13,039,,28,07,248,18*73

$GPRMC,093525.000,A,5212.2519,N,00007.0655,E,0.09,159.73,191118,,,A*6D

$GPVTG,159.73,T,,M,0.09,N,0.16,K,A*3A

$GPVTG,192.42,T,,M,0.11,N,0.20,K,A*33

$GPGGA,093527.000,5212.2514,N,00007.0652,E,1,06,1.91,14.6,M,47.0,M,,*59

$GPRMC,093528.000,A,5212.2514,N,00007.0654,E,0.04,201.87,191118,,,A*64

$GPVTG,201.87,T,,M,0.04,N,0.08,K,A*3D

$GPGSV,4,2,15,11,43,151,21,14,30,051,17,19,27,314,33,23,26,184,19*75

$GPGSV,4,3,15,31,13,083,,32,13,039,,28,07,248,18,40,07,111,*70

$GPRMC,093530.000,A,5212.2514,N,00007.0655,E,0.81,210.30,191118,,,A*6D

$GPVTG,210.30,T,,M,0.81,N,1.50,K,A*30

$GPVTG,190.19,T,,M,0.56,N,1.03,K,A*3C

$GPGGA,093532.000,5212.2511,N,00007.0656,E,1,06,1.91,14.2,M,47.0,M,,*58

$GPRMC,093533.000,A,5212.2510,N,00007.0657,E,0.12,268.21,191118,,,A*6D

$GPVTG,268.21,T,,M,0.12,N,0.23,K,A*30

$GPGSV,4,2,15,11,43,151,20,14,30,051,18,19,27,314,33,23,26,184,22*73

$GPGSV,4,3,15,31,13,083,,32,13,039,,28,07,248,15,40,07,111,*7D

$GPRMC,093535.000,A,5212.2507,N,00007.0654,E,0.41,232.71,191118,,,A*62

$GPVTG,232.71,T,,M,0.41,N,0.75,K,A*3F

$GPVTG,219.81,T,,M,0.26,N,0.48,K,A*36

$GPGGA,093537.000,5212.2506,N,00007.0652,E,1,06,1.91,14.2,M,47.0,M,,*5F

$GPRMC,093538.000,A,5212.2506,N,00007.0651,E,0.13,273.43,191118,,,A*68

$GPVTG,273.43,T,,M,0.13,N,0.23,K,A*3F

$GPGSV,4,2,15,11,43,151,18,14,30,051,18,19,27,314,34,23,26,184,24*79

$GPGSV,4,3,15,31,13,083,,32,13,039,,28,07,248,17,44,06,109,*73

$GPRMC,093540.000,A,5212.2507,N,00007.0652,E,0.16,190.41,191118,,,A*6C

$GPVTG,190.41,T,,M,0.16,N,0.29,K,A*3C

$GPVTG,59.85,T,,M,0.46,N,0.86,K,A*00

$GPGGA,093542.000,5212.2507,N,00007.0654,E,1,06,1.92,14.2,M,47.0,M,,*59

$GPRMC,093543.000,A,5212.2507,N,00007.0656,E,0.21,109.24,191118,,,A*6C

$GPVTG,109.24,T,,M,0.21,N,0.38,K,A*3B

$GPGSV,4,2,15,11,43,151,17,14,30,051,16,19,27,314,34,23,26,184,25*79

$GPGSV,4,3,15,31,13,083,,32,13,039,,28,07,248,16,44,06,109,*72

$GPRMC,093545.000,A,5212.2506,N,00007.0658,E,0.58,62.10,191118,,,A*50

$GPVTG,62.10,T,,M,0.58,N,1.07,K,A*03

$GPVTG,104.77,T,,M,0.31,N,0.57,K,A*38

$GPGGA,093547.000,5212.2507,N,00007.0661,E,1,06,1.91,14.2,M,47.0,M,,*59

$GPRMC,093548.000,A,5212.2507,N,00007.0663,E,0.61,67.63,191118,,,A*5F

$GPVTG,67.63,T,,M,0.61,N,1.14,K,A*0A

$GPGSV,4,2,15,11,43,151,15,14,30,051,14,19,27,314,34,23,26,184,25*79

$GPGSV,4,3,15,31,13,083,,32,13,039,,28,07,248,,06,04,296,*74

$GPRMC,093550.000,A,5212.2512,N,00007.0675,E,0.53,359.76,191118,,,A*6E

$GPVTG,359.76,T,,M,0.53,N,0.98,K,A*34

$GPVTG,72.75,T,,M,0.48,N,0.89,K,A*07

$GPGGA,093552.000,5212.2516,N,00007.0687,E,1,06,1.92,14.5,M,47.0,M,,*51

$GPRMC,093553.000,A,5212.2518,N,00007.0691,E,0.85,52.25,191118,,,A*58

$GPVTG,52.25,T,,M,0.85,N,1.57,K,A*03

$GPGSV,4,2,15,11,43,151,14,14,30,051,14,19,27,314,34,23,26,184,27*7A

$GPGSV,4,3,15,31,13,083,,32,13,039,,28,07,248,,06,04,296,*74

$GPRMC,093555.000,A,5212.2524,N,00007.0705,E,0.55,43.98,191118,,,A*56

$GPVTG,43.98,T,,M,0.55,N,1.02,K,A*08

$GPVTG,47.09,T,,M,0.89,N,1.66,K,A*07

$GPGGA,093557.000,5212.2532,N,00007.0722,E,1,06,1.92,14.8,M,47.0,M,,*51

$GPRMC,093558.000,A,5212.2534,N,00007.0728,E,0.91,67.08,191118,,,A*52

$GPVTG,67.08,T,,M,0.91,N,1.69,K,A*02

$GPGSV,4,2,15,11,43,151,14,14,30,051,14,19,27,314,34,23,26,184,27*7A

$GPGSV,4,3,15,31,13,083,,32,13,039,,28,07,248,16,06,04,296,*73

$GPRMC,093600.000,A,5212.2536,N,00007.0735,E,0.30,244.54,191118,,,A*63

$GPVTG,244.54,T,,M,0.30,N,0.55,K,A*3D

$GPVTG,234.66,T,,M,0.45,N,0.83,K,A*32

$GPGGA,093602.000,5212.2537,N,00007.0740,E,1,06,1.91,15.2,M,47.0,M,,*5B

$GPRMC,093603.000,A,5212.2536,N,00007.0740,E,0.12,211.59,191118,,,A*6F

$GPVTG,211.59,T,,M,0.12,N,0.22,K,A*30

$GPGSV,4,2,15,11,43,151,11,14,30,051,15,19,27,314,34,23,26,184,27*7E

$GPGSV,4,3,15,31,13,083,,32,13,039,,28,07,248,,06,04,296,*74

$GPRMC,093605.000,A,5212.2536,N,00007.0740,E,0.68,164.30,191118,,,A*6A

$GPVTG,164.30,T,,M,0.68,N,1.26,K,A*36

$GPVTG,79.96,T,,M,1.03,N,1.91,K,A*07

$GPGGA,093607.000,5212.2538,N,00007.0752,E,1,06,1.91,15.3,M,47.0,M,,*53

$GPRMC,093608.000,A,5212.2538,N,00007.0749,E,0.21,27.07,191118,,,A*5F

$GPVTG,27.07,T,,M,0.21,N,0.39,K,A*06

$GPGSV,4,2,15,11,43,151,12,14,30,051,15,19,27,314,34,23,26,184,27*7D

$GPGSV,4,3,15,31,13,083,,32,13,039,,28,07,248,,06,04,296,*74

$GPRMC,093610.000,A,5212.2543,N,00007.0755,E,0.25,354.82,191118,,,A*69

$GPVTG,354.82,T,,M,0.25,N,0.46,K,A*30

$GPVTG,28.37,T,,M,0.33,N,0.60,K,A*05

$GPGGA,093612.000,5212.2544,N,00007.0756,E,1,06,1.91,15.4,M,47.0,M,,*5F

$GPRMC,093613.000,A,5212.2544,N,00007.0758,E,0.43,142.16,191118,,,A*68

$GPVTG,142.16,T,,M,0.43,N,0.79,K,A*34

$GPGSV,4,2,15,11,43,151,14,14,30,051,16,19,27,314,34,23,26,184,28*77

$GPGSV,4,3,15,31,13,083,,32,13,039,,28,07,248,,06,04,296,*74

$GPRMC,093615.000,A,5212.2543,N,00007.0760,E,0.63,80.11,191118,,,A*58

$GPVTG,80.11,T,,M,0.63,N,1.16,K,A*06

$GPVTG,56.48,T,,M,0.37,N,0.68,K,A*08

$GPGGA,093617.000,5212.2543,N,00007.0758,E,1,06,1.91,15.5,M,47.0,M,,*52

$GPRMC,093618.000,A,5212.2544,N,00007.0759,E,0.24,78.70,191118,,,A*5B

$GPVTG,78.70,T,,M,0.24,N,0.45,K,A*02

$GPGSV,4,2,15,11,43,151,11,14,30,051,16,19,27,314,33,23,26,184,28*75

$GPGSV,4,3,15,31,13,083,,32,13,039,,28,07,248,,06,05,296,*75

$GPRMC,093620.000,A,5212.2548,N,00007.0759,E,1.01,56.79,191118,,,A*5F

$GPVTG,56.79,T,,M,1.01,N,1.87,K,A*0E

$GPVTG,47.93,T,,M,1.02,N,1.89,K,A*07

$GPGGA,093622.000,5212.2553,N,00007.0763,E,1,06,1.91,15.4,M,47.0,M,,*5C

$GPRMC,093623.000,A,5212.2555,N,00007.0768,E,0.80,51.34,191118,,,A*54

$GPVTG,51.34,T,,M,0.80,N,1.48,K,A*0B

$GPGSV,4,2,15,11,43,151,16,14,30,050,16,19,27,314,33,23,26,184,27*7C

$GPGSV,4,3,15,31,13,083,,32,13,039,,28,07,248,,06,05,296,*75

$GPRMC,093625.000,A,5212.2562,N,00007.0781,E,1.18,51.83,191118,,,A*5D

$GPVTG,51.83,T,,M,1.18,N,2.19,K,A*00

$GPVTG,102.74,T,,M,0.55,N,1.02,K,A*3E

$GPGGA,093627.000,5212.2564,N,00007.0781,E,1,06,1.91,15.3,M,47.0,M,,*56

$GPRMC,093628.000,A,5212.2564,N,00007.0778,E,0.35,293.75,191118,,,A*6B

$GPVTG,293.75,T,,M,0.35,N,0.66,K,A*31

$GPGSV,4,2,15,11,43,151,16,14,30,050,18,19,27,314,33,23,26,184,27*72

$GPGSV,4,3,15,31,13,083,,32,13,039,,28,07,248,17,06,05,296,*73

$GPRMC,093630.000,A,5212.2564,N,00007.0777,E,0.83,63.96,191118,,,A*50

$GPVTG,63.96,T,,M,0.83,N,1.54,K,A*0C

$GPVTG,77.12,T,,M,0.86,N,1.60,K,A*07

$GPGGA,093632.000,5212.2565,N,00007.0780,E,1,06,1.92,14.9,M,47.0,M,,*5A

$GPRMC,093633.000,A,5212.2566,N,00007.0780,E,0.19,327.07,191118,,,A*61

$GPVTG,327.07,T,,M,0.19,N,0.34,K,A*33

$GPGSV,4,2,15,11,43,151,15,14,30,050,17,23,27,184,29,19,27,314,33*71

$GPGSV,4,3,15,31,13,083,,32,13,039,,28,07,248,17,06,05,296,*73

$GPRMC,093635.000,A,5212.2572,N,00007.0796,E,0.85,64.27,191118,,,A*56

$GPVTG,64.27,T,,M,0.85,N,1.57,K,A*04

$GPVTG,57.26,T,,M,0.98,N,1.81,K,A*02

$GPGGA,093637.000,5212.2576,N,00007.0809,E,1,06,1.92,14.8,M,47.0,M,,*52

$GPRMC,093638.000,A,5212.2577,N,00007.0812,E,0.29,10.64,191118,,,A*5F

$GPVTG,10.64,T,,M,0.29,N,0.54,K,A*04

$GPGSV,4,2,15,11,43,151,12,14,30,050,17,23,27,184,28,19,27,314,33*77

$GPGSV,4,3,15,31,13,083,,32,13,039,,28,07,247,16,06,05,296,*7D

$GPRMC,093640.000,A,5212.2578,N,00007.0814,E,0.34,238.79,191118,,,A*61

$GPVTG,238.79,T,,M,0.34,N,0.63,K,A*38

$GPVTG,146.77,T,,M,0.39,N,0.72,K,A*31

$GPGGA,093642.000,5212.2576,N,00007.0814,E,1,06,1.92,14.8,M,47.0,M,,*5C

$GPRMC,093643.000,A,5212.2576,N,00007.0815,E,0.35,301.52,191118,,,A*6E

$GPVTG,301.52,T,,M,0.35,N,0.65,K,A*3D

$GPGSV,4,2,15,11,43,151,11,14,30,050,18,23,27,184,28,19,27,314,33*7B

$GPGSV,4,3,15,31,13,083,,32,12,039,,28,07,247,,06,05,296,*7B

$GPRMC,093645.000,A,5212.2576,N,00007.0814,E,0.21,257.07,191118,,,A*6E

$GPVTG,257.07,T,,M,0.21,N,0.39,K,A*33

$GPVTG,45.87,T,,M,0.60,N,1.11,K,A*04

$GPGGA,093647.000,5212.2581,N,00007.0832,E,1,06,1.91,14.9,M,47.0,M,,*57

$GPRMC,093648.000,A,5212.2582,N,00007.0840,E,0.58,125.89,191118,,,A*67

$GPVTG,125.89,T,,M,0.58,N,1.08,K,A*3E

$GPGSV,4,2,15,11,43,151,13,14,30,050,18,23,27,184,29,19,27,314,33*78

$GPGSV,4,3,15,31,13,083,,32,12,039,,28,07,247,,06,05,296,*7B

$GPRMC,093650.000,A,5212.2585,N,00007.0854,E,0.89,66.06,191118,,,A*51

$GPVTG,66.06,T,,M,0.89,N,1.65,K,A*08

$GPVTG,71.32,T,,M,1.09,N,2.02,K,A*02

$GPGGA,093652.000,5212.2592,N,00007.0881,E,1,05,2.00,15.1,M,47.0,M,,*58

$GPRMC,093653.000,A,5212.2595,N,00007.0893,E,0.85,61.63,191118,,,A*50

$GPVTG,61.63,T,,M,0.85,N,1.58,K,A*0E

$GPGSV,4,2,15,11,43,151,,14,30,050,19,23,27,184,29,19,27,314,33*7B

$GPGSV,4,3,15,31,13,083,,32,12,039,,28,07,247,,06,05,297,*7A

$GPRMC,093655.000,A,5212.2603,N,00007.0926,E,0.96,61.26,191118,,,A*56

$GPVTG,61.26,T,,M,0.96,N,1.77,K,A*00

$GPVTG,70.40,T,,M,0.86,N,1.60,K,A*07

$GPGGA,093657.000,5212.2604,N,00007.0937,E,1,05,2.00,15.8,M,47.0,M,,*54

$GPRMC,093658.000,A,5212.2604,N,00007.0939,E,0.77,79.62,191118,,,A*54

$GPVTG,79.62,T,,M,0.77,N,1.42,K,A*00

$GPGSV,4,2,15,11,42,151,,14,30,050,19,23,27,184,29,19,27,314,34*7D

$GPGSV,4,3,15,31,13,083,,32,12,039,,28,07,247,19,06,05,297,*72

$GPRMC,093700.000,A,5212.2598,N,00007.0932,E,0.14,39.13,191118,,,A*52

$GPVTG,39.13,T,,M,0.14,N,0.26,K,A*04

$GPVTG,225.40,T,,M,0.46,N,0.84,K,A*32

$GPGGA,093702.000,5212.2591,N,00007.0914,E,1,05,2.00,16.6,M,47.0,M,,*56

$GPRMC,093703.000,A,5212.2589,N,00007.0914,E,0.83,220.19,191118,,,A*6B

$GPVTG,220.19,T,,M,0.83,N,1.53,K,A*39

$GPGSV,4,2,15,11,42,151,,14,30,050,18,19,28,313,34,23,27,184,28*75

$GPGSV,4,3,15,31,13,083,,32,12,039,,28,07,247,,06,05,297,*7A

$GPRMC,093705.000,A,5212.2582,N,00007.0905,E,0.24,19.72,191118,,,A*5E

$GPVTG,19.72,T,,M,0.24,N,0.44,K,A*06

$GPVTG,252.74,T,,M,0.22,N,0.41,K,A*3E

$GPGGA,093707.000,5212.2576,N,00007.0889,E,1,05,2.00,16.5,M,47.0,M,,*5C

$GPRMC,093708.000,A,5212.2576,N,00007.0887,E,0.11,325.44,191118,,,A*6C

$GPVTG,325.44,T,,M,0.11,N,0.20,K,A*3B

$GPGSV,4,2,15,11,42,151,,14,30,050,18,19,28,313,34,23,27,184,26*7B

$GPGSV,4,3,15,31,13,083,,32,12,039,,28,07,247,,06,05,297,*7A

$GPRMC,093710.000,A,5212.2576,N,00007.0886,E,0.97,212.24,191118,,,A*69

$GPVTG,212.24,T,,M,0.97,N,1.81,K,A*3C

$GPVTG,219.88,T,,M,0.39,N,0.72,K,A*38

$GPGGA,093712.000,5212.2576,N,00007.0887,E,1,05,2.00,16.5,M,47.0,M,,*56

$GPRMC,093713.000,A,5212.2573,N,00007.0879,E,0.55,222.92,191118,,,A*6F

$GPVTG,222.92,T,,M,0.55,N,1.02,K,A*37

$GPGSV,4,2,15,11,42,151,16,14,30,050,18,19,28,313,34,23,27,184,26*7C

$GPGSV,4,3,15,31,13,083,,32,12,039,,28,07,247,,06,05,297,*7A

$GPRMC,093715.000,A,5212.2573,N,00007.0872,E,0.16,353.25,191118,,,A*6E

$GPVTG,353.25,T,,M,0.16,N,0.30,K,A*3B

$GPVTG,273.64,T,,M,0.54,N,0.99,K,A*38

$GPGGA,093717.000,5212.2573,N,00007.0869,E,1,06,1.91,16.5,M,47.0,M,,*5E

$GPRMC,093718.000,A,5212.2573,N,00007.0870,E,0.23,134.61,191118,,,A*64

$GPVTG,134.61,T,,M,0.23,N,0.42,K,A*3B

$GPGSV,4,2,15,11,42,151,16,14,30,050,18,19,28,313,34,23,27,184,25*7F

$GPGSV,4,3,15,31,13,083,,32,12,039,,28,07,247,22,06,05,297,*7A

$GPRMC,093720.000,A,5212.2573,N,00007.0872,E,0.37,286.68,191118,,,A*6B

$GPVTG,286.68,T,,M,0.37,N,0.69,K,A*34

$GPVTG,249.06,T,,M,0.48,N,0.90,K,A*31

$GPGGA,093722.000,5212.2573,N,00007.0868,E,1,06,1.91,16.4,M,47.0,M,,*58

$GPRMC,093723.000,A,5212.2572,N,00007.0862,E,0.82,259.33,191118,,,A*6A

$GPVTG,259.33,T,,M,0.82,N,1.51,K,A*3C

$GPGSV,4,2,15,11,42,151,18,14,30,050,17,19,28,313,34,23,27,184,19*71

$GPGSV,4,3,15,31,13,083,,32,12,039,,28,07,247,19,06,05,297,*72

$GPRMC,093725.000,A,5212.2569,N,00007.0850,E,0.51,211.02,191118,,,A*67

$GPVTG,211.02,T,,M,0.51,N,0.95,K,A*35

$GPVTG,229.60,T,,M,0.64,N,1.19,K,A*39

$GPGGA,093727.000,5212.2565,N,00007.0831,E,1,06,1.92,15.4,M,47.0,M,,*56

$GPRMC,093728.000,A,5212.2564,N,00007.0827,E,0.66,222.00,191118,,,A*61

$GPVTG,222.00,T,,M,0.66,N,1.21,K,A*3D

$GPGSV,4,2,15,11,42,151,19,14,30,050,17,19,28,313,34,33,28,199,*7A

$GPGSV,4,3,15,23,27,184,20,31,13,083,,32,12,039,,28,07,247,19*76

$GPRMC,093730.000,A,5212.2567,N,00007.0824,E,0.52,272.57,191118,,,A*68

$GPVTG,272.57,T,,M,0.52,N,0.97,K,A*31

$GPVTG,194.81,T,,M,0.28,N,0.52,K,A*35

$GPGGA,093732.000,5212.2574,N,00007.0826,E,1,06,1.91,15.3,M,47.0,M,,*50

$GPRMC,093733.000,A,5212.2577,N,00007.0828,E,0.28,56.94,191118,,,A*50

$GPVTG,56.94,T,,M,0.28,N,0.51,K,A*0D

$GPGSV,4,2,15,11,42,151,20,14,30,050,16,19,28,313,33,33,28,199,*76

$GPGSV,4,3,15,23,27,184,26,31,13,083,,32,12,039,,28,07,247,19*70

$GPRMC,093735.000,A,5212.2584,N,00007.0840,E,0.64,47.69,191118,,,A*5E

$GPVTG,47.69,T,,M,0.64,N,1.19,K,A*0A

$GPVTG,78.75,T,,M,0.49,N,0.90,K,A*04

$GPGGA,093737.000,5212.2588,N,00007.0839,E,1,06,1.92,15.5,M,47.0,M,,*5D

$GPRMC,093738.000,A,5212.2589,N,00007.0837,E,0.27,6.81,191118,,,A*6A

$GPVTG,6.81,T,,M,0.27,N,0.49,K,A*3A

$GPGSV,4,2,15,11,42,151,20,14,30,050,15,19,28,313,33,23,27,184,28*7D

$GPGSV,4,3,15,37,27,153,,31,13,083,,32,12,039,,28,07,247,19*7B

$GPRMC,093740.000,A,5212.2588,N,00007.0833,E,0.67,238.44,191118,,,A*62

$GPVTG,238.44,T,,M,0.67,N,1.23,K,A*35

$GPVTG,227.33,T,,M,0.33,N,0.61,K,A*3D

$GPGGA,093742.000,5212.2591,N,00007.0836,E,1,06,1.91,15.5,M,47.0,M,,*5B

$GPRMC,093743.000,A,5212.2593,N,00007.0838,E,0.24,10.81,191118,,,A*56

$GPVTG,10.81,T,,M,0.24,N,0.45,K,A*02

$GPGSV,4,2,15,11,42,151,20,14,30,050,14,19,28,313,33,23,27,184,27*73

$GPGSV,4,3,15,39,25,149,,31,13,083,,32,12,039,,28,07,247,19*7C

$GPRMC,093745.000,A,5212.2595,N,00007.0838,E,0.13,96.37,191118,,,A*51

$GPVTG,96.37,T,,M,0.13,N,0.25,K,A*03

$GPVTG,71.05,T,,M,0.28,N,0.52,K,A*03

$GPGGA,093747.000,5212.2595,N,00007.0840,E,1,06,1.92,15.4,M,47.0,M,,*59

$GPRMC,093748.000,A,5212.2593,N,00007.0833,E,0.12,269.57,191118,,,A*64

$GPVTG,269.57,T,,M,0.12,N,0.22,K,A*31

$GPGSV,4,2,15,11,42,151,17,14,30,050,13,19,28,313,33,23,27,184,24*73

$GPGSV,4,3,15,39,25,149,,31,13,083,,32,12,039,,28,06,247,18*7C

$GPRMC,093750.000,A,5212.2592,N,00007.0830,E,0.23,247.50,191118,,,A*66

$GPVTG,247.50,T,,M,0.23,N,0.42,K,A*3E

$GPVTG,291.13,T,,M,0.14,N,0.26,K,A*34

$GPGGA,093752.000,5212.2593,N,00007.0831,E,1,06,1.92,15.5,M,47.0,M,,*5C

$GPRMC,093753.000,A,5212.2591,N,00007.0830,E,0.17,293.89,191118,,,A*6C

$GPVTG,293.89,T,,M,0.17,N,0.32,K,A*33

$GPGSV,4,2,15,11,42,151,19,14,30,050,13,19,28,313,33,23,27,184,25*7C

$GPGSV,4,3,15,31,14,082,,32,12,039,,40,07,111,,28,06,247,17*76

$GPRMC,093755.000,A,5212.2589,N,00007.0830,E,0.33,179.60,191118,,,A*65

$GPVTG,179.60,T,,M,0.33,N,0.61,K,A*33

$GPVTG,73.58,T,,M,0.52,N,0.97,K,A*0D

$GPGGA,093757.000,5212.2591,N,00007.0839,E,1,06,1.91,16.3,M,47.0,M,,*55

$GPRMC,093758.000,A,5212.2591,N,00007.0840,E,0.04,346.18,191118,,,A*63

$GPVTG,346.18,T,,M,0.04,N,0.07,K,A*36

$GPGSV,4,2,15,11,42,151,24,14,30,050,13,19,28,313,33,23,27,184,29*7E

$GPGSV,4,3,15,31,14,082,,32,12,039,,40,07,111,,28,06,247,18*79

$GPRMC,093800.000,A,5212.2592,N,00007.0841,E,0.50,207.72,191118,,,A*6A

$GPVTG,207.72,T,,M,0.50,N,0.92,K,A*33

$GPVTG,232.46,T,,M,0.55,N,1.02,K,A*3F

$GPGGA,093802.000,5212.2590,N,00007.0838,E,1,06,1.92,16.4,M,47.0,M,,*5E

$GPRMC,093803.000,A,5212.2589,N,00007.0836,E,0.33,79.11,191118,,,A*58

$GPVTG,79.11,T,,M,0.33,N,0.61,K,A*04

$GPGSV,4,2,15,11,42,151,22,14,30,050,15,19,28,313,33,23,27,184,26*71

$GPGSV,4,3,15,31,14,082,,32,12,039,,28,06,247,19,44,06,109,*74

$GPRMC,093805.000,A,5212.2589,N,00007.0838,E,0.50,254.05,191118,,,A*6D

$GPVTG,254.05,T,,M,0.50,N,0.92,K,A*35

$GPVTG,199.47,T,,M,0.53,N,0.99,K,A*39

$GPGGA,093807.000,5212.2587,N,00007.0834,E,1,06,1.92,16.4,M,47.0,M,,*51

$GPRMC,093808.000,A,5212.2586,N,00007.0835,E,0.17,57.29,191118,,,A*5E

$GPVTG,57.29,T,,M,0.17,N,0.32,K,A*03

$GPGSV,4,2,15,11,42,151,26,14,30,050,16,19,28,313,33,23,27,184,29*79

$GPGSV,4,3,15,31,14,082,,32,12,039,,28,06,247,18,44,06,109,*75

$GPRMC,093810.000,A,5212.2587,N,00007.0837,E,0.41,230.43,191118,,,A*68

$GPVTG,230.43,T,,M,0.41,N,0.77,K,A*3E

$GPVTG,254.58,T,,M,0.51,N,0.95,K,A*3B

$GPGGA,093812.000,5212.2586,N,00007.0833,E,1,06,1.92,16.5,M,47.0,M,,*52

$GPRMC,093813.000,A,5212.2586,N,00007.0832,E,0.32,336.09,191118,,,A*62

$GPVTG,336.09,T,,M,0.32,N,0.59,K,A*3F

$GPGSV,4,2,15,11,42,151,24,14,30,050,16,19,28,313,32,33,28,199,*73

$GPGSV,4,3,15,23,27,184,26,31,14,082,,32,12,039,,28,06,247,18*76

$GPRMC,093815.000,A,5212.2587,N,00007.0832,E,0.30,15.83,191118,,,A*57

$GPVTG,15.83,T,,M,0.30,N,0.56,K,A*02

$GPVTG,36.35,T,,M,0.34,N,0.63,K,A*0C

$GPGGA,093817.000,5212.2588,N,00007.0834,E,1,06,1.92,16.5,M,47.0,M,,*5E

$GPRMC,093818.000,A,5212.2589,N,00007.0832,E,0.84,264.21,191118,,,A*67

$GPVTG,264.21,T,,M,0.84,N,1.55,K,A*33

$GPGSV,4,2,15,11,42,151,21,14,30,050,16,19,28,313,33,33,28,199,*77

$GPGSV,4,3,15,23,27,184,24,31,14,082,,32,12,039,,28,06,247,18*74

$GPRMC,093820.000,A,5212.2589,N,00007.0833,E,0.26,228.80,191118,,,A*66

$GPVTG,228.80,T,,M,0.26,N,0.47,K,A*3A

$GPVTG,227.59,T,,M,0.23,N,0.43,K,A*30

$GPGGA,093822.000,5212.2587,N,00007.0834,E,1,06,1.92,17.1,M,47.0,M,,*52

$GPRMC,093823.000,A,5212.2587,N,00007.0833,E,0.47,261.82,191118,,,A*63

$GPVTG,261.82,T,,M,0.47,N,0.87,K,A*3E

$GPGSV,4,2,15,11,42,151,19,14,30,050,14,19,28,313,33,23,27,184,14*79

$GPGSV,4,3,15,37,27,153,,31,14,082,,32,12,039,,28,06,247,*74

$GPRMC,093825.000,A,5212.2586,N,00007.0833,E,0.38,288.48,191118,,,A*6D

$GPVTG,288.48,T,,M,0.38,N,0.70,K,A*3F

$GPVTG,281.57,T,,M,0.63,N,1.17,K,A*36

$GPGGA,093827.000,5212.2583,N,00007.0828,E,1,06,1.92,17.6,M,47.0,M,,*59

$GPRMC,093828.000,A,5212.2583,N,00007.0826,E,0.84,255.73,191118,,,A*6E

$GPVTG,255.73,T,,M,0.84,N,1.56,K,A*35

$GPGSV,4,2,15,11,42,151,18,14,30,050,15,19,28,313,33,23,27,184,17*7A

$GPGSV,4,3,15,37,27,153,,31,14,082,,32,12,039,,28,06,247,18*7D

$GPRMC,093830.000,A,5212.2581,N,00007.0827,E,0.77,246.20,191118,,,A*6C

$GPVTG,246.20,T,,M,0.77,N,1.42,K,A*38

$GPVTG,283.33,T,,M,1.16,N,2.15,K,A*34

$GPGGA,093832.000,5212.2584,N,00007.0834,E,1,06,1.92,18.4,M,47.0,M,,*5A

$GPRMC,093833.000,A,5212.2585,N,00007.0839,E,0.41,54.87,191118,,,A*5D

$GPVTG,54.87,T,,M,0.41,N,0.77,K,A*06

$GPGSV,4,2,15,11,42,151,18,14,30,050,14,19,28,313,32,23,27,184,15*78

$GPGSV,4,3,15,39,25,149,,31,14,082,,32,12,039,,28,06,247,15*77

$GPRMC,093835.000,A,5212.2585,N,00007.0839,E,0.17,16.10,191118,,,A*50

$GPVTG,16.10,T,,M,0.17,N,0.31,K,A*0F

$GPVTG,209.35,T,,M,0.13,N,0.24,K,A*34

$GPGGA,093837.000,5212.2585,N,00007.0839,E,1,06,1.92,18.6,M,47.0,M,,*51

$GPRMC,093838.000,A,5212.2584,N,00007.0839,E,0.23,215.76,191118,,,A*6A

$GPVTG,215.76,T,,M,0.23,N,0.42,K,A*3D

$GPGSV,4,2,15,11,42,151,19,14,30,050,14,19,28,313,32,23,27,184,18*74

$GPGSV,4,3,15,39,25,149,,31,14,082,,32,12,039,,28,06,247,14*76

$GPRMC,093840.000,A,5212.2583,N,00007.0838,E,0.33,185.12,191118,,,A*6A

$GPVTG,185.12,T,,M,0.33,N,0.62,K,A*36

$GPVTG,177.77,T,,M,0.16,N,0.30,K,A*38

$GPGGA,093842.000,5212.2582,N,00007.0838,E,1,06,1.92,18.7,M,47.0,M,,*54

$GPRMC,093843.000,A,5212.2581,N,00007.0830,E,0.70,266.73,191118,,,A*6D

$GPVTG,266.73,T,,M,0.70,N,1.30,K,A*3E

$GPGSV,4,2,15,11,42,151,19,14,29,050,15,19,28,313,32,23,27,184,19*7C

$GPGSV,4,3,15,31,14,082,,32,12,039,,40,07,111,,28,06,247,12*73

$GPRMC,093845.000,A,5212.2582,N,00007.0822,E,0.98,258.72,191118,,,A*61

$GPVTG,258.72,T,,M,0.98,N,1.82,K,A*3D

$GPVTG,234.90,T,,M,1.13,N,2.10,K,A*31

$GPGGA,093847.000,5212.2579,N,00007.0811,E,1,06,1.92,18.8,M,47.0,M,,*51

$GPRMC,093848.000,A,5212.2582,N,00007.0813,E,0.70,296.52,191118,,,A*68

$GPVTG,296.52,T,,M,0.70,N,1.30,K,A*32

$GPGSV,4,2,15,11,42,151,21,14,29,050,,19,28,313,32,23,27,184,19*73

$GPGSV,4,3,15,31,14,082,,32,12,039,,40,07,111,,28,06,247,*70

$GPRMC,093850.000,A,5212.2579,N,00007.0799,E,0.97,265.16,191118,,,A*6D

$GPVTG,265.16,T,,M,0.97,N,1.79,K,A*3A

$GPVTG,246.62,T,,M,1.02,N,1.90,K,A*32

$GPGGA,093852.000,5212.2574,N,00007.0786,E,1,05,2.73,19.2,M,47.0,M,,*5D

$GPRMC,093853.000,A,5212.2572,N,00007.0781,E,2.02,246.78,191118,,,A*6B

$GPVTG,246.78,T,,M,2.02,N,3.74,K,A*32

$GPGSV,4,2,15,11,42,151,21,14,29,050,16,23,28,184,19,19,28,313,32*7B

$GPGSV,4,3,15,31,14,082,,32,12,039,,28,06,247,,44,06,109,*7C

$GPRMC,093855.000,A,5212.2568,N,00007.0774,E,0.79,231.40,191118,,,A*69

$GPVTG,231.40,T,,M,0.79,N,1.47,K,A*35

$GPVTG,242.23,T,,M,0.48,N,0.89,K,A*35

$GPGGA,093857.000,5212.2562,N,00007.0767,E,1,05,2.73,19.5,M,47.0,M,,*57

$GPRMC,093858.000,A,5212.2560,N,00007.0762,E,0.84,219.30,191118,,,A*64

$GPVTG,219.30,T,,M,0.84,N,1.56,K,A*3A

$GPGSV,4,2,15,11,42,151,23,14,29,050,17,23,28,184,19,19,28,313,33*79

$GPGSV,4,3,15,31,14,082,,32,12,039,,28,06,247,17,44,06,109,*7A

$GPRMC,093900.000,A,5212.2560,N,00007.0763,E,0.37,148.44,191118,,,A*65

$GPVTG,148.44,T,,M,0.37,N,0.68,K,A*3A

$GPVTG,190.14,T,,M,0.20,N,0.37,K,A*36

$GPGGA,093902.000,5212.2559,N,00007.0760,E,1,05,2.73,19.8,M,47.0,M,,*54

$GPRMC,093903.000,A,5212.2560,N,00007.0760,E,0.55,31.07,191118,,,A*59

$GPVTG,31.07,T,,M,0.55,N,1.02,K,A*0B

$GPGSV,4,2,15,11,42,151,23,14,29,050,17,23,28,184,17,19,28,313,33*77

$GPGSV,4,3,15,31,14,082,,32,11,038,,28,06,247,17,06,05,297,*79

$GPRMC,093905.000,A,5212.2562,N,00007.0762,E,0.06,46.69,191118,,,A*51

$GPVTG,46.69,T,,M,0.06,N,0.12,K,A*05

$GPVTG,122.24,T,,M,0.13,N,0.25,K,A*3F

$GPGGA,093907.000,5212.2562,N,00007.0763,E,1,05,2.73,19.8,M,47.0,M,,*5A

$GPRMC,093908.000,A,5212.2562,N,00007.0765,E,0.41,168.02,191118,,,A*68

$GPVTG,168.02,T,,M,0.41,N,0.75,K,A*37

$GPGSV,4,2,15,11,42,151,23,14,29,050,17,23,28,184,19,19,28,313,33*79

$GPGSV,4,3,15,31,14,082,,32,11,038,,28,06,247,16,06,05,297,*78

$GPRMC,093910.000,A,5212.2561,N,00007.0767,E,0.63,36.54,191118,,,A*59

$GPVTG,36.54,T,,M,0.63,N,1.17,K,A*0B

$GPVTG,193.69,T,,M,0.52,N,0.96,K,A*31

$GPGGA,093912.000,5212.2552,N,00007.0757,E,1,05,2.73,20.0,M,47.0,M,,*58

$GPRMC,093913.000,A,5212.2551,N,00007.0759,E,0.42,238.13,191118,,,A*68

$GPVTG,238.13,T,,M,0.42,N,0.78,K,A*3F

$GPGSV,4,2,15,11,42,151,23,14,29,050,17,23,28,184,18,19,28,313,33*78

$GPGSV,4,3,15,31,14,082,,32,11,038,,28,06,247,15,06,06,297,*78

$GPRMC,093915.000,A,5212.2545,N,00007.0748,E,1.49,243.36,191118,,,A*6A

$GPVTG,243.36,T,,M,1.49,N,2.76,K,A*32

$GPVTG,240.41,T,,M,1.03,N,1.91,K,A*35

$GPGGA,093917.000,5212.2543,N,00007.0749,E,1,05,2.73,20.7,M,47.0,M,,*55

$GPRMC,093918.000,A,5212.2542,N,00007.0747,E,0.78,239.94,191118,,,A*69

$GPVTG,239.94,T,,M,0.78,N,1.44,K,A*36

$GPGSV,4,2,15,11,41,151,22,14,29,049,17,23,28,184,15,19,28,313,33*7F

$GPGSV,4,3,15,31,14,082,,32,11,038,,28,06,247,14,06,06,297,*79

$GPRMC,093920.000,A,5212.2545,N,00007.0748,E,0.83,275.55,191118,,,A*6B

$GPVTG,275.55,T,,M,0.83,N,1.55,K,A*37

$GPVTG,242.61,T,,M,0.65,N,1.20,K,A*3E

$GPGGA,093922.000,5212.2546,N,00007.0746,E,1,05,2.73,21.1,M,47.0,M,,*5E

$GPRMC,093923.000,A,5212.2546,N,00007.0745,E,0.84,240.59,191118,,,A*6B

